     2.11           OBSERVATION DATA    M (MIXED)           RINEX VERSION / TYPE
teqc  2019Feb25                         20230504 17:05:55UTCPGM / RUN BY / DATE
Linux2.6.32-573.12.1.el6.x86_64|x86_64|gcc|Win64-MinGW64|=+ COMMENT
BIT 2 OF LLI FLAGS DATA COLLECTED UNDER A/S CONDITION       COMMENT
CVBB                                                        MARKER NAME
CVBB                                                        MARKER NUMBER
RFGH                SEGAL                                   OBSERVER / AGENCY
3055330             SEPT POLARX5        5.3.2               REC # / TYPE / VERS
1909270038          TWIVP6050_CONE  NONE                    ANT # / TYPE
  6378137.0000        0.0000        0.0000                  APPROX POSITION XYZ
        0.1190        0.0000        0.0000                  ANTENNA: DELTA H/E/N
     1     1                                                WAVELENGTH FACT L1/2
     7    L1    L2    C1    P1    P2    S1    S2            # / TYPES OF OBSERV
    18                                                      LEAP SECONDS
 SNR is mapped to RINEX snr flag value [0-9]                COMMENT
  L1 & L2: min(max(int(snr_dBHz/6), 0), 9)                  COMMENT
  2021    10    20    10    14    0.0000000     GPS         TIME OF FIRST OBS
                                                            END OF HEADER
 21 10 20 10 14  0.0000000  0 24G01G17G03G04R04G06G07G19G09S23R24E04
                                R17S48E12S25E19E26S36R02R18R03G28G14
 122203284.46716  95223352.49756  23254512.326    23254512.264    23254514.980
        41.500          41.000
 107868175.36718  84053119.93957  20526631.369    20526631.097    20526630.221
        49.250          43.500
 120811366.83216  94138736.69957  22989638.660    22989638.709    22989640.806
        41.750          42.250
 110285921.48017  85937083.83756  20986713.200    20986713.057    20986713.170
        47.250          39.500
 114972013.19918                  21470212.138
        49.250
 116955537.12217  91134193.96056  22255898.431    22255898.453    22255900.562
        44.750          36.000
 129234193.43916 100701991.24856  24592449.014    24592448.903    24592454.932
        39.000          36.500
 107787803.11218  83990485.63156  20511337.269    20511336.169    20511334.086
        48.250          41.750
 107535580.00518  83793963.15159  20463340.585    20463340.085    20463341.441
        51.000          56.000
 203886918.17917                  38798391.882
        43.500
 125152966.32217                  23404234.962
        44.250
 139073205.78317                  26464751.141
        42.500
 104311778.05718                  19493149.321
        53.250
  30708369.37217                   5843659.816
        43.500
 120796343.72917                  22986780.143
        43.750
 179820091.26918                  34218633.594
        48.750
 121276860.36617                  23078219.203
        43.750
 138512559.56416                  26358064.086
        41.500
 195093433.84517                  37125047.093
        46.500
 114014903.46618                  21366344.033
        49.000
 105863703.35618                  19831838.285
        51.500
 103606627.56418                  19354588.182
        52.750
 128339662.13416                  24422225.541
        37.000
 132110244.70715                  25139743.335
        32.500
 21 10 20 10 14 30.0000000  0 23G01G17G03G04R04G06G07G19G09S25S23R24
                                E04R17S48E12E19E26S36R02R18R03G14
 122273035.226 6  95277703.60846  23267785.248    23267785.034    23267788.205
        41.250          40.250
 107894476.586 8  84073614.36947  20531636.399    20531636.069    20531635.175
        49.250          43.000
 120881859.415 7  94193665.94946  23003053.062    23003052.973    23003054.851
        42.000          41.750
 110323530.308 7  85966389.39746  20993869.990    20993869.785    20993869.989
        47.250          39.000
 114890349.936 8                  21454961.783
        49.250
 116883225.488 7  91077847.23246  22242137.972    22242138.016    22242140.387
        44.500          36.000
 129164562.080 6 100647733.22246  24579198.506    24579198.265    24579204.343
        39.750          36.000
 107772139.815 8  83978280.44946  20508356.789    20508355.573    20508353.320
        48.250          41.500
 107500179.077 8  83766378.01149  20456604.015    20456603.533    20456604.799
        51.000          55.750
 179820515.78618                  34218710.555
        49.000
 203886720.173 7                  38798352.917
        43.750
 125264890.036 7                  23425164.941
        42.750
 138994732.815 7                  26449818.287
        42.250
 104352941.228 8                  19500841.670
        53.000
  30707520.477 7                   5843551.782
        43.500
 120742544.623 7                  22976542.336
        44.000
 121266644.129 7                  23076275.182
        43.750
 138571995.377 6                  26369374.168
        41.500
 195093148.696 7                  37124994.691
        47.000
 114116132.799 8                  21385314.882
        49.500
 105794167.398 8                  19818812.105
        51.500
 103621258.912 8                  19357321.612
        52.750
 132175428.38716                  25152149.106
        38.250
 21 10 20 10 15  0.0000000  0 24G01G17G03G04R04G06G07G19G09S25R19S23
                                R24E04R17S48E12E19E26S36R02R18R03G14
 122343227.387 6  95332398.66646  23281142.085    23281141.866    23281145.536
        40.750          40.250
 107921559.074 8  84094717.57547  20536790.039    20536789.704    20536788.858
        49.250          43.000
 120952581.321 7  94248773.89447  23016511.420    23016511.318    23016513.223
        42.000          42.000
 110361892.837 7  85996282.26046  21001169.982    21001169.768    21001170.074
        47.250          39.000
 114809377.096 8                  21439841.343
        49.500
 116811206.599 7  91021728.63445  22228433.581    22228433.607    22228435.981
        43.750          35.750
 129095023.582 6 100593547.55346  24565966.410    24565966.142    24565971.524
        39.500          36.250
 107757342.427 8  83966750.00246  20505540.805    20505539.585    20505537.517
        48.500          41.500
 107465554.788 8  83739398.03849  20450015.232    20450014.750    20450015.961
        51.000          56.000
 179821114.828 8                  34218832.514
        49.250
 124438847.75815                  23262528.584
        32.500
 203886750.642 7                  38798358.399
        43.750
 125377313.540 7                  23446189.707
        42.000
 138916668.313 7                  26434962.831
        42.000
 104395001.042 8                  19508701.558
        52.750
  30706902.378 7                   5843486.474
        43.750
 120689074.987 7                  22966367.413
        43.250
 121257032.300 7                  23074446.027
        43.500
 138631853.940 6                  26380765.254
        41.250
 195093094.082 7                  37124982.631
        47.000
 114217738.473 8                  21404355.642
        48.500
 105725341.354 8                  19805919.000
        51.750
 103636690.371 8                  19360204.207
        52.500
 132240672.953 5 103044692.88252  25164564.687    25164564.495    25164567.720
        31.750          17.750
 21 10 20 10 15 30.0000000  0 24G01G17G03G04R04G06G07G19G09S25R19S23
                                R24E04R17S48E12E19E26S36R02R18R03G14
 122413644.217 6  95387268.77746  23294542.417    23294542.216    23294545.920
        41.250          41.000
 107949205.522 8  84116260.23147  20542050.972    20542050.637    20542049.964
        49.250          43.250
 121023315.257 7  94303891.20146  23029971.435    23029971.328    23029973.272
        42.000          41.750
 110400790.842 7  86026592.37646  21008572.092    21008571.873    21008572.223
        47.250          39.000
 114728875.218 8                  21424807.850
        49.000
 116739265.464 7  90965670.62446  22214743.184    22214743.188    22214745.760
        44.500          36.000
 129025363.314 6 100539266.99546  24552709.831    24552709.541    24552715.510
        39.750          37.000
 107743194.893 8  83955725.93346  20502848.506    20502847.286    20502845.180
        48.250          41.500
 107431491.377 8  83712855.11349  20443533.167    20443532.685    20443534.067
        51.250          56.000
 179821735.765 8                  34218957.617
        48.750
 124318853.098 5                  23240099.323
        32.750
 203886796.793 7                  38798365.151
        43.500
 125490014.510 7                  23467266.618
        42.250
 138838796.875 7                  26420144.329
        42.000
 104437736.849 8                  19516688.039
        52.500
  30706298.864 7                   5843425.646
        43.500
 120635719.687 7                  22956214.347
        43.250
 121247807.921 7                  23072690.515
        43.750
 138691918.433 6                  26392195.133
        41.000
 195093051.591 7                  37124974.573
        46.750
 114319496.925 8                  21423425.022
        48.250
 105657009.005 8                  19793118.022
        51.750
 103652699.187 8                  19363195.118
        52.500
 132305747.556 6 103095400.07044  25176949.399    25176949.189    25176953.359
        40.250          24.750
 21 10 20 10 16  0.0000000  0 24G01G17G03G04R04G06G07G19G09S25R19S23
                                R24E04R17S48E12E19E26S36R02R18R03G14
 122484273.721 6  95442304.61146  23307982.476    23307982.284    23307986.732
        40.250          40.500
 107977402.625 8  84138231.97147  20547416.682    20547416.347    20547415.737
        49.000          43.250
 121094048.590 6  94359008.03546  23043431.284    23043431.168    23043432.941
        41.750          41.250
 110440210.765 7  86057309.17846  21016073.334    21016073.111    21016073.545
        46.750          39.250
 114648833.463 8                  21409860.581
        49.250
 116667391.791 7  90909665.17546  22201065.925    22201065.938    22201068.328
        44.500          36.000
 128955571.675 6 100484884.08646  24539428.785    24539428.481    24539434.952
        39.500          37.750
 107729685.972 8  83945199.48646  20500277.981    20500276.756    20500274.789
        48.000          41.750
 107397977.712 8  83686740.56349  20437155.565    20437155.078    20437156.778
        51.000          56.250
 179822369.335 8                  34219083.292
        48.500
 124198858.263 5                  23217665.331
        34.250
 203886846.637 7                  38798376.093
        43.250
 125602978.112 7                  23488391.226
        42.250
 138761107.710 7                  26405360.441
        42.000
 104481136.535 8                  19524797.936
        52.500
  30705697.864 7                   5843361.863
        43.250
 120582468.232 7                  22946080.922
        43.750
 121238958.703 7                  23071006.708
        43.750
 138752176.728 6                  26403662.280
        41.500
 195093010.442 7                  37124967.463
        46.250
 114421392.936 8                  21442519.782
        48.000
 105589162.019 8                  19780407.702
        51.250
 103669270.551 8                  19366290.729
        52.750
 132370638.098 5 103145964.02342  25189296.054    25189295.907    25189299.920
        35.750          14.750
 21 10 20 10 16 30.0000000  0 25G01G17G03G04R04G06G07G19G09S25R19S23
                                R24E04G20R17S48E12E19E26S36R02R18R03
                                G14
 122555103.786 6  95497496.71446  23321461.168    23321460.963    23321465.133
        40.000          40.250
 108006138.296 8  84160623.37547  20552884.789    20552884.454    20552883.914
        48.750          43.000
 121164768.690 6  94414114.57146  23056889.384    23056889.264    23056890.682
        41.750          41.500
 110480139.006 7  86088422.07446  21023671.427    21023671.204    21023671.766
        46.750          39.000
 114569240.653 8                  21394997.068
        49.000
 116595575.244 7  90853704.24246  22187400.117    22187400.117    22187402.428
        44.750          36.000
 128885639.626 6 100430391.75446  24526120.597    24526120.293    24526126.925
        39.000          37.000
 107716805.010 8  83935162.36046  20497826.550    20497825.325    20497823.602
        48.000          41.750
 107365002.637 8  83661045.69249  20430880.737    20430880.255    20430881.848
        51.000          56.250
 179822997.148 8                  34219207.912
        49.000
 124078854.924 5                  23195232.066
        34.750
 203886887.138 7                  38798382.890
        43.500
 125716189.842 6                  23509563.652
        41.750
 138683590.114 7                  26390609.506
        42.000
 134790423.77016                  25649764.769
        38.250
 104525187.080 8                  19533030.249
        52.500
  30706685.960 7                   5843298.456
        43.500
 120529310.166 7                  22935965.197
        43.750
 121230472.334 7                  23069391.628
        43.750
 138812616.720 6                  26415163.834
        40.750
 195092960.480 7                  37124957.657
        46.750
 114523410.846 8                  21461638.575
        48.500
 105521791.906 8                  19767786.963
        51.750
 103686390.059 8                  19369488.852
        52.500
 132435330.388 6 103196373.32444  25201608.623    25201608.530    25201613.279
        36.250          24.750
 21 10 20 10 17  0.0000000  0 24G01G17G03G04R04G06G07G19G09S25R19S23
                                R24E04R17S48E12E19E26S36R02R18R03G14
 122626151.842 6  95552858.67846  23334981.591    23334981.386    23334985.044
        39.750          40.000
 108035428.849 8  84183447.15847  20558458.651    20558458.312    20558457.765
        49.000          43.000
 121235492.462 6  94469223.96047  23070347.080    23070346.960    23070349.560
        41.750          42.000
 110520591.423 7  86119943.41946  21031369.532    21031369.309    21031369.566
        46.750          39.250
 114490116.144 8                  21380221.425
        48.750
 116523835.005 7  90797802.77146  22173748.483    22173748.479    22173750.770
        44.750          36.000
 128815586.314 6 100375804.93346  24512790.106    24512789.807    24512795.959
        39.250          37.500
 107704569.822 8  83925628.43547  20495498.498    20495497.273    20495495.318
        48.000          42.000
 107332584.475 8  83635784.78049  20424711.756    20424711.278    20424712.708
        51.000          56.250
 179823642.661 8                  34219334.508
        48.750
 123958863.947 5                  23172801.348
        34.500
 203886936.810 7                  38798393.291
        43.500
 125829665.062 6                  23530785.013
        41.500
 138606262.800 6                  26375894.464
        41.500
 104569906.508 8                  19541386.987
        52.250
  30706082.119 7                   5843235.276
        43.500
 120476264.526 7                  22925870.978
        43.250
 121222365.993 7                  23067849.201
        43.250
 138873255.744 6                  26426703.075
        40.750
 195092917.181 7                  37124949.393
        46.750
 114625565.709 8                  21480782.246
        48.250
 105454920.400 8                  19755259.798
        51.750
 103704073.271 8                  19372792.305
        52.500
 132499846.80115 103246658.15653  25213882.617    25213883.010    25213888.040
        34.500          20.500
 21 10 20 10 17 30.0000000  0 25G01G17G03G04R04G06G07G19G09S25R19G11
                                S23R24E04R17S48E12E19E26S36R02R18R03
                                G14
 122697414.447 6  95608387.80446  23348542.035    23348541.839    23348546.500
        39.750          40.000
 108065269.918 8  84206699.90747  20564137.229    20564136.894    20564136.328
        49.000          43.000
 121306215.975 6  94524333.14446  23083805.696    23083805.571    23083808.097
        41.000          41.750
 110561562.954 7  86151869.26846  21039166.209    21039165.986    21039166.350
        47.000          39.250
 114411457.438 8                  21365532.253
        48.750
 116452169.343 7  90741959.39145  22160110.858    22160110.845    22160112.182
        44.250          35.250
 128745410.937 6 100321123.00246  24499435.935    24499435.618    24499441.994
        39.500          38.500
 107692977.359 8  83916595.33247  20493292.501    20493291.276    20493289.243
        48.250          42.000
 107300720.611 8  83610955.78949  20418648.270    20418647.792    20418649.224
        51.000          56.500
 179824293.076 8                  34219462.432
        48.750
 123838884.610 5                  23150372.921
        33.750
 131221347.12416                  24970592.480
        36.750
 203886989.818 7                  38798401.250
        43.500
 125943397.981 7                  23552054.548
        42.000
 138529123.565 6                  26361215.164
        41.750
 104615291.166 8                  19549868.041
        52.250
  30705482.320 7                   5843174.095
        43.500
 120423329.421 7                  22915797.774
        43.500
 121214635.891 7                  23066378.213
        43.500
 138934090.223 6                  26438279.693
        41.000
 195092880.345 7                  37124942.221
        46.750
 114727850.784 8                  21499950.888
        48.500
 105388547.718 8                  19742826.313
        51.750
 103722314.468 8                  19376199.689
        52.500
 132564167.789 6 103296778.06843  25226123.092    25226123.642    25226129.021
        36.500          21.250
 21 10 20 10 18  0.0000000  0 25G01G17G03G04R04G06G07G19G09S25R19S23
                                R24E04R17S48E12E19E26G20S36R02R18R03
                                G14
 122768889.342 6  95664082.36246  23362143.923    23362143.736    23362147.611
        39.500          40.000
 108095658.730 8  84230379.47247  20569919.977    20569919.642    20569918.936
        48.750          43.000
 121376936.279 6  94579439.83946  23097262.910    23097262.781    23097265.664
        41.000          41.500
 110603049.861 7  86184196.70746  21047060.811    21047060.588    21047060.995
        46.750          39.500
 114333263.723 8                  21350930.265
        48.500
 116380577.889 7  90686173.84145  22146487.374    22146487.352    22146488.382
        44.500          35.500
 128675113.996 6 100266346.35546  24486059.205    24486058.884    24486064.755
        39.750          38.250
 107682026.538 8  83908062.20847  20491208.476    20491207.251    20491205.632
        48.000          42.250
 107269409.676 8  83586557.65249  20412690.052    20412689.574    20412691.024
        50.750          56.500
 179824954.202 8                  34219591.143
        49.000
 123718918.178 5                  23127944.681
        31.750
 203887042.013 7                  38798412.112
        43.500
 126057384.022 6                  23573370.688
        41.500
 138452171.550 7                  26346571.579
        42.250
 104661338.560 8                  19558473.321
        52.500
  30704885.525 7                   5843114.028
        43.500
 120370504.285 7                  22905745.625
        43.250
 121207279.577 7                  23064978.209
        43.500
 138995117.927 6                  26449893.059
        40.750
 134587123.77015 104873082.98851  25611077.310    25611077.217    25611078.769
        32.250          11.500
 195092846.195 7                  37124935.397
        46.750
 114830260.495 8                  21519142.162
        48.500
 105322675.859 8                  19730485.939
        51.500
 103741109.183 8                  19379710.875
        52.250
 132628296.099 6 103346748.13743  25238328.128    25238328.521    25238330.161
        38.000          18.500
 21 10 20 10 18 30.0000000  0 26G01G17G03G04R04G06G07G19G09S25R19E11
                                S23R24E04R17S48E12E19E26G20S36R02R18
                                R03G14
 122840574.955 6  95719941.10246  23375784.664    23375784.477    23375789.167
        38.750          39.750
 108126592.735 8  84254483.86447  20575806.726    20575806.391    20575805.384
        48.750          43.000
 121447651.437 6  94634542.51546  23110719.760    23110719.640    23110722.297
        41.500          41.750
 110645048.982 7  86216923.27546  21055052.934    21055052.706    21055053.095
        47.000          39.250
 114255534.459 8                  21336414.847
        48.750
 116309060.860 7  90630446.29346  22132878.063    22132878.041    22132879.929
        45.250          36.500
 128604696.020 6 100211475.38546  24472658.741    24472658.411    24472663.808
        39.250          37.250
 107671716.615 8  83900028.48447  20489246.656    20489245.436    20489243.681
        48.000          42.250
 107238650.982 8  83562589.83449  20406836.817    20406836.339    20406837.827
        51.000          56.500
 179825629.399 8                  34219720.901
        49.250
 123598966.681 5                  23105521.048
        31.750


 203887094.218 7                  38798422.272
        43.750
 126171619.167 6                  23594734.126
        40.750
 138375406.482 7                  26331963.659
        42.250
 104708046.877 8                  19567201.818
        52.500
  30704290.711 7                   5843052.655
        43.750
 120317789.176 7                  22895714.017
        43.500
 121200295.222 7                  23063649.134
        43.750
 139056337.182 6                  26461542.819
        40.750
 134519449.111 6 104820349.61943  25598200.769    25598200.005    25598201.140
        36.500          19.750
 195092814.612 7                  37124928.475
        47.000
 114932790.392 8                  21538356.200
        48.000
 105257306.897 8                  19718240.068
        51.500
 103760453.338 8                  19383324.502
        52.250
 132692228.238 6 103396565.08144  25250493.589    25250493.933    25250498.801
        36.250          24.000
 21 10 20 10 19  0.0000000  0 27G01G17G03G04R04G06G07G19G09S25R19E11
                                S23R24E04R17S48E12G02E19E26G20S36R02
                                R18R03G14
 122912472.751 6  95775965.18046  23389466.374    23389466.191    23389470.986
        38.750          39.500
 108158072.449 8  84279013.48147  20581797.254    20581796.919    20581795.919
        48.500          43.000
 121518362.410 6  94689641.93046  23124176.094    23124175.969    23124178.111
        41.000          41.750
 110687560.163 7  86250048.85346  21063142.485    21063142.257    21063142.792
        47.000          39.250
 114178272.604 8                  21321986.317
        49.000
 116237621.547 7  90574779.30246  22119283.586    22119283.564    22119285.808
        45.000          36.250
 128534160.978 6 100156513.21746  24459235.915    24459235.567    24459241.236
        39.750          37.750
 107662049.379 8  83892495.55747  20487407.050    20487405.825    20487403.953
        48.000          42.000
 107208446.782 8  83539054.08949  20401089.208    20401088.730    20401090.200
        51.000          56.500
 179826306.529 8                  34219850.654
        49.000
 123479034.669 5                  23083103.000
        34.500


 203887150.793 7                  38798433.106
        43.500
 126286102.945 7                  23616144.069
        42.250
 138298831.081 7                  26317391.973
        42.500
 104755417.401 8                  19576054.312
        52.500
  30703699.431 7                   5842994.877
        43.500
 120265187.213 7                  22885704.353
        43.750
 137017117.09315                  26073490.730
        35.500
 121193683.982 7                  23062391.267
        43.500
 139117749.362 6                  26473229.492
        40.750
 134451820.669 5 104767651.98941  25585330.879    25585329.954    25585331.940
        31.500           7.000
 195092777.894 7                  37124921.173
        46.750
 115035438.530 7                  21557592.239
        47.500
 105192446.463 8                  19706089.915
        51.500
 103780346.207 8                  19387040.584
        52.000
 132755963.390 5 103446228.75542  25262620.825    25262621.129    25262627.974
        33.500          15.250
 21 10 20 10 19 30.0000000  0 27G01G17G03G04R04G06G07G19G09S25R19E11
                                S23R24E04R17S48E12G02E19E26G20S36R02
                                R18R03G14
 122984573.584 6  95832147.46246  23403187.497    23403187.314    23403191.990
        38.500          39.500
 108190087.942 8  84303960.58747  20587889.547    20587889.208    20587888.371
        48.750          42.750
 121589059.642 6  94744730.64546  23137628.973    23137628.857    23137631.296
        41.500          41.750
 110730572.661 7  86283565.06946  21071327.570    21071327.347    21071327.664
        47.000          39.000
 114101469.875 8                  21307644.081
        49.250
 116166252.668 7  90519167.18746  22105702.400    22105702.374    22105704.515
        45.000          36.250
 128463502.125 6 100101454.56246  24445790.555    24445790.216    24445795.272
        40.000          37.750
 107653016.174 8  83885456.67647  20485688.070    20485686.850    20485685.191
        48.000          42.000
 107178788.761 8  83515943.94049  20395445.442    20395444.964    20395446.570
        51.000          56.500
 179826981.187 8                  34219980.389
        48.750
 123359116.223 5                  23060683.408
        35.500


 203887203.019 7                  38798441.549
        43.250
 126400823.245 7                  23637598.412
        42.750
 138222437.572 7                  26302854.865
        42.750
 104803440.432 8                  19585028.580
        52.250
  30704700.537 7                   5842930.280
        43.250
 120212690.904 7                  22875714.579
        43.500
 136937605.380 6 106704621.44353  26058360.462    26058360.082    26058357.777
        36.000          20.250
 121187436.484 7                  23061202.403
        43.250
 139179345.260 6                  26484951.217
        40.750
 134384228.494 5 104714982.80243  25572468.969    25572468.102    25572469.961
        34.500          21.250
 195092735.373 7                  37124915.440
        46.500
 115138193.837 8                  21576849.103
        48.250
 105128088.913 8                  19694033.307
        51.750
 103800776.350 8                  19390857.030
        52.000
 132819485.73516 103495729.24754  25274711.913    25274712.190    25274716.608
        40.750          28.500
 21 10 20 10 20  0.0000000  0 27G01G17G03G04R04G06G07G19G09S25R19E11
                                S23R24E04R17S48E12G02E19E26G20S36R02
                                R18R03G14
 123056881.923 6  95888491.43946  23416946.976    23416946.798    23416951.719
        39.000          39.250
 108222643.059 8  84329328.17947  20594084.724    20594084.385    20594083.352
        48.500          42.750
 121659747.158 6  94799811.77846  23151080.295    23151080.179    23151082.787
        41.500          41.500
 110774089.392 7  86317474.18646  21079608.605    21079608.377    21079608.720
        47.000          39.000
 114025132.313 8                  21293388.375
        49.250
 116094960.571 7  90463614.91046  22092136.054    22092136.028    22092138.596
        44.750          36.750
 128392726.863 6 100046305.20346  24432321.844    24432321.500    24432327.250
        39.500          37.250
 107644622.678 8  83878916.27147  20484090.951    20484089.731    20484088.097
        48.000          42.250
 107149682.180 8  83493263.48649  20389906.660    20389906.182    20389907.835
        51.250          56.500
 179827663.804 8                  34220109.641
        48.750
 123239219.507 5                  23038272.360
        35.250
 142306315.65914                  27079991.829
        29.250
 203887254.962 7                  38798453.300
        43.250
 126515782.613 7                  23659096.602
        42.750
 138146231.767 7                  26288353.309
        42.750
 104852120.327 8                  19594125.299
        52.500
  30704101.795 7                   5842869.770
        43.250
 120160306.432 7                  22865746.104
        43.250
 136857964.813 5 106642563.84942  26043204.922    26043204.261    26043203.265
        33.250          17.750
 121181556.893 7                  23060083.404
        43.250
 139241129.322 6                  26496708.282
        40.750
 134316693.02115 104662364.44151  25559614.153    25559614.033    25559618.049
        34.750           9.000
 195092697.212 7                  37124906.291
        46.500
 115241056.481 8                  21596125.651
        48.750
 105064242.992 8                  19682073.122
        51.500
 103821746.142 8                  19394774.751
        52.500
 132882807.714 5 103545070.77243  25286761.341    25286761.341    25286766.607
        34.500          22.000
 21 10 20 10 20 30.0000000  0 27G01G17G03G04R04G06G07G19G09S25R19E11
                                S23R24E04R17S48E12G02E19E26G20S36R02
                                R18R03G14
 123129405.384 6  95945003.03246  23430748.274    23430748.091    23430752.174
        39.000          38.750
 108255744.532 8  84355121.50347  20600383.576    20600383.237    20600382.294
        48.500          42.500
 121730432.147 6  94854890.94546  23164531.052    23164530.936    23164533.852
        40.750          41.000
 110818116.336 7  86351780.87746  21087986.527    21087986.308    21087986.604
        46.750          38.750
 113949268.616 8                  21279221.587
        49.500
 116023754.732 7  90408129.85846  22078586.433    22078586.407    22078588.717
        44.500          36.500
 128321845.502 6  99991073.17646  24418833.414    24418833.061    24418838.994
        40.000          38.000
 107636877.307 8  83872880.89747  20482617.025    20482615.800    20482614.188
        48.000          42.250
 107121135.451 8  83471019.27749  20384474.322    20384473.849    20384475.453
        50.750          56.500
 179828359.239 8                  34220240.838
        49.000
 123119355.599 5                  23015863.858
        34.500
 142232034.289 5                  27065856.354
        31.000
 203887315.045 7                  38798462.883
        43.750
 126630987.034 7                  23680640.954
        42.750
 138070222.584 7                  26273889.299
        43.000
 104901464.561 8                  19603346.898
        52.500
  30703510.196 7                   5842809.627
        43.500
 120108043.071 7                  22855800.626
        43.500
 136778204.090 5 106580412.61743  26028026.502    26028025.787    26028025.084
        35.750          19.000
 121176052.557 7                  23059036.019
        43.500
 139303109.045 6                  26508502.769
        40.750
 134249190.206 5 104609764.69643  25546768.013    25546767.839    25546770.353
        34.500          19.000
 195092663.939 7                  37124901.480
        46.750
 115344031.920 8                  21615422.648
        48.000
 105000919.920 8                  19670210.352
        51.500
 103843260.826 8                  19398793.803
        52.750
 132945929.086 6 103594253.93154  25298773.547    25298773.636    25298777.613
        39.750          27.000
 21 10 20 10 21  0.0000000  0 27G01G17G03G04R04G06G07G19G09S25R19E11
                                S23R24E04R17S48E12G02E19E26G20S36R02
                                R18R03G14
 123202133.189 6  96001673.87646  23444587.556    23444587.382    23444591.784
        39.750          38.500
 108289380.597 8  84381331.39247  20606784.332    20606783.984    20606783.091
        48.750          42.750
 121801103.383 6  94909959.39846  23177980.095    23177979.984    23177981.752
        41.250          40.500
 110862641.065 7  86386475.45346  21096459.546    21096459.327    21096459.390
        46.750          39.000
 113873869.171 8                  21265141.082
        49.000
 115952626.306 7  90352705.10946  22065051.031    22065050.996    22065052.440
        44.500          36.500
 128250849.574 6  99935751.85546  24405323.189    24405322.818    24405328.067
        39.750          37.500
 107629769.539 8  83867342.35647  20481264.564    20481263.335    20481261.460
        48.000          42.250
 107093138.566 8  83449203.52149  20379146.793    20379146.320    20379147.676
        51.250          56.500
 179829054.906 8                  34220371.209
        49.250
 122999517.321 5                  22993461.889
        31.250
 142157649.093 4                  27051701.995
        29.750
 203887368.533 7                  38798471.969
        43.750
 126746422.270 7                  23702230.396
        44.500
 137994400.542 7                  26259461.031
        43.000
 104951461.708 8                  19612690.177
        52.500
  30702914.428 7                   5842747.511
        43.750
 120055891.738 7                  22845876.593
        44.000
 136698313.402 6 106518160.11043  26012824.094    26012823.370    26012822.399
        36.250          20.000
 121170912.403 7                  23058057.970
        43.500
 139365273.619 6                  26520332.661
        40.750
 134181707.41916 104557175.18153  25533931.005    25533931.063    25533931.023
        37.500          18.500
 195092623.004 7                  37124892.612
        47.000
 115447106.536 7                  21634738.794
        47.250
 104938113.288 8                  19658444.654
        51.750
 103865307.157 8                  19402912.018
        52.750
 133008838.961 5 103643274.21443  25310744.008    25310744.025    25310750.208
        33.250          22.500
 21 10 20 10 21 30.0000000  0 27G01G17G03G04R04G06G07G19G09S25R19E11
                                S23R24E04R17S48E12G02E19E26G20S36R02
                                R18R03G14
 123275071.668 6  96058508.85946  23458467.866    23458467.688    23458471.740
        39.750          37.750
 108323556.732 8  84407962.11547  20613287.816    20613287.472    20613286.762
        48.750          43.000
 121871766.909 6  94965021.84746  23191426.214    23191426.107    23191428.569
        40.750          41.000
 110907668.324 7  86421561.60846  21105027.900    21105027.677    21105028.159
        47.250          39.500
 113798941.476 8                  21251148.893
        49.250
 115881583.510 7  90297347.09746  22051532.346    22051532.297    22051533.880
        44.750          37.000
 128179747.938 6  99880348.19746  24391792.681    24391792.301    24391797.639
        40.250          38.250
 107623306.215 8  83862305.98147  20480034.471    20480033.246    20480031.437
        48.500          42.750
 107065698.579 8  83427821.71149  20373925.142    20373924.669    20373925.997
        51.500          56.750
 179829772.756 8                  34220505.845
        49.000
 122879713.872 5                  22971065.982
        32.250
 142083167.527 4                  27037527.676
        29.500
 203887421.382 7                  38798484.065
        43.500
 126862092.743 7                  23723861.052
        43.500
 137918773.291 7                  26245069.511
        43.000
 105002117.858 8                  19622156.354
        52.500
  30702320.041 7                   5842686.036
        43.500
 120003860.514 7                  22835975.397
        43.750
 136618300.125 5 106455812.07743  25997598.921    25997598.175    25997597.204
        34.750          20.500
 121166142.482 7                  23057150.133
        43.500
 139427629.298 6                  26532198.473
        40.000
 134114285.355 5 104504638.15342  25521098.699    25521098.333    25521101.052
        34.250          13.750
 195092585.539 7                  37124885.945
        46.750
 115550282.900 7                  21654074.461
        47.750
 104875832.727 8                  19646777.208
        52.000
 103887889.451 8                  19407130.753
        52.500
 133071540.836 6 103692132.83943  25322675.992    25322675.881    25322681.463
        37.250          19.500
 21 10 20 10 22  0.0000000  0 27G01G17G03G04R04G06G07G19G09S25R19E11
                                S23R24E04R17S48E12G02E19E26G20S36R02
                                R18R03G14
 123348218.665 6  96115506.32846  23472387.243    23472387.069    23472391.047
        40.250          36.750
 108358269.586 8  84435011.06147  20619893.518    20619893.179    20619892.422
        49.000          42.500
 121942420.146 6  95020076.26046  23204871.353    23204871.269    23204873.660
        41.250          40.750
 110953194.277 7  86457036.35346  21113691.140    21113690.917    21113691.454
        47.000          38.750
 113724484.712 8                  21237244.533
        48.750
 115810626.135 7  90242055.64346  22038029.122    22038029.069    22038031.261
        45.500          37.000
 128108541.138 6  99824862.58446  24378242.065    24378241.685    24378247.501
        40.250          37.750
 107617485.678 8  83857770.47847  20478926.785    20478925.556    20478923.924
        48.500          42.250
 107038814.082 8  83406872.75249  20368809.205    20368808.732    20368809.964
        51.500          56.250
 179830488.485 8                  34220642.162
        49.000
 122759947.456 5                  22948676.489
        34.750
 142008588.173 5                  27023336.782
        30.000
 203887474.332 7                  38798493.540
        43.500
 126977994.401 7                  23745536.546
        44.000
 137843339.996 7                  26230714.965
        43.250
 105053430.425 8                  19631745.517
        52.500
  30701726.481 7                   5842625.275
        43.500
 119951948.903 7                  22826096.935
        43.750
 136538162.366 5 106393367.06743  25982348.253    25982347.440    25982346.775
        35.750          18.750
 121161740.320 7                  23056312.524
        43.500
 139490173.822 6                  26544100.682
        40.500
 134046904.660 6 104452133.82343  25508278.273    25508277.893    25508279.100
        38.000          18.750
 195092548.747 7                  37124878.549
        46.750
 115653556.884 7                  21673427.997
        47.750
 104814080.391 8                  19635209.236
        52.250
 103911002.845 8                  19411448.435
        52.500
 133134030.649 6 103740825.82344  25334568.949    25334568.829    25334573.501
        38.000          24.750
 21 10 20 10 22 30.0000000  0 27G01G17G03G04R04G06G07G19G09S25R19E11
                                S23R24E04R17S48E12G02E19E26G20S36R02
                                R18R03G14
 123421573.904 6  96172666.05846  23486346.399    23486346.230    23486350.885
        39.000          36.750
 108393518.157 8  84462477.44447  20626601.028    20626600.689    20626600.035
        48.750          42.750
 122013062.480 6  95075122.19246  23218314.228    23218314.152    23218316.507
        40.500          40.750
 110999217.047 7  86492898.22646  21122449.180    21122448.957    21122449.400
        46.500          39.000
 113650499.549 8                  21223428.388
        48.750
 115739755.875 7  90186832.06046  22024542.874    22024542.821    22024544.870
        45.000          37.250
 128037231.373 6  99769296.74246  24364672.362    24364671.982    24364677.539
        39.750          38.000
 107612308.504 8  83853736.29647  20477941.819    20477940.590    20477938.946
        48.000          42.500
 107012485.519 8  83386356.98549  20363799.032    20363798.563    20363799.789
        51.250          56.500
 179831210.821 8                  34220778.363
        48.750
 122640220.932 5                  22926294.655
        35.500
 141933911.874 5                  27009125.836
        32.000
 203887527.102 7                  38798504.612
        43.250
 127094124.418 7                  23767254.357
        44.250
 137768101.767 7                  26216397.609
        43.000
 105105398.765 8                  19641457.206
        52.500
  30702733.673 7                   5842563.620
        43.250
 119900158.417 7                  22816241.497
        43.750
 136457901.078 6 106330825.82743  25967075.600    25967074.831    25967074.731
        36.000          20.250
 121157705.397 7                  23055544.614
        43.500
 139552906.917 6                  26556038.589
        39.750
                                  25495462.701
        32.750
 195092515.339 7                  37124871.886
        46.500
 115756924.774 8                  21692799.369
        48.250
 104752859.891 8                  19623740.370
        52.000
 103934645.046 8                  19415865.041
        52.250
 133196306.278 5 103789352.17142  25346418.299    25346418.170    25346422.684
        33.000          15.000
 21 10 20 10 23  0.0000000  0 27G01G17G03G04R04G06G07G19G09S25R19E11
                                S23R24E04R17S48E12G02E19E26G20S36R02
                                R18R03G14
 123495139.267 6  96229989.52246  23500345.293    23500345.137    23500350.055
        39.500          36.500
 108429303.445 8  84490362.05247  20633410.935    20633410.600    20633409.900
        48.750          42.750
 122083695.513 6  95130160.88146  23231755.297    23231755.230    23231757.887
        40.000          41.000
 111045736.821 7  86529147.37846  21131301.472    21131301.253    21131301.553
        46.750          39.250
 113576989.250 8                  21209700.654
        49.250
 115668976.593 7  90131679.37746  22011073.977    22011073.928    22011076.159
        45.000          37.500
 127965822.841 6  99713653.93246  24351083.895    24351083.529    24351088.269
        40.250          38.000
 107607776.955 8  83850205.19847  20477079.545    20477078.311    20477076.800
        48.000          42.750
 106986715.503 8  83366276.44949  20358895.271    20358894.802    20358896.015
        51.250          56.750
 179831958.628 8                  34220916.952
        48.500
 122520539.794 5                  22903920.627
        35.750
 141859141.239 5                  26994897.354
        30.250
 203887584.718 7                  38798516.864
        43.250
 127210482.563 7                  23789013.710
        44.500
 137693061.786 7                  26202117.637
        42.750
 105158024.374 8                  19651291.471
        52.250
  30702143.736 7                   5842503.428
        43.250
 119848492.685 7                  22806409.864
        43.750
 136377518.889 5 106268190.32743  25951780.032    25951779.219    25951778.357
        33.500          18.000
 121154039.282 7                  23054847.010
        43.500
 139615830.418 6                  26568012.553
        39.500
 133912261.95116 104347232.98953  25482658.626    25482657.898    25482659.837
        36.500          21.750
 195092479.670 7                  37124864.938
        46.500
 115860386.473 8                  21712188.275
        48.000
 104692176.945 8                  19612372.530
        52.000
 103958815.404 8                  19420380.306
        52.500
 133258390.03216 103837724.75154  25358229.508    25358229.169    25358234.332
        39.000          27.500
 21 10 20 10 23 30.0000000  0 27G01G17G03G04R04G06G07G19G09S25R19E11
                                S23R24E04R17S48E12G02E19E26G20S36R02
                                R18R03G14
 123568906.749 6  96287470.47146  23514382.780    23514382.637    23514387.333
        40.000          36.500
 108465616.368 8  84518657.80047  20640320.940    20640320.605    20640320.118
        48.500          42.750
 122154310.845 6  95185185.77246  23245192.906    23245192.835    23245195.278
        40.000          40.750
 111092743.897 7  86565776.24346  21140246.358    21140246.139    21140246.820
        46.750          39.000
 113503946.582 8                  21196060.420
        49.250
 115598282.244 7  90076592.86846  21997621.625    21997621.585    21997623.301
        45.000          37.250
 127894310.532 6  99657930.27446  24337475.311    24337474.945    24337479.990
        40.250          38.000
 107603883.465 8  83847171.29547  20476338.651    20476337.417    20476335.932
        48.000          42.500
 106961496.660 8  83346625.39649  20354096.058    20354095.589    20354097.047
        51.250          56.750
 179832698.353 8                  34221056.297
        48.750
 122400899.799 5                  22881556.689
        34.750
 141784269.392 5                  26980649.722
        31.250
 203887639.599 7                  38798526.984
        43.750
 127327058.590 7                  23810814.881
        45.000
 137618213.350 7                  26187874.515
        42.500
 105211298.549 8                  19661246.955
        52.500
  30701547.922 7                   5842442.949
        43.250
 119796945.405 7                  22796600.769
        43.750
 136297008.938 5 106205455.24843  25936459.203    25936458.309    25936458.010
        35.500          18.500
 121150733.626 7                  23054217.993
        43.250
 139678936.183 6                  26580021.609
        38.750
 133844999.222 6 104294820.33442  25469859.026    25469858.231    25469858.632
        40.250          13.250
 195092434.251 7                  37124858.566
        46.750
 115963929.839 8                  21731592.251
        48.000
 104632027.338 8                  19601104.556
        52.000
 103983503.584 8                  19424992.350
        52.750
 133320227.647 5 103885909.69043  25369995.599    25369995.376    25370001.478
        34.500          19.500
 21 10 20 10 24  0.0000000  0 27G01G17G03G04R04G06G07G19G09S25R19E11
                                S23R24E04R17S48E12G02E19E26G20S36R02
                                R18R03G14
 123642887.607 6  96345117.70646  23528461.959    23528461.825    23528465.405
        39.750          36.500
 108502467.363 8  84547372.82947  20647333.544    20647333.209    20647332.534
        48.750          42.750
 122224919.478 6  95240205.45446  23258629.581    23258629.505    23258631.350
        39.750          40.250
 111140247.941 7  86602792.35446  21149286.568    21149286.354    21149286.612
        46.500          38.750
 113431384.093 8                  21182510.056
        49.250
 115527686.120 7  90021582.91346  21984187.355    21984187.311    21984189.393
        44.750          37.000
 127822708.227 6  99602136.46946  24323849.602    24323849.231    24323853.968
        40.250          38.000
 107600639.523 8  83844643.53047  20475721.314    20475720.080    20475718.486
        48.000          42.500
 106936840.984 8  83327413.17349  20349404.202    20349403.729    20349405.269
        51.250          56.500
 179833455.497 8                  34221199.098
        48.750
 122281315.673 5                  22859200.679
        32.250
 141709308.643 5                  26966385.100
        31.750
 203887702.584 7                  38798537.438
        43.500
 127443861.574 7                  23832657.492
        44.500
 137543569.095 7                  26173670.197
        42.750
 105265232.305 8                  19671325.824
        52.500
  30700958.922 7                   5842381.138
        43.500
 119745529.675 7                  22786816.772
        44.000
 136216383.273 5 106142630.01643  25921116.509    25921115.642    25921114.241
        35.000          18.500
 121147799.440 7                  23053659.721
        43.750
 139742235.431 6                  26592067.161
        38.750
 133777782.537 5 104242443.63043  25457067.088    25457066.212    25457068.759
        32.750          18.750
 195092397.395 7                  37124852.046
        46.750
 116067564.368 7                  21751012.559
        47.000
 104572426.438 8                  19589939.024
        52.000
 104008718.452 8                  19429702.912
        52.500
 133381850.653 5 103933927.44443  25381722.734    25381722.560    25381728.170
        31.750          23.000
 21 10 20 10 24 30.0000000  0 27G01G17G03G04R04G06G07G19G09S25R19E11
                                S23R24E04R17S48E12G02E19E26G20S36R02
                                R18R03G14
 123717072.518 6  96402923.92146  23542578.490    23542578.343    23542582.728
        41.000          37.750
 108539845.802 8  84576498.84947  20654446.491    20654446.161    20654445.178
        49.500          42.750
 122295511.797 6  95295212.41146  23272062.592    23272062.512    23272064.802
        40.000          40.750
 111188237.918 7  86640187.12346  21158418.497    21158418.283    21158418.595
        47.750          39.000
 113359293.548 8                  21169047.931
        49.750
 115457180.921 7  89966643.80446  21970770.953    21970770.904    21970772.884
        45.750          37.500
 127751009.510 6  99546267.54646  24310205.763    24310205.392    24310210.149
        41.000          38.500
 107598036.728 8  83842615.35547  20475225.976    20475224.747    20475223.080
        48.750          42.750
 106912739.752 8  83308632.98749  20344817.961    20344817.488    20344818.900
        52.000          56.750
 179834210.549 8                  34221342.449
        48.750
 122161781.519 5                  22836854.853
        33.250
 141634250.499 5                  26952102.597
        31.250
 203887759.213 7                  38798550.209
        43.500
 127560879.548 7                  23854541.245
        42.750
 137469121.003 7                  26159503.211
        43.500
 105319815.601 8                  19681525.926
        52.250
  30700369.323 7                   5842319.233
        43.500
 119694237.904 7                  22777056.268
        44.750
 136135633.717 6 106079708.24343  25905750.871    25905749.941    25905749.129
        36.000          19.750
 121145227.065 7                  23053170.174
        44.000
 139805718.785 6                  26604147.912
        38.500
 133710601.873 6 104190095.01742  25444283.223    25444282.253    25444284.985
        39.000          12.500
 195092367.889 7                  37124844.565
        46.750
 116171277.500 7                  21770448.306
        46.500
 104513368.561 8                  19578875.716
        52.000
 104034448.550 8                  19434509.245
        52.500


 21 10 20 10 25  0.0000000  0 27G01G17G03G04R04G06G07G19G09S25R19E11
                                S23R24E04R17S48E12G02E19E26G20S36R02
                                R18R03G14
 123791465.594 6  96460892.33746  23556735.163    23556735.025    23556739.465
        40.500          38.000
 108577755.234 8  84606038.62947  20661660.310    20661659.980    20661659.153
        48.500          42.500
 122366091.699 6  95350209.68746  23285493.606    23285493.517    23285496.385
        40.000          41.250
 111236716.295 7  86677962.45946  21167643.622    21167643.399    21167643.848
        46.750          38.750
 113287680.094 8                  21155674.567
        49.750
 115386772.837 7  89911780.36646  21957372.429    21957372.376    21957374.365
        45.250          37.000
 127679221.121 6  99490328.73846  24296544.789    24296544.423    24296549.186
        40.250          38.750
 107596079.597 8  83841090.29647  20474853.638    20474852.409    20474850.782
        48.250          42.750
 106889197.770 8  83290288.57849  20340338.183    20340337.714    20340338.996
        51.250          56.500
 179834966.145 8                  34221487.598
        48.750
 122042304.979 5                  22814520.305
        34.750
 141559100.315 5                  26937801.919
        30.500
 203887814.318 7                  38798561.267
        43.500
 127678114.832 7                  23876463.967
        43.750
 137394874.606 7                  26145374.674
        43.000
 105375052.180 8                  19691848.063
        52.000
  30699782.376 7                   5842259.085
        43.250
 119643076.050 7                  22767320.358
        44.250
 136054765.586 6 106016694.06043  25890361.508    25890360.632    25890360.518
        36.250          20.500
 121143020.339 7                  23052750.177
        44.000
 139869390.322 6                  26616263.953
        37.250
 133643461.612 5 104137777.91842  25431505.226    25431504.180    25431508.634
        34.000          15.000
 195092337.188 7                  37124837.245
        46.750
 116275071.331 7                  21789899.995
        47.500
 104454862.093 8                  19567915.355
        52.000
 104060695.643 8                  19439412.312
        52.500
 133504415.21815 104029439.43653  25405047.743    25405047.314    25405051.808
        35.250          22.000
 21 10 20 10 25 30.0000000  0 27G01G17G03G04R04G06G07G19G09S25R19E11
                                S23R24E04R17S48E12G02E19E26G20S36R02
                                R18R03G14
 123866067.635 6  96519023.59546  23570932.015    23570931.886    23570936.259
        41.250          39.000
 108616195.185 8  84635991.79847  20668975.284    20668974.954    20668974.258
        49.000          42.500
 122436659.741 6  95405197.71747  23298922.033    23298921.949    23298925.410
        40.500          42.000
 111285682.166 7  86716117.66146  21176961.493    21176961.279    21176961.699
        47.000          38.500
 113216545.933 8                  21142390.850
        49.750
 115316464.704 7  89856994.80246  21943993.285    21943993.236    21943994.461
        45.250          36.750
 127607346.462 6  99434322.70946  24282867.505    24282867.125    24282872.218
        40.000          38.500
 107594769.339 8  83840069.29047  20474604.243    20474603.014    20474601.498
        48.500          42.500
 106866216.478 8  83272381.07249  20335964.862    20335964.393    20335965.888
        51.500          56.500
 179835730.480 8                  34221635.314
        48.500
 121922891.133 6                  22792198.101
        36.750
 141483859.829 5                  26923483.415
        31.000
 203887873.068 7                  38798572.263
        43.250
 127795565.885 7                  23898427.842
        44.000
 137320831.991 7                  26131284.811
        43.250
 105430942.154 8                  19702292.645
        52.000
  30700797.538 7                   5842198.530
        43.000
 119592046.698 7                  22757610.104
        44.250
 135973780.511 5 105953588.76543  25874950.708    25874949.832    25874948.762
        34.500          19.500
 121141179.742 7                  23052399.927
        43.750
 139933250.814 6                  26628416.767
        37.000
 133576362.560 5 104085492.98142  25418738.536    25418737.495    25418740.394
        35.000          15.750
 195092300.100 7                  37124831.821
        46.500
 116378943.149 7                  21809365.240
        47.750
 104396911.417 8                  19557059.346
        52.000
 104087457.992 8                  19444411.907
        52.750
                                  25416644.978    25416644.674    25416654.958
        32.000          20.000
 21 10 20 10 26  0.0000000  0 27G01G17G03G04R04G06G07G19G09S25R19E11
                                S23R24E04R17S48E12G02E19E26G20S36R02
                                R18R03G14
 123940874.625 6  96577314.52246  23585167.604    23585167.479    23585172.255
        41.000          40.750
 108655160.501 8  84666354.33747  20676390.068    20676389.733    20676389.223
        48.500          42.750
 122507211.619 6  95460173.16347  23312347.608    23312347.519    23312350.911
        39.750          42.250
 111335129.774 7  86754648.24046  21186371.342    21186371.128    21186371.218
        46.500          38.500
 113145887.733 8                  21129195.749
        50.000
 115246254.553 7  89802285.59946  21930632.679    21930632.635    21930634.670
        44.500          37.500
 127535384.230 6  99378248.41346  24269172.820    24269172.431    24269178.093
        39.500          38.750
 107594101.955 8  83839549.23147  20474477.417    20474476.192    20474474.557
        48.000          42.750
 106843792.397 8  83254907.75249  20331697.859    20331697.386    20331698.789
        51.250          57.000
 179836502.519 8                  34221782.748
        48.750
 121803539.654 6                  22769885.661
        36.250
 141408526.109 5                  26909148.521
        31.250
 203887933.735 7                  38798584.457
        43.500
 127913225.775 7                  23920430.545
        43.750
 137246990.458 7                  26117233.091
        43.500
 105487480.938 8                  19712858.470
        52.000
  30700209.377 7                   5842139.000
        43.500
 119541147.629 7                  22747924.199
        44.500
 135892675.518 5 105890390.04143  25859516.933    25859516.026    25859514.156
        35.000          19.000
 121139700.905 7                  23052118.589
        43.750
 139997296.102 6                  26640604.268
        37.500
 133509305.33616 104033250.57352  25405976.379    25405975.901    25405982.305
        36.250          16.750
 195092260.369 7                  37124824.246
        46.500
 116482886.629 8                  21828844.633
        48.000
 104339516.470 8                  19546307.464
        52.000
 104114729.279 8                  19449506.518
        52.500
 133626093.298 6 104124266.97542  25428202.083    25428201.757    25428206.706
        40.250          16.000
 21 10 20 10 26 30.0000000  0 27G01G17G03G04R04G06G07G19G09S25R19E11
                                S23R24E04R17S48E12G02E19E26G20S36R02
                                R18R03G14
 124015886.653 6  96635765.21446  23599442.067    23599441.938    23599446.828
        41.000          40.750
 108694650.396 8  84697125.64447  20683904.775    20683904.445    20683903.763
        48.750          42.250
 122577747.317 6  95515135.98747  23325770.501    23325770.408    23325773.130
        40.250          42.000
 111385057.584 7  86793553.00446  21195872.242    21195872.037    21195872.173
        46.500          38.250
 113075706.571 8                  21116089.859
        49.750
 115176144.662 7  89747654.51746  21917291.273    21917291.224    21917293.240
        45.000          37.250
 127463337.404 6  99322108.21646  24255463.035    24255462.651    24255467.785
        39.250          38.000
 107594078.422 8  83839530.87147  20474472.832    20474471.607    20474469.961
        48.000          42.250
 106821926.283 8  83237869.21349  20327536.801    20327536.332    20327537.823
        51.250          56.500
 179837291.534 8                  34221933.433
        48.750
 121684254.045 5                  22747587.675
        34.500
 141333100.255 5                  26894795.697
        30.250
 203887994.292 7                  38798594.317
        43.500
 128031092.441 7                  23942471.070
        42.000
 137173351.477 7                  26103220.037
        43.250
 105544667.951 8                  19723545.077
        52.000
  30699623.533 7                   5842078.861
        43.500
 119490380.804 7                  22738263.637
        44.250
 135811451.746 6 105827098.76443  25844059.831    25844058.968    25844059.411
        36.500          20.250
 121138583.652 7                  23051905.892
        43.500
 140061526.310 6                  26652826.916
        36.000
 133442280.727 5 103981023.60842  25393222.275    25393221.207    25393224.332
        34.500          17.250
 195092227.288 7                  37124818.509
        46.750
 116586898.627 7                  21848336.211
        47.250
 104282680.994 8                  19535659.937
        51.750
 104142507.181 8                  19454695.553
        52.750
                                  25439709.720    25439709.041    25439713.640
        33.750          18.000
 21 10 20 10 27  0.0000000  0 27G01G17G03G04R04G06G07G19G09S25R19E11
                                S23R24E04R17S48E12G02E19E26G20S36R02
                                R18R03G14
 124091106.976 6  96694378.23046  23613755.952    23613755.832    23613761.042
        41.750          41.250
 108734667.031 8  84728307.39847  20691519.670    20691519.340    20691518.623
        48.500          42.000
 122648269.852 6  95570088.56646  23339190.220    23339190.136    23339192.728
        41.000          41.750
 111435467.084 7  86832833.11346  21205464.665    21205464.455    21205464.760
        46.500          38.000
 113006006.967 8                  21103073.457
        50.000
 115106140.302 7  89693105.67446  21903969.796    21903969.743    21903972.133
        45.500          38.000
 127391211.859 6  99265906.70046  24241737.426    24241737.037    24241742.605
        39.250          38.000
 107594701.805 8  83840016.60047  20474591.575    20474590.350    20474588.673
        48.000          42.250
 106800621.931 8  83221268.40849  20323482.668    20323482.195    20323483.757
        51.250          56.500
 179838089.505 8                  34222085.790
        48.500
 121565041.286 5                  22725299.008
        32.000
 141257586.691 4                  26880425.908
        29.750
 203888057.644 7                  38798608.823
        43.500
 128149166.925 7                  23964550.470
        42.250
 137099919.624 7                  26089246.371
        43.250
 105602505.785 8                  19734353.767
        52.000
  30699041.381 7                   5842017.930
        43.250
 119439751.284 7                  22728629.003
        44.250
 135730113.583 5 105763718.31343  25828583.246    25828582.388    25828581.703
        35.500          20.250
 121137830.881 7                  23051762.774
        43.500
 140125944.546 6                  26665085.762
        36.500
 133375296.278 6 103928827.77142  25380476.359    25380475.268    25380476.863
        38.000          16.250
 195092204.650 7                  37124811.994
        46.500
 116690980.259 7                  21867841.243
        47.000
 104226412.355 8                  19525119.048
        52.000
 104170792.514 8                  19459979.450
        52.750
 133746869.511 6 104218328.18743  25451178.552    25451178.110    25451184.063
        39.250          21.750
 21 10 20 10 27 30.0000000  0 27G01G17G03G04R04G06G07G19G09R19S25E11
                                S23R24E04R17S48E12G02E19E26G20S36R02
                                R18R03G14
 124166523.636 6  96753144.22146  23628107.416    23628107.287    23628112.468
        41.000          41.750
 108775197.200 8  84759889.30747  20699232.391    20699232.061    20699231.421
        48.750          42.500
 122718767.110 6  95625021.45746  23352605.627    23352605.547    23352607.990
        40.000          41.500
 111486344.639 7  86872477.93546  21215146.550    21215146.349    21215146.534
        46.500          38.250
 112936777.752 8                  21090145.917
        50.000
 115036231.717 7  89638631.46146  21890666.561    21890666.508    21890669.105
        45.500          38.250
 127318998.312 6  99209636.58146  24227995.488    24227995.108    24228000.339
        39.750          38.000
 107595960.869 8  83840997.67047  20474831.027    20474829.807    20474828.451
        48.000          42.500
 106779867.969 8  83205096.47749  20319533.437    20319532.968    20319534.384
        51.250          56.750
 121445893.451 5                  22703028.199
        33.000
 179839065.45318                  34222237.427
        48.500
 141181974.511 5                  26866037.343
        30.000
 203888110.995 7                  38798618.281
        43.500
 128267434.321 7                  23986666.644
        42.500
 137026684.329 7                  26075310.234
        43.250
 105660981.775 8                  19745281.250
        51.750
  30698449.785 7                   5841956.696
        43.250
 119389248.989 7                  22719018.978
        44.250
 135648650.300 6 105700240.39643  25813081.640    25813080.751    25813077.970
        36.250          20.500
 121137430.339 7                  23051686.689
        43.500
 140190538.856 6                  26677378.200
        36.250
 133308339.875 5 103876654.11342  25367734.606    25367733.506    25367736.284
        34.750          14.500
 195092164.358 7                  37124804.240
        46.500
 116795117.136 7                  21887356.410
        47.250
 104170701.832 8                  19514682.457
        52.000
 104199570.725 8                  19465355.609
        52.750
 133806884.501 5 104265092.99842  25462598.789    25462598.248    25462603.965
        32.500          16.750
 21 10 20 10 28  0.0000000  0 27G01G17G03G04R04G06G07G19G09R19S25E11
                                S23R24E04R17S48E12G02E19E26G20S36R02
                                R18R03G14
 124242152.821 6  96812075.80147  23642499.601    23642499.476    23642504.158
        41.500          42.000
 108816255.938 8  84791883.09147  20707045.689    20707045.363    20707044.915
        48.500          42.500
 122789255.091 6  95679947.10446  23366018.756    23366018.672    23366021.417
        39.250          41.000
 111537704.682 7  86912498.72446  21224919.922    21224919.721    21224919.967
        46.250          38.000
 112868036.339 8                  21077309.016
        49.750
 114966437.203 7  89584246.13246  21877385.164    21877385.111    21877387.067
        45.000          37.500
 127246715.808 6  99153312.72846  24214240.758    24214240.383    24214245.176
        39.250          38.000
 107597872.075 8  83842486.89647  20475194.919    20475193.694    20475192.115
        48.000          42.500
 106759681.122 8  83189366.45249  20315691.899    20315691.430    20315692.996
        51.000          56.750
 121326830.329 5                  22680770.644
        35.500
 179839881.533 8                  34222391.434
        48.500
 141106281.217 5                  26851632.137
        30.750
 203888172.265 7                  38798630.113
        43.500
 128385908.692 7                  24008821.658
        43.750
 136953663.064 7                  26061414.688
        43.500
 105720111.451 8                  19756331.071
        52.000
  30697867.521 7                   5841896.508
        43.500
 119338891.921 7                  22709436.313
        44.500
 135567079.114 6 105636678.40243  25797557.977    25797557.083    25797555.180
        38.000          22.000
 121137397.871 7                  23051680.540
        43.750
 140255325.373 6                  26689705.975
        36.250
 133241428.064 6 103824514.83642  25355001.525    25355000.081    25355003.402
        38.750          15.250
 195092122.580 7                  37124798.668
        46.500
 116899322.302 7                  21906884.266
        47.000
 104115570.504 8                  19504354.906
        52.250
 104228855.788 8                  19470826.224
        52.750
 133866670.138 6 104311679.00143  25473976.449    25473975.931    25473981.749
        37.750          22.000
 21 10 20 10 28 30.0000000  0 27G01G17G03G04R04G06G07G19G09R19S25E11
                                S23R24E04R17S48E12G02E19E26G20S36R02
                                R18R03G14
 124317986.699 6  96871166.88547  23656930.584    23656930.464    23656935.233
        41.500          42.750
 108857834.438 8  84824281.88147  20714957.706    20714957.380    20714957.035
        48.750          42.500
 122859725.919 6  95734859.39446  23379429.711    23379429.622    23379431.608
        39.250          41.500
 111589537.671 7  86952888.04746  21234783.339    21234783.147    21234783.656
        46.500          38.250
 112799775.736 8                  21064561.713
        49.500
 114896751.136 7  89529945.30546  21864124.588    21864124.535    21864125.996
        45.500          38.000
 127174359.264 6  99096931.20546  24200471.590    24200471.219    24200475.780
        40.250          38.750
 107600427.697 8  83844478.26447  20475681.054    20475679.834    20475678.153
        48.000          42.250
 106740054.096 8  83174072.65349  20311957.062    20311956.593    20311957.971
        51.000          56.750
 121207848.416 6                  22658527.580
        36.250
 179840697.437 8                  34222548.893
        48.500
 141030500.052 5                  26837212.821
        30.500
 203888233.611 7                  38798643.286
        43.500
 128504580.113 6                  24031012.357
        40.250
 136880849.436 7                  26047558.595
        44.000
 105779886.571 8                  19767501.352
        52.250
  30698886.803 7                   5841837.071
        43.500
 119288674.190 7                  22699880.074
        44.750
 135485393.157 6 105573026.95243  25782013.958    25782013.078    25782012.616
        36.750          22.000
 121137725.340 7                  23051742.777
        44.000
 140320296.206 5                  26702070.193
        35.250
                                  25342275.161    25342275.679    25342277.124
        34.500          19.000
 195092091.702 7                  37124792.493
        46.750
 117003585.331 7                  21926423.534
        47.250
 104061013.754 8                  19494134.553
        52.000
 104258637.607 8                  19476389.739
        52.500
 133926199.65716 104358103.48351  25485308.051    25485307.676    25485314.764
        38.000           6.500
 21 10 20 10 29  0.0000000  0 27G01G17G03G04R04G06G07G19G09R19S25E11
                                S23R24E04R17S48E12G02E19E26G20S36R02
                                R18R03G14
 124394023.444 6  96930416.04847  23671399.936    23671399.811    23671404.786
        41.250          42.250
 108899929.868 8  84857083.47747  20722968.408    20722968.082    20722967.415
        48.750          42.250
 122930177.567 6  95789756.73347  23392835.561    23392835.472    23392838.628
        40.250          42.000
 111641840.084 7  86993643.14746  21244736.309    21244736.117    21244736.652
        46.250          38.000
 112731995.199 8                  21051904.126
        50.250
 114827173.846 7  89475729.23046  21850884.230    21850884.177    21850886.117
        45.500          38.000
 127101929.649 6  99040492.72446  24186688.828    24186688.457    24186692.889
        40.500          38.750
 107603626.449 8  83846970.77147  20476289.803    20476288.583    20476286.786
        48.000          42.250
 106720985.589 8  83159214.06349  20308328.336    20308327.867    20308329.352
        51.000          56.500
 121088949.290 5                  22636300.850
        35.750
 179841528.314 8                  34222705.373
        48.500
 140954630.234 5                  26822775.073
        31.000
 203888293.915 7                  38798654.935
        43.750
 128623444.435 7                  24053241.319
        42.750
 136808242.898 7                  26033741.970
        44.000
 105840304.102 8                  19778791.938
        52.000
  30698304.016 7                   5841777.782
        43.500
 119238595.819 7                  22690350.433
        44.500
 135403591.882 5 105509285.65443  25766447.932    25766447.034    25766446.580
        35.500          20.250
 121138410.601 7                  23051873.246
        43.750
 140385449.511 6                  26714468.650
        36.750
 133107702.333 6 103720303.87341  25329556.088    25329556.494    25329555.773
        36.000          10.250
 195092060.020 7                  37124785.262
        46.750
 117107902.275 7                  21945972.363
        46.500
 104007033.758 8                  19484022.257
        52.000
 104288911.762 8                  19482045.020
        52.250
 133985504.951 4 104404315.30744  25496592.960    25496592.710    25496599.534
        29.000          24.000
 21 10 20 10 29 30.0000000  0 27G01G17G03G04R04G06G07G19G09R19S25E11
                                S23R24E04R17S48E12G02E19E26G20S36R02
                                R18R03G14
 124470265.801 6  96989825.41447  23685908.400    23685908.280    23685914.017
        40.750          42.250
 108942544.005 8  84890289.25747  20731077.561    20731077.235    20731076.685
        48.500          42.500
 123000612.720 6  95844641.22447  23406238.841    23406238.748    23406242.017
        40.500          42.250
 111694612.908 7  87034764.80246  21254778.783    21254778.596    21254778.896
        46.500          38.250
 112664698.300 8                  21039336.764
        50.250
 114757710.316 7  89421601.81046  21837665.964    21837665.915    21837668.197
        45.500          38.250
 127029433.075 6  98984002.07046  24172893.089    24172892.741    24172897.307
        40.250          38.500
 107607471.686 8  83849967.03547  20477021.638    20477020.418    20477018.728
        48.000          42.250
 106702478.865 8  83144793.22949  20304806.753    20304806.288    20304807.739
        51.250          56.750
 120970139.564 5                  22614089.414
        35.500
 179842364.549 8                  34222865.963
        48.500
 140878675.821 5                  26808321.607
        30.000
 203888355.876 7                  38798668.832
        43.500
 128742502.136 6                  24075504.893
        41.250
 136735847.617 7                  26019965.675
        44.000
 105901366.230 8                  19790203.141
        52.000
  30697722.103 7                   5841717.133
        43.000
 119188661.489 7                  22680848.213
        44.500
 135321679.165 6 105445457.55943  25750860.046    25750859.143    25750857.779
        36.500          20.500
 121139456.049 7                  23052072.063
        43.750
 140450787.947 6                  26726902.341
        36.500
 133040899.460 5 103668249.93243  25316843.385    25316842.992    25316845.119
        35.750          18.000
 195092028.230 7                  37124780.039
        46.750
 117212272.976 7                  21965531.041
        45.500
 103953636.942 8                  19474019.358
        52.000
 104319678.819 8                  19487792.854
        52.250
 134044555.56916 104450337.28253  25507832.459    25507832.451    25507838.818
        38.250          20.000
 21 10 20 10 30  0.0000000  0 27G01G17G03G04R04G06G07G19G09R19S25E11
                                S23R24E04R17S48E12G02E19E26G20S36R02
                                R18R03G14
 124546711.863 6  97049393.52046  23700455.453    23700455.337    23700461.054
        40.500          41.500
 108985673.684 8  84923896.76247  20739285.096    20739284.770    20739284.084
        48.500          42.500
 123071029.383 6  95899511.30147  23419639.604    23419639.520    23419641.650
        41.250          42.500
 111747852.487 7  87076250.16246  21264909.926    21264909.739    21264909.894
        46.750          38.250
 112597884.176 8                  21026859.648
        50.250
 114688360.804 7  89367563.23946  21824469.119    21824469.075    21824471.643
        45.750          38.500
 126956869.793 6  98927459.42946  24159084.046    24159083.684    24159088.829
        40.500          38.250
 107611960.986 8  83853465.16247  20477876.040    20477874.820    20477873.242
        48.250          42.500
 106684532.473 8  83130809.01649  20301391.645    20301391.176    20301392.699
        51.250          56.750
 120851421.511 5                  22591897.695
        34.000
 179843207.013 8                  34223026.807
        48.500
 140802636.009 5                  26793851.118
        31.500
 203888419.740 7                  38798681.272
        43.500
 128861749.036 5                  24097805.473
        32.500
 136663662.995 7                  26006229.530
        44.000
 105963070.286 8                  19801733.668
        51.750
  30697140.951 7                   5841655.899
        43.250
 119138871.145 7                  22671373.631
        44.750
 135239654.461 5 105381542.21243  25735251.059    25735250.174    25735248.633
        35.250          19.250
 121140859.440 7                  23052339.244
        44.000
 140516309.571 6                  26739371.287
        37.000
 132974132.087 5 103616223.41442  25304137.780    25304137.414    25304139.563
        31.500          13.750
 195091995.688 7                  37124773.520
        46.500
 117316693.455 7                  21985099.404
        45.750
 103900825.475 8                  19464125.862
        51.750
 104350934.003 8                  19493631.768
        52.250
 134103375.721 6 104496171.30243  25519027.651    25519027.762    25519031.857
        39.500          23.250
 21 10 20 10 30 30.0000000  0 28G01G17G03G04R04G06G07G19G09R19S25E11
                                S23R24E04R17S48E12G02E19E26G20S36R02
                                R18G30R03G14
 124623357.094 6  97109116.80446  23715040.924    23715040.804    23715046.593
        41.000          41.500
 109029312.950 8  84957901.34247  20747589.177    20747588.851    20747588.402
        49.000          42.500
 123141422.948 6  95954363.37647  23433034.771    23433034.691    23433037.048
        41.000          42.500
 111801552.504 7  87118094.30846  21275128.411    21275128.233    21275128.759
        46.750          38.250
 112531548.955 8                  21014471.887
        49.500
 114619123.016 7  89313611.72046  21811293.342    21811293.302    21811295.739
        46.250          38.500
 126884238.374 6  98870863.68346  24145263.150    24145262.784    24145266.753
        40.750          38.250
 107617089.931 8  83857461.71447  20478851.829    20478850.613    20478849.361
        48.250          42.250
 106667142.337 8  83117258.24949  20298082.395    20298081.930    20298083.421
        51.250          56.500
 120732794.206 5                  22569721.364
        34.000
 179844062.114 8                  34223188.465
        49.000
 140726507.568 5                  26779364.677
        31.500
 203888479.903 7                  38798692.501
        44.000
                                  24120140.913
        24.750
 136591685.833 7                  25992532.753
        44.000
 106025410.879 8                  19813383.670
        51.250
  30696558.402 7                   5841595.411
        43.750
 119089222.177 7                  22661925.726
        44.750
 135157514.318 5 105317536.89943  25719622.582    25719621.626    25719618.295
        34.250          18.750
 121142615.892 7                  23052673.395
        44.000
 140582009.753 6                  26751874.257
        37.250
 132907395.725 6 103564221.14843  25291438.552    25291438.087    25291440.637
        38.000          19.750
 195091962.990 7                  37124767.054
        47.000
 117421155.897 7                  22004676.353
        46.750
 103848598.269 8                  19454341.879
        52.000
 135833060.98815                  25848172.179
        32.000
 104382670.658 8                  19499560.186
        52.250
 134161948.83615 104541791.86853  25530171.679    25530171.992    25530174.515
        35.500          22.500
 21 10 20 10 31  0.0000000  0 27G01G17G03G04R04G06G07G19G09R19S25E11
                                S23E04R17S48E12G02E19E26G20S36R02R18
                                G30R03G14
 124700209.495 6  97169001.52246  23729665.693    23729665.573    23729671.240
        40.250          41.500
 109073468.790 8  84992308.44547  20755991.950    20755991.620    20755991.072
        48.500          42.750
 123211801.373 6  96009203.65047  23446427.279    23446427.190    23446429.692
        40.500          42.250
 111855719.263 7  87160302.14046  21285436.313    21285436.130    21285436.430
        46.250          38.000
 112465701.862 8                  21002175.374
        50.000
 114550007.200 7  89259755.23546  21798141.078    21798141.034    21798142.891
        46.000          38.250
 126811549.515 6  98814223.17846  24131430.715    24131430.344    24131434.115
        40.500          38.250
 107622866.840 8  83861963.17447  20479951.262    20479950.046    20479948.562
        48.000          42.250
 106650316.911 8  83104147.51449  20294880.726    20294880.261    20294881.592
        51.250          56.750
 120614269.872 6                  22547566.123
        36.000
 179844930.320 8                  34223353.343
        48.750
 140650299.590 5                  26764863.012
        31.500
 203888544.933 7                  38798703.850
        43.750
 136519925.504 7                  25978876.924
        43.500
 106088395.277 8                  19825154.055
        51.250
  30695980.115 7                   5841535.474
        43.500
 119039724.501 7                  22652506.540
        44.250
 135075267.885 6 105253448.74543  25703969.669    25703968.744    25703967.826
        36.250          20.000
 121144733.055 7                  23053076.384
        43.500
 140647896.469 6                  26764411.557
        37.250
 132840698.072 5 103512249.03342  25278746.778    25278746.170    25278748.129
        35.000          13.750
 195091931.607 7                  37124761.290
        47.000
 117525667.028 7                  22024261.301
        46.500
 103796967.269 8                  19444669.770
        52.000
 135761320.720 5 105788075.73655  25834520.644    25834520.166    25834528.189
        35.000          31.000
 104414894.438 8                  19505579.913
        52.500
 134220274.722 5 104587240.52542  25541271.537    25541271.613    25541276.538
        34.250          14.500
 21 10 20 10 31 30.0000000  0 27G01G17G03G04R04G06G07G19G09R19S25E11
                                S23E04R17S48E12G02E19E26G20S36R02R18
                                G30R03G14
 124777263.910 6  97229043.64946  23744329.027    23744328.911    23744334.657
        41.500          41.500
 109118135.083 8  85027113.30547  20764491.757    20764491.427    20764490.876
        49.000          42.500
 123282159.487 6  96064028.10246  23459815.682    23459815.593    23459818.767
        40.250          41.500
 111910345.823 7  87202868.26246  21295831.312    21295831.129    21295831.719
        46.500          38.000
 112400338.631 8                  20989969.778
        49.750
 114481010.506 7  89205991.57246  21785011.476    21785011.436    21785013.295
        46.250          38.500
 126738801.129 6  98757536.29246  24117587.041    24117586.675    24117590.558
        40.750          38.000
 107629287.150 8  83866965.98447  20481173.124    20481171.908    20481170.147
        48.250          42.250
 106634051.518 8  83091473.17149  20291785.296    20291784.831    20291786.482
        51.500          56.750
 120495847.226 6                  22525427.529
        36.000
 179845808.520 8                  34223519.074
        48.750
 140574008.219 5                  26750345.029
        30.500
 203888610.089 7                  38798717.823
        43.750
 136448378.255 7                  25965261.824
        43.000
 106152017.425 8                  19837043.342
        51.750
  30697002.173 7                   5841476.466
        43.750
 118990374.957 7                  22643115.760
        44.000
 134992911.404 6 105189274.86043  25688297.734    25688296.782    25688296.091
        36.000          20.500
 121147205.483 7                  23053546.896
        43.250
 140713964.568 6                  26776984.883
        37.500
 132774034.548 5 103460303.49043  25266058.762    25266058.114    25266061.863
        35.500          18.000
 195091898.181 7                  37124755.790
        47.000
 117630218.507 7                  22043854.974
        46.750
 103745931.150 8                  19435108.995
        52.000
 135689307.499 5 105731962.06442  25820816.922    25820816.113    25820825.241
        34.750          17.500
 104447597.853 8                  19511689.226
        52.250
 134278362.39916 104632518.12053  25552322.901    25552322.981    25552329.638
        37.250          22.250
 21 10 20 10 32  0.0000000  0 28G01G17G03G04R04G06G07G19G09R19S25E11
                                S23R24E04R17S48E12G02E19E26G20S36R02
                                R18G30R03G14
 124854519.157 6  97289242.25646  23759030.636    23759030.520    23759036.198
        41.000          41.000
 109163309.113 8  85062313.80647  20773088.121    20773087.791    20773087.150
        48.750          42.500
 123352496.101 6  96118835.80146  23473200.898    23473200.805    23473203.362
        40.500          41.500
 111965429.221 7  87245790.36146  21306313.521    21306313.334    21306313.605
        46.250          38.000
 112335458.736 8                  20977853.553
        50.000
 114412134.019 7  89152321.57746  21771904.586    21771904.551    21771906.692
        46.500          39.000
 126665994.772 6  98700804.23846  24103732.309    24103731.938    24103736.452
        40.500          38.500
 107636349.556 8  83872469.13047  20482517.020    20482515.809    20482514.026
        48.250          42.250
 106618345.363 8  83079234.59649  20288796.657    20288796.197    20288797.703
        51.500          56.750
 120377529.021 6                  22503308.986
        36.500
 179846682.061 8                  34223686.984
        48.750
 140497633.522 5                  26735811.795
        31.500
 203888674.964 7                  38798729.597
        43.750
                                  24187335.421
        20.750
 136377044.219 7                  25951687.430
        43.000
 106216275.042 8                  19849051.260
        51.750
  30696424.068 7                   5841416.900
        43.500
 118941174.278 7                  22633753.009
        44.500
 134910444.946 5 105125015.28743  25672605.567    25672604.570    25672603.030
        35.750          20.500
 121150031.646 7                  23054084.711
        43.500
 140780212.752 6                  26789591.658
        38.000
 132707403.793 6 103408383.58743  25253382.707    25253382.050    25253382.738
        37.500          18.000
 195091868.572 7                  37124749.292
        46.750
 117734806.468 7                  22063453.847
        46.000
 103695492.502 8                  19425660.233
        52.000
 135617022.389 4 105675635.98043  25807060.456    25807059.638    25807070.553
        26.250          22.250
 104480776.731 8                  19517887.560
        52.250
 134336184.487 6 104677574.18343  25563325.947    25563326.014    25563331.310
        36.750          22.000
 21 10 20 10 32 30.0000000  0 27G01G17G03G04R04G06G07G19G09R19S25E11
                                S23E04R17S48E12G02E19E26G20S36R02R18
                                G30R03G14
 124931973.671 6  97349596.12946  23773770.058    23773769.951    23773775.135
        41.000          41.000
 109208988.065 8  85097907.75447  20781780.405    20781780.079    20781779.559
        48.750          42.500
 123422809.638 6  96173625.52046  23486580.922    23486580.833    23486583.597
        40.000          41.000
 112020966.157 7  87289065.86446  21316881.880    21316881.693    21316881.949
        46.500          37.750
 112271061.452 8                  20965827.447
        50.000
 114343378.454 7  89098745.82846  21758820.923    21758820.892    21758823.936
        46.000          39.000
 126593131.939 6  98644028.16946  24089867.042    24089866.676    24089871.037
        40.500          38.250
 107644052.408 8  83878471.31947  20483982.798    20483981.591    20483979.797
        48.250          42.250
 106603197.274 8  83067430.88049  20285914.026    20285913.561    20285915.085
        51.250          56.750
 120259317.835 6                  22481210.447
        36.000
 179847564.012 8                  34223856.020
        48.750
 140421175.230 5                  26721261.490
        31.500
 203888736.767 7                  38798741.925
        43.750
 136305923.204 7                  25938153.496
        43.250
 106281165.775 8                  19861177.961
        51.750
  30695845.000 7                   5841357.548
        43.500
 118892122.863 7                  22624418.864
        44.500
 134827867.958 6 105060669.55643  25656891.062    25656890.088    25656889.538
        36.750          20.500
 121153209.590 7                  23054689.376
        43.500
 140846639.440 6                  26802232.793
        39.000
 132640804.211 6 103356487.92242  25240707.010    25240706.228    25240708.707
        36.750          16.500
 195091837.045 7                  37124742.679
        46.750
 117839427.653 7                  22083059.767
        45.750
 103645653.581 8                  19416323.484
        52.000
 135544465.976 5 105619098.33444  25793252.629    25793251.798    25793262.857
        30.000          25.500
 104514427.521 8                  19524173.656
        52.250
 134393750.127 6 104722430.37943  25574280.810    25574280.921    25574286.758
        39.000          21.000
 21 10 20 10 33  0.0000000  0 27G01G17G03G04R04G06G07G19G09R19S25E11
                                S23E04R17S48E12G02E19E26G20S36R02R18
                                G30R03G14
 125009630.038 6  97410107.28146  23788547.623    23788547.512    23788553.446
        40.750          40.250
 109255173.419 8  85133896.29647  20790569.275    20790568.949    20790568.350
        49.000          42.250
 123493102.757 6  96228399.32146  23499956.469    23499956.385    23499959.959
        39.750          40.000
 112076957.477 7  87332695.42446  21327536.442    21327536.246    21327536.967
        46.750          38.000
 112207150.388 8                  20953892.908
        50.000
 114274748.758 7  89045268.13946  21745760.964    21745760.933    21745763.592
        46.000          38.500
 126520218.123 6  98587212.36946  24075991.604    24075991.224    24075995.578
        41.000          38.500
 107652398.545 8  83884974.76847  20485570.938    20485569.731    20485568.100
        48.750          42.000
 106588610.268 8  83056064.37049  20283138.248    20283137.788    20283139.223
        51.750          56.500
 120141220.535 5                  22459133.954
        35.500
 179848464.394 8                  34224026.398
        48.250
 140344637.209 5                  26706697.442
        30.750
 203888800.000 7                  38798753.905
        43.500
 136235019.173 7                  25924660.967
        43.500
 106346691.364 8                  19873423.117
        52.000
  30695268.463 7                   5841297.758
        43.250
 118843225.290 7                  22615114.031
        44.500
 134745184.620 6 104996240.97743  25641156.670    25641155.655    25641155.324
        36.000          20.250
 121156741.603 7                  23055361.571
        43.500
 140913247.216 6                  26814908.055
        38.750
 132574238.605 6 103304618.77342  25228041.291    25228040.469    25228041.499
        37.250          17.500
 195091798.912 7                  37124736.025
        46.500
 117944082.236 7                  22102672.342
        46.500
 103596420.596 8                  19407100.933
        52.000
 135471642.544 5 105562352.42344  25779396.673    25779395.851    25779404.288
        30.000          29.250
 104548550.149 8                  19530548.030
        52.500
 134451060.773 6 104767087.86344  25585187.283    25585187.372    25585193.484
        39.750          26.000
 21 10 20 10 33 30.0000000  0 27G01G17G03G04R04G06G07G19G09R19S25E11
                                S23E04R17S48E12G02E19E26G20S36R02R18
                                G30R03G14
 125087489.781 6  97470776.89746  23803364.036    23803363.916    23803369.872
        40.250          40.250
 109301865.465 8  85170279.66547  20799454.454    20799454.128    20799453.500
        48.500          42.250
 123563377.004 6  96283158.43046  23513329.707    23513329.623    23513332.633
        39.500          40.500
 112133402.945 7  87376678.86746  21338277.742    21338277.541    21338278.028
        46.250          37.750
 112143727.908 8                  20942049.111
        50.000
 114206248.819 7  88991891.56546  21732726.129    21732726.103    21732728.056
        46.000          38.750
 126447257.805 6  98530360.31946  24062107.677    24062107.306    24062111.047
        40.500          38.500
 107661389.544 8  83891980.71247  20487282.082    20487280.880    20487279.184
        48.250          42.250
 106574586.290 8  83045136.58249  20280469.531    20280469.071    20280470.662
        51.250          56.750
 120023242.323 5                  22437078.046
        34.750
 179849374.897 8                  34224198.855
        48.500
 140268022.325 5                  26692117.518
        30.000
 203888867.055 7                  38798766.358
        43.500
 136164335.031 7                  25911210.234
        43.250
 106412852.366 8                  19885786.771
        52.000
  30694693.524 7                   5841237.704
        43.250
 118794485.072 7                  22605839.149
        44.250
 134662398.151 5 104931732.04543  25625403.335    25625402.311    25625401.704
        35.750          20.500
 121160628.873 7                  23056101.262
        43.750
 140980037.568 6                  26827617.846
        39.250
 132507708.409 6 103252777.22443  25215381.134    25215380.316    25215381.347
        37.250          20.000
 195091769.282 7                  37124731.133
        46.750
 118048769.170 7                  22122290.582
        46.000
 103547798.979 8                  19397992.167
        52.000
 135398553.35116 105505404.41355  25765489.768    25765488.959    25765497.797
        36.750          31.750
 104583143.934 8                  19537010.595
        52.250


 21 10 20 10 34  0.0000000  0 27G01G17G03G04R04G06G07G19G09G14R19S25
                                E11S23E04R17S48E12G02E19E26G20S36R02
                                R18G30R03
 125165550.285 6  97531602.95246  23818218.747    23818218.622    23818224.736
        40.000          40.750
 109349060.179 8  85207054.72347  20808435.397    20808435.071    20808434.365
        48.750          42.250
 123633629.798 6  96337900.80546  23526698.677    23526698.593    23526701.411
        39.500          41.000
 112190298.097 7  87421012.71746  21349104.614    21349104.418    21349104.757
        46.250          37.750
 112080792.075 8                  20930296.280
        50.250
 114137878.288 7  88938615.81846  21719715.425    21719715.399    21719717.643
        46.500          39.250
 126374251.193 6  98473472.19346  24048214.924    24048214.553    24048218.342
        40.500          38.250
 107671022.800 8  83899487.11347  20489115.138    20489113.936    20489112.563
        48.500          42.500
 106561122.982 8  83034645.68649  20277907.740    20277907.280    20277908.757
        51.500          56.750
 134564918.25916 104855809.75653  25606852.896    25606852.879    25606858.558
        40.500          18.250
 119905384.558 6                  22415046.047
        36.000
 179850293.139 8                  34224373.280
        48.750
 140191329.320 5                  26677523.604
        31.750
 203888935.185 7                  38798779.961
        43.500
 136093869.476 7                  25897801.091
        43.500
 106479645.070 8                  19898268.755
        51.750
  30694119.472 7                   5841177.637
        43.500
 118745901.537 7                  22596593.948
        44.500
 134579506.640 6 104867141.25043  25609629.061    25609628.037    25609627.416
        36.750          20.750
 121164868.387 7                  23056907.978
        43.750
 141047007.759 6                  26840362.485
        39.250
 132441210.875 5 103200961.19942  25202726.040    25202725.160    25202727.138
        33.500          16.500
 195091742.456 7                  37124726.688
        46.750
 118153483.594 7                  22141913.793
        46.000
 103499789.716 8                  19388998.440
        52.000
                                  25751530.188
        27.500
 104618203.636 8                  19543559.899
        52.500
 21 10 20 10 34 30.0000000  0 27G01G17G03G04R04G06G07G19G09G14R19S25
                                E11S23E04R17S48E12G02E19E26G20S36R02
                                R18G30R03
 125243809.856 6  97592584.13246  23833111.138    23833111.013    23833117.023
        39.750          40.250
 109396754.756 8  85244219.28647  20817511.357    20817511.031    20817510.480
        48.750          42.000
 123703859.573 6  96392625.25146  23540062.884    23540062.795    23540065.683
        39.250          40.750
 112247639.544 7  87465694.32946  21360016.469    21360016.268    21360016.558
        46.250          37.500
 112018341.941 8                  20918634.171
        50.000
 114069637.929 7  88885441.50746  21706729.789    21706729.767    21706732.100
        46.500          39.000
 126301199.749 6  98416549.13446  24034313.259    24034312.884    24034317.275
        40.250          38.250
 107681296.561 8  83907492.60647  20491070.325    20491069.123    20491067.592
        48.250          42.250
 106548219.041 8  83024590.65949  20275452.094    20275451.638    20275453.076
        51.500          56.500
 134621452.785 5 104899862.55943  25617610.150    25617610.194    25617616.754
        34.000          20.500
 119787650.026 5                  22393035.082
        35.750
 179851220.403 8                  34224548.715
        48.750
 140114557.768 5                  26662914.805
        31.250
 203889001.559 7                  38798792.956
        43.500
 136023622.227 7                  25884433.309
        43.000
 106547066.808 8                  19910867.978
        51.750
  30695147.705 7                   5841119.675
        43.500
 118697475.027 7                  22587378.691
        44.250
 134496509.836 6 104802468.40443  25593835.224    25593834.227    25593834.244
        37.250          22.000
 121169458.131 7                  23057781.452
        43.250
 141114156.127 6                  26853140.625
        39.500
 132374744.457 5 103149169.33743  25190077.959    25190077.047    25190078.519
        35.250          18.000
 195091713.814 7                  37124720.437
        46.750
 118258221.755 7                  22161541.807
        45.750
 103452394.754 8                  19380119.718
        51.750
 135251590.82816 105390884.45855  25737522.881    25737522.126    25737530.834
        36.250          32.000
 104653725.051 8                  19550195.622
        52.250
 21 10 20 10 35  0.0000000  0 27G01G17G03G04R04G06G07G19G09G14R19S25
                                E11S23E04R17S48E12G02E19E26G20S36R02
                                R18G30R03
 125322264.856 6  97653717.56646  23848040.992    23848040.881    23848046.855
        40.000          40.250
 109444944.390 8  85281769.60747  20826681.585    20826681.259    20826680.848
        48.500          42.000
 123774062.702 6  96447328.93546  23553422.548    23553422.455    23553424.990
        40.000          41.000
 112305421.793 7  87510719.42446  21371012.055    21371011.859    21371012.488
        46.250          37.500
 111956374.871 8                  20907062.275
        50.000
 114001526.414 7  88832367.59346  21693768.752    21693768.730    21693770.851
        46.250          38.750
 126228102.712 6  98359590.55046  24020403.688    24020403.304    24020407.300
        40.000          38.000
 107692207.406 8  83915994.53147  20493146.537    20493145.330    20493143.794
        48.250          42.000
 106535871.180 8  83014968.93749  20273102.486    20273102.026    20273103.252
        51.500          56.250
 134677710.74216 104943698.19953  25628318.452    25628317.929    25628323.620
        38.500          19.750
 119670039.413 6                  22371052.085
        37.500
 179852151.285 8                  34224725.581
        48.750
 140037705.374 5                  26648290.127
        31.000
 203889064.633 7                  38798804.917
        43.500
 135953590.995 7                  25871106.994
        43.000
 106615112.776 8                  19923584.220
        51.750
  30694571.764 7                   5841060.180
        43.500
 118649203.920 7                  22578193.035
        44.250
 134413405.612 6 104737711.86643  25578021.555    25578020.576    25578020.029
        36.250          21.250
 121174394.099 7                  23058720.748
        43.250
 141181478.985 6                  26865951.971
        39.250
 132308305.340 6 103097398.76243  25177435.419    25177434.463    25177435.605
        37.750          18.500
 195091684.740 7                  37124712.862
        46.750
 118362976.935 7                  22181172.733
        45.250
 103405614.184 8                  19371356.014
        52.000
 135177710.635 6 105333315.18145  25723464.531    25723463.901    25723471.995
        38.500          30.000
 104689702.325 8                  19556916.354
        52.000
 21 10 20 10 35 30.0000000  0 27G01G17G03G04R04G06G07G19G09G14R19S25
                                E11S23E04R17S48E12G02E19E26G20S36R02
                                R18G30R03
 125400920.925 6  97715007.67946  23863009.133    23863009.004    23863015.200
        40.250          40.750
 109493633.476 8  85319709.10647  20835946.879    20835946.553    20835946.229
        48.500          42.250
 123844245.021 6  96502016.39846  23566777.686    23566777.602    23566780.582
        39.500          41.000
 112363648.757 7  87556091.04246  21382092.205    21382092.004    21382092.838
        46.250          37.500
 111894897.394 8                  20895581.767
        50.250
 113933551.822 7  88779400.37646  21680833.840    21680833.818    21680835.726
        46.250          39.000
 126154968.725 6  98302603.16546  24006486.344    24006485.964    24006490.171
        39.750          38.500
 107703760.962 8  83924997.26747  20495345.029    20495343.822    20495342.415
        48.250          42.250
 106524085.310 8  83005785.13349  20270859.625    20270859.165    20270860.483
        51.500          56.500
 134733715.333 6 104987338.25442  25638976.268    25638975.902    25638980.981
        38.750          12.250
 119552562.111 6                  22349089.895
        36.500
 179853096.832 8                  34224905.371
        48.500
 139960779.271 5                  26633651.633
        31.250
 203889132.108 7                  38798816.722
        43.500
 135883782.810 7                  25857822.988
        43.500
 106683787.867 8                  19936418.058
        51.750
  30693997.255 7                   5840999.617
        43.250
 118601095.903 7                  22569038.385
        44.500
 134330201.150 6 104672877.19543  25562188.593    25562187.610    25562185.830
        36.250          20.250
 121179681.593 7                  23059727.018
        43.750
 141248981.922 6                  26878797.604
        40.000
 132241899.842 5 103045654.41042  25164797.715    25164796.705    25164798.755
        33.500          16.250
 195091653.460 7                  37124707.447
        46.750
 118467753.240 7                  22200808.298
        46.000
 103359457.433 8                  19362709.644
        52.250
 135103572.415 5 105275544.99144  25709355.704    25709355.128    25709363.543
        34.750          26.750
 104726138.472 8                  19563723.313
        52.000
 21 10 20 10 36  0.0000000  0 27G01G17G03G04R04G06G07G19G09G14R19S25
                                E11S23E04R17S48E12G02E19E26G20S36R02
                                R18G30R03
 125479772.773 6  97776450.34446  23878014.482    23878014.348    23878020.615
        39.250          40.250
 109542815.238 8  85358032.51147  20845305.942    20845305.621    20845305.299
        48.250          42.250
 123914401.253 6  96556683.52946  23580127.827    23580127.743    23580130.750
        40.000          40.750
 112422313.291 7  87601803.63746  21393255.767    21393255.575    21393255.877
        46.000          37.250
 111833904.598 8                  20884191.824
        50.000
 113865711.223 7  88726537.56546  21667923.954    21667923.928    21667926.228
        45.750          39.250
 126081795.492 6  98245585.19446  23992561.916    23992561.532    23992565.950
        39.500          38.500
 107715951.880 8  83934496.65347  20497665.025    20497663.823    20497662.230
        48.000          42.250
 106512856.431 8  82997035.34849  20268722.925    20268722.465    20268723.812
        51.000          56.500
 134789449.823 6 105030768.23344  25649582.294    25649581.856    25649587.925
        39.000          27.500
 119435217.176 5                  22327152.833
        35.500
 179854048.477 8                  34225084.160
        48.500
 139883775.223 5                  26618998.140
        30.250
 203889196.581 7                  38798829.905
        43.750
 135814193.660 7                  25844580.563
        43.250
 106753085.497 8                  19949367.636
        51.500
  30693420.517 7                   5840938.946
        43.250
 118553147.637 7                  22559914.217
        44.250
 134246892.278 6 104607961.19543  25546334.931    25546333.943    25546332.430
        37.000          20.500
 121185314.914 7                  23060799.044
        43.250
 141316659.577 6                  26891676.813
        40.000
 132175521.853 5 102993931.40543  25152167.324    25152166.269    25152167.092
        35.500          19.000
 195091615.425 7                  37124701.227
        46.750
 118572542.705 7                  22220445.809
        46.000
 103313922.849 8                  19354179.616
        52.250
 135029173.600 4 105217571.65044  25695197.944    25695197.323    25695207.325
        25.750          25.250
 104763025.526 8                  19570613.872
        52.000
 21 10 20 10 36 30.0000000  0 27G01G17G03G04R04G06G07G19G09G14R19S25
                                E11S23E04R17S48E12G02E19E26G20S36R02
                                R18G30R03
 125558825.852 6  97838049.79846  23893057.850    23893057.721    23893063.895
        39.750          40.250
 109592493.787 8  85396743.02247  20854759.455    20854759.125    20854758.877
        48.500          42.500
 123984537.146 6  96611334.80946  23593474.326    23593474.246    23593477.126
        40.250          41.000
 112481419.170 7  87647860.13146  21404503.223    21404503.040    21404503.604
        46.250          37.500
 111773403.018 8                  20872893.549
        50.000
 113798012.612 7  88673785.39446  21655041.336    21655041.310    21655043.470
        46.000          39.250
 126008591.563 6  98188543.30846  23978630.999    23978630.628    23978635.875
        39.750          38.750
 107728785.441 8  83944496.79647  20500107.219    20500106.021    20500104.210
        48.000          42.250
 106502190.341 8  82988724.10049  20266693.195    20266692.735    20266694.206
        51.000          56.750
 134844919.493 4 105073991.50641  25660137.753    25660137.288    25660144.035
        24.750          10.000
 119318014.199 5                  22305242.854
        34.500
 179855012.266 8                  34225265.637
        48.500
 139806700.466 5                  26604331.346
        30.250
 203889264.189 7                  38798842.041
        43.500
 135744830.527 7                  25831381.217
        43.500
 106823010.129 8                  19962434.916
        51.750
  30692849.010 7                   5840879.250
        43.250
 118505366.726 7                  22550821.719
        44.250
 134163486.116 6 104542969.35143  25530463.480    25530462.555    25530461.274
        37.250          21.250
 121191299.255 7                  23061937.715
        43.250
 141384517.469 6                  26904590.082
        39.500
 132109178.117 6 102942235.14243  25139541.995    25139540.904    25139543.478
        36.000          19.000
 195091584.627 7                  37124696.067
        46.750
 118677348.915 7                  22240086.905
        46.750
 103269019.630 8                  19345767.734
        52.000
 134954522.031 6 105159401.37444  25680992.395    25680991.769    25681002.106
        36.000          27.750
 104800366.917 8                  19577589.572
        52.250
 21 10 20 10 37  0.0000000  0 27G01G17G03G04R04G06G07G19G09G14R19S25
                                E11S23E04R17S48E12G02E19E26G20S36R02
                                R18G30R03
 125638075.151 6  97899802.13946  23908138.647    23908138.518    23908144.889
        39.250          40.000
 109642662.644 8  85435835.58947  20864306.370    20864306.044    20864305.715
        48.500          42.250
 124054647.784 6  96665966.40546  23606816.240    23606816.156    23606818.650
        39.500          40.000
 112540959.503 7  87694255.15746  21415833.403    21415833.225    21415834.007
        46.250          37.500
 111713388.138 8                  20861686.552
        50.000
 113730453.362 7  88621141.81646  21642185.149    21642185.127    21642187.510
        46.500          39.250
 125935355.091 6  98131476.06246  23964695.011    23964694.631    23964698.977
        40.000          38.750
 107742256.268 8  83954993.51047  20502670.566    20502669.364    20502667.706
        48.250          42.000
 106492082.275 8  82980847.67649  20264769.672    20264769.212    20264770.746
        51.500          56.750
                                  25670644.541
        22.000
 119200952.505 5                  22283360.134
        34.750
 179855982.196 8                  34225449.103
        48.500
 139729551.196 5                  26589650.111
        30.750
 203889332.381 7                  38798854.002
        43.500
 135675689.671 7                  25818224.059
        43.750
 106893555.731 8                  19975618.249
        51.750
  30692277.382 7                   5840821.682
        43.250
 118457750.186 7                  22541760.598
        44.250
 134079978.943 6 104477898.82543  25514571.966    25514571.054    25514571.153
        36.500          21.000
 121197629.194 7                  23063142.560
        43.500
 141452550.500 6                  26917536.674
        40.000
 132042863.137 5 102890561.14843  25126923.694    25126922.594    25126923.513
        33.500          18.000
 195091552.823 7                  37124689.967
        46.750
 118782164.624 7                  22259728.999
        46.500
 103224746.388 8                  19337473.483
        52.000
 134879614.445 5 105101031.55444  25666738.430    25666737.804    25666747.692
        33.500          27.500
 104838155.276 8                  19584648.866
        52.250
 21 10 20 10 37 30.0000000  0 27G01G17G03G04R04G06G07G19G09G14R19S25
                                E11S23E04R17S48E12G02E19E26G20S36R02
                                R18G30R03
 125717520.227 6  97961707.03746  23923256.687    23923256.571    23923263.097
        39.000          39.000
 109693320.472 8  85475309.17247  20873946.159    20873945.838    20873945.657
        48.750          42.000
 124124732.946 6  96720578.14746  23620152.190    23620152.119    23620155.403
        39.250          39.500
 112600932.106 7  87740987.02246  21427245.876    21427245.689    21427246.379
        46.500          37.250
 111653860.240 8                  20850569.811
        50.000
 113663035.525 7  88568608.42246  21629356.124    21629356.098    21629357.951
        46.500          39.000
 125862088.344 6  98074385.22246  23950752.674    23950752.303    23950756.068
        40.500          38.750
 107756364.188 8  83965986.66247  20505355.354    20505354.152    20505352.433
        48.250          42.000
 106482532.034 8  82973405.92049  20262952.271    20262951.815    20262953.425
        51.500          56.500
 134955060.16115 105159820.66252  25681093.591    25681094.149    25681101.246
        34.500          15.500
 119084035.956 6                  22261502.984
        37.250
 179856961.278 8                  34225633.651
        48.250
 139652328.505 5                  26574955.034
        31.500
 203889400.036 7                  38798866.290
        43.500
 135606772.050 7                  25805109.513
        44.000
 106964720.572 8                  19988916.964
        51.750
  30693303.543 7                   5840760.564
        43.250
 118410299.586 7                  22532731.103
        44.500
 133996371.712 6 104412750.30743  25498662.752    25498661.858    25498661.062
        36.750          21.250
 121204303.920 7                  23064412.381
        43.750
 141520758.211 6                  26930516.384
        40.500
 131976575.928 5 102838908.87543  25114308.295    25114307.227    25114310.018
        35.500          19.000
 195091522.342 7                  37124684.356
        46.500
 118886987.611 7                  22279373.398
        46.500
 103181106.281 8                  19329298.558
        52.250
 134804452.665 6 105042463.77545  25652435.564    25652434.912    25652444.496
        36.250          30.500
 104876387.127 8                  19591790.727
        52.000
 21 10 20 10 38  0.0000000  0 27G01G17G03G04R04G06G07G19G09G14R19S25
                                E11S23E04R17S48E12G02E19E26G20S36R02
                                R18G30R03
 125797168.306 6  98023770.10446  23938413.667    23938413.569    23938419.778
        38.500          38.750
 109744473.245 8  85515168.42847  20883680.289    20883679.972    20883679.754
        48.500          42.250
 124194799.959 6  96775175.74846  23633486.061    23633485.994    23633488.883
        39.250          39.000
 112661342.348 7  87788059.90846  21438741.584    21438741.397    21438742.125
        46.500          37.500
 111594827.440 8                  20839545.578
        50.250
 113595768.762 7  88516192.75746  21616555.819    21616555.793    21616558.053
        46.500          39.500
 125788801.870 6  98017279.01346  23936806.340    23936805.956    23936810.316
        40.500          39.250
 107771116.339 8  83977481.81147  20508162.531    20508161.324    20508159.695
        48.250          42.000
 106473547.056 8  82966404.62849  20261242.483    20261242.023    20261243.553
        51.250          56.750
 135009718.131 5 105202411.14543  25691495.223    25691495.701    25691501.167
        34.000          19.500
 118967275.956 6                  22239675.911
        37.500
 179857956.585 8                  34225821.745
        48.500
 139575040.994 5                  26560248.480
        32.000
 203889473.438 7                  38798881.400
        43.500
 135538086.258 7                  25792039.105
        44.500
 107036510.809 8                  20002332.985
        51.750
  30692738.358 7                   5840703.899
        43.250
 118363024.237 7                  22523734.885
        45.000
 133912673.248 6 104347530.71243  25482735.875    25482734.945    25482732.896
        36.750          21.250
 121211330.293 7                  23065749.553
        44.000
 141589147.749 6                  26943531.258
        40.750
 131910324.817 5 102787284.70142  25101701.091    25101699.991    25101702.565
        33.500          17.250
 195091500.291 7                  37124679.589
        46.500
 118991822.143 7                  22299018.578
        45.000
 103138110.050 8                  19321243.935
        52.250
 134729045.877 5 104983705.01145  25638086.178    25638085.512    25638094.795
        34.500          31.000
 104915067.824 8                  19599017.047
        52.250
 21 10 20 10 38 30.0000000  0 26G01G17G03G04R04G06G07G19G09R19S25E11
                                S23E04R17S48E12G02E19E26G20S36R02R18
                                G30R03
 125877005.050 6  98085980.17246  23953606.391    23953606.284    23953612.741
        39.000          38.500
 109796104.575 8  85555400.58547  20893505.477    20893505.164    20893504.843
        48.750          42.000
 124264834.782 6  96829748.27946  23646813.304    23646813.237    23646815.811
        39.250          38.500
 112722174.186 7  87835461.30446  21450317.421    21450317.234    21450318.096
        46.000          37.500
 111536275.889 8                  20828611.589
        50.250
 113528641.305 7  88463885.64546  21603781.645    21603781.619    21603784.018
        46.500          39.250
 125715484.375 6  97960148.63146  23922854.658    23922854.287    23922858.621
        40.750          39.500
 107786497.806 8  83989467.33647  20511089.556    20511088.349    20511086.708
        48.250          42.000
 106465113.297 8  82959832.85649  20259637.515    20259637.059    20259638.737
        51.500          56.750
 118850662.512 6                  22217876.832
        37.000
 179858947.023 8                  34226008.588
        48.500
 139497675.839 5                  26545525.423
        30.750
 203889540.130 7                  38798893.518
        43.250
 135469619.335 7                  25779010.152
        44.250
 107108910.706 8                  20015862.634
        51.750
  30692169.014 7                   5840644.243
        43.250
 118315911.943 7                  22514769.853
        44.500
 133828870.676 6 104282230.00043  25466788.215    25466787.290    25466786.137
        37.000          21.750
 121218693.669 7                  23067150.781
        43.500
 141657704.822 6                  26956577.525
        40.250
 131844095.210 5 102735677.26043  25089098.764    25089097.687    25089099.569
        33.500          18.500
 195091469.033 7                  37124672.989
        46.500
 119096652.636 7                  22318663.564
        44.750
 103095747.264 8                  19313308.138
        52.250
 134653382.176 6 104924746.04044  25623688.727    25623688.061    25623698.241
        36.750          29.500
 104954180.288 8                  19606323.318
        52.250
 21 10 20 10 39  0.0000000  0 26G01G17G03G04R04G06G07G19G09R19S25E11
                                S23E04R17S48E12G02E19E26G20S36R02R18
                                G30R03
 125957046.668 6  98148349.87546  23968837.894    23968837.792    23968844.675
        37.500          38.000
 109848229.765 8  85596017.56847  20903424.675    20903424.358    20903423.863
        48.250          42.000
 124334853.883 6  96884308.54546  23660137.700    23660137.629    23660140.357
        39.250          38.750
 112783441.959 7  87883202.39446  21461976.539    21461976.356    21461976.895
        46.250          37.750
 111478222.755 8                  20817771.141
        50.750
 113461671.823 7  88411701.62446  21591038.131    21591038.100    21591040.023
        46.250          39.500
 125642155.088 6  97903009.05346  23908900.202    23908899.827    23908904.226
        40.500          39.250
 107802525.100 8  84001956.10847  20514139.488    20514138.286    20514136.743
        48.250          42.250
 106457247.081 8  82953703.32749  20258140.677    20258140.221    20258141.893
        51.500          56.750
 118734216.275 5                  22196107.211
        35.250
 179859954.641 8                  34226200.988
        48.500
 139420250.590 5                  26530792.909
        32.000
 203889617.087 7                  38798908.704
        43.750
 135401388.890 7                  25766026.259
        44.250
 107181935.706 8                  20029508.976
        52.000
  30691609.145 7                   5840585.983
        43.500
 118268980.989 7                  22505839.037
        44.750
 133744981.714 6 104216861.96543  25450825.031    25450824.097    25450823.080
        36.500          21.500
 121226409.833 7                  23068619.185
        43.500
 141726445.578 6                  26969658.863
        40.000
 131777903.565 6 102684099.41343  25076501.679    25076500.615    25076503.357
        36.000          18.500
 195091446.444 7                  37124669.402
        46.500
 119201493.138 7                  22338311.502
        45.250
 103054037.749 8                  19305494.179
        52.000
 134577480.278 5 104865601.44145  25609244.918    25609244.225    25609254.198
        35.000          30.500
 104993738.520 8                  19613712.942
        52.250
 21 10 20 10 39 30.0000000  0 26G01G17G03G04R04G06G07G19G09R19S25E11
                                S23E04R17S48E12G02E19E26G20S36R02R18
                                G30R03
 126037274.294 6  98210864.49946  23984105.047    23984104.949    23984111.761
        37.500          37.500
 109900828.334 8  85637003.41847  20913434.019    20913433.702    20913433.161
        48.500          42.000
 124404838.543 6  96938841.96946  23673455.430    23673455.363    23673458.253
        40.000          38.750
 112845125.000 7  87931267.06646  21473714.360    21473714.182    21473714.793
        46.250          37.500
 111420649.582 8                  20807019.380
        50.250
 113394843.969 7  88359627.95946  21578321.002    21578320.971    21578322.737
        46.500          39.500
 125568798.618 6  97845848.30046  23894941.435    23894941.069    23894944.759
        40.500          39.250
 107819178.896 8  84014933.06047  20517308.574    20517307.372    20517305.925
        48.500          42.250
 106449929.764 8  82948001.51049  20256748.364    20256747.908    20256749.452
        51.500          56.750
 118617922.280 5                  22174366.394
        35.750
 179860965.458 8                  34226390.643
        48.500
 139342748.108 5                  26516044.646
        31.750
 203889684.558 7                  38798920.625
        43.250
 135333377.363 7                  25753084.199
        44.500
 107255565.277 8                  20043268.557
        51.750
  30691039.800 7                   5840527.919
        43.250
 118222214.560 7                  22496939.846
        44.500
 133660989.151 6 104151413.21043  25434841.186    25434840.239    25434839.694
        36.750          22.250
 121234459.561 7                  23070151.018
        43.500
 141795351.051 6                  26982771.367
        39.750
 131711731.068 5 102632536.48043  25063909.996    25063908.905    25063910.888
        35.250          19.500
 195091415.668 7                  37124662.914
        46.500
 119306322.716 7                  22357955.631
        44.000
 103012965.790 8                  19297799.955
        51.750
 134501323.379 6 104806258.15544  25594752.786    25594752.084    25594761.293
        36.000          28.750
 105033720.708 8                  19621182.412
        52.250
 21 10 20 10 40  0.0000000  0 26G01G17G03G04R04G06G07G19G09R19S25E11
                                S23E04R17S48E12G02E19E26G20S36R02R18
                                G30R03
 126117695.025 6  98273529.59146  23999409.225    23999409.123    23999415.558
        36.500          36.500
 109953906.166 8  85678362.72146  20923534.159    20923533.842    20923533.627
        48.000          41.750
 124474796.170 6  96993354.34046  23686767.518    23686767.447    23686770.761
        38.500          38.000
 112907228.605 7  87979659.45446  21485532.340    21485532.157    21485532.495
        45.750          37.250
 111363563.925 8                  20796358.629
        50.250
 113328167.411 7  88307672.19346  21565632.852    21565632.826    21565634.956
        46.500          39.500
 125495424.691 6  97788673.94746  23880978.417    23880978.037    23880981.773
        40.250          38.750
 107836466.245 8  84028403.69247  20520598.402    20520597.195    20520595.671
        48.000          42.000
 106443168.620 8  82942733.07449  20255461.908    20255461.457    20255462.827
        51.000          56.500
 118501792.400 6                  22152658.948
        36.250
 179861982.141 8                  34226583.571
        48.250
 139265176.779 5                  26501282.878
        32.250
 203889751.122 7                  38798933.852
        43.250
 135265593.260 7                  25740185.243
        44.500
 107329805.466 8                  20057142.305
        51.750
  30690469.798 7                   5840468.737
        43.000
 118175621.876 7                  22488073.601
        44.750
 133576901.513 6 104085890.40843  25418839.745    25418838.789    25418837.814
        36.500          21.500
 121242849.580 7                  23071747.515
        44.000
 141864428.371 6                  26995916.593
        39.750
 131645584.561 5 102580993.78743  25051323.129    25051322.003    25051323.056
        35.000          19.250
 195091382.977 7                  37124656.412
        46.500
 119411146.043 7                  22377599.989
        45.500
 102972542.117 8                  19290227.348
        52.000
 134424920.822 5 104746723.48644  25580214.138    25580213.423    25580223.306
        35.500          28.250
 105074131.748 8                  19628731.588
        52.500
 21 10 20 10 40 30.0000000  0 26G01G17G03G04R04G06G07G19G09R19S25E11
                                S23E04R17S48E12G02E19E26G20S36R02R18
                                G30R03
 126198312.843 6  98336348.25446  24014750.063    24014749.965    24014757.261
        37.000          36.000
 110007465.920 8  85720097.54546  20933726.404    20933726.091    20933725.675
        48.500          41.750
 124544731.054 6  97047848.98246  23700076.419    23700076.352    23700079.396
        38.500          38.500
 112969755.000 7  88028381.28046  21497430.765    21497430.591    21497431.009
        46.250          37.000
 111306970.704 8                  20785790.379
        50.000
 113261648.717 7  88255839.43346  21552974.542    21552974.520    21552976.789
        47.000          39.750
 125422040.634 6  97731491.69546  23867013.995    23867013.615    23867016.954
        41.000          39.000
 107854390.723 8  84042370.78647  20524009.305    20524008.103    20524006.634
        48.250          42.000
 106436967.828 8  82937901.27049  20254281.881    20254281.430    20254282.936
        51.500          56.750
 118385835.111 6                  22130981.760
        37.250
 179863010.783 8                  34226778.990
        48.250
 139187542.203 5                  26486509.754
        31.750
 203889821.256 7                  38798947.182
        43.000
 135198041.987 7                  25727330.622
        44.500
 107404659.087 8                  20071130.142
        51.500
  30691504.822 7                   5840410.100
        43.000
 118129209.123 7                  22479241.556
        44.750
 133492724.356 6 104020297.81743  25402821.488    25402820.558    25402819.179
        37.500          22.500
 121251583.564 7                  23073409.503
        44.000
 141933681.515 6                  27009095.492
        38.750
 131579468.831 5 102529475.12243  25038741.105    25038739.947    25038742.240
        35.250          18.500
 195091358.223 7                  37124652.164
        46.250
 119515965.476 7                  22397243.110
        45.500
 102932774.648 8                  19282777.746
        51.750
 134348279.079 5 104687002.36844  25565630.550    25565629.840    25565639.968
        35.000          29.250
 105114973.367 8                  19636361.169
        52.250
 21 10 20 10 41  0.0000000  0 26G01G17G03G04R04G06G07G19G09R19S25E11
                                S23E04R17S48E12G02E19E26G20S36R02R18
                                G30R03
 126279121.741 5  98399315.78845  24030127.753    24030127.655    24030135.162
        35.750          35.500
 110061499.842 8  85762201.85346  20944008.758    20944008.441    20944008.051
        48.250          41.750
 124614637.436 6  97102321.42146  23713379.167    23713379.105    23713382.093
        38.000          38.500
 113032696.323 7  88077426.43646  21509408.034    21509407.865    21509408.214
        46.250          37.000
 111250864.612 8                  20775313.067
        50.500
 113195284.441 7  88204126.99846  21540346.390    21540346.368    21540348.261
        46.500          40.000
 125348643.355 6  97674299.14346  23853046.542    23853046.153    23853049.971
        40.250          39.250
 107872946.053 8  84056829.45647  20527540.389    20527539.182    20527537.580
        48.000          42.250
 106431321.508 8  82933501.52249  20253207.313    20253206.857    20253208.477
        51.250          57.000
 118270048.397 6                  22109336.098
        37.000
 179864045.901 8                  34226974.843
        48.500
 139109839.907 5                  26471723.168
        31.250
 203889889.321 7                  38798959.801
        43.500
 135130718.886 7                  25714519.456
        44.250
 107480118.625 8                  20085231.696
        51.500
  30690937.445 7                   5840350.024
        43.250
 118082972.369 7                  22470442.894
        44.750
 133408453.582 6 103954632.30343  25386785.688    25386784.767    25386783.301
        37.000          22.250
 121260655.113 7                  23075135.886
        43.750
 142003104.454 6                  27022306.603
        39.250
 131513377.608 6 102477975.50943  25026164.174    25026162.990    25026164.893
        36.000          19.000
 195091327.398 7                  37124645.394
        46.500
 119620772.795 7                  22416884.304
        45.500
 102893660.302 8                  19275450.479
        52.000
 134271394.325 6 104627091.90445  25550999.499    25550998.784    25551009.615
        36.000          31.750
 105156236.999 8                  19644069.486
        52.000
 21 10 20 10 41 30.0000000  0 26G01G17G03G04R04G06G07G19G09R19S25E11
                                S23E04R17S48E12G02E19E26G20S36R02R18
                                G30R03
 126360128.228 6  98462437.29545  24045542.976    24045542.878    24045550.294
        36.250          35.000
 110116013.241 8  85804679.77446  20954382.315    20954381.994    20954381.826
        48.500          41.750
 124684522.258 6  97156777.04946  23726677.534    23726677.445    23726680.587
        37.500          38.250
 113096057.355 7  88126798.63546  21521465.326    21521465.161    21521465.493
        46.000          37.000
 111195252.500 8                  20764927.705
        50.250
 113129083.663 7  88152541.96546  21527748.512    21527748.486    21527750.600
        47.000          40.000
 125275242.901 6  97617104.10846  23839078.748    23839078.355    23839082.357
        40.750          39.250
 107892138.566 8  84071784.62847  20531192.591    20531191.389    20531189.630
        48.500          42.000
 106426236.289 8  82929538.99649  20252239.704    20252239.248    20252240.778
        51.500          56.750
 118154443.343 6                  22087725.775
        37.000
 179865090.044 8                  34227173.293
        48.250
 139032078.009 5                  26456925.812
        31.500
 203889964.590 7                  38798972.514
        43.750
 135063631.860 7                  25701753.232
        44.250
 107556189.429 8                  20099447.649
        51.500
  30690375.196 7                   5840292.304
        43.000
 118036920.267 7                  22461679.571
        44.750
 133324097.001 6 103888899.90443  25370732.916    25370731.973    25370731.240
        37.500          22.750
 121270070.367 7                  23076927.550
        43.750
 142072703.685 6                  27035551.669
        38.750
 131447317.840 5 102426500.44643  25013593.444    25013592.264    25013594.344
        34.250          18.000
 195091300.446 7                  37124641.759
        46.500
 119725572.599 7                  22436523.924
        45.250
 102855209.965 8                  19268247.229
        52.000
 134194275.226 5 104566998.82645  25536324.478    25536323.750    25536334.313
        34.500          30.500
 105197926.779 8                  19651857.531
        52.000
 21 10 20 10 42  0.0000000  0 26G01G17G03G04R04G06G07G19G09R19S25E11
                                S23E04R17S48E12G02E19E26G20S36R02R18
                                G30R03
 126441325.275 5  98525707.26045  24060995.275    24060995.186    24061001.914
        35.500          34.250
 110170997.760 8  85847524.80346  20964845.687    20964845.370    20964845.168
        48.500          41.750
 124754378.739 6  97211210.61546  23739971.093    23739971.000    23739973.978
        38.750          39.000
 113159829.215 7  88176490.94746  21533600.370    21533600.205    21533601.141
        46.000          36.750
 111140128.128 8                  20754633.926
        50.500
 113063042.019 7  88101080.93146  21515180.907    21515180.881    21515183.436
        46.750          40.250
 125201835.208 6  97559903.43346  23825109.961    23825109.568    23825112.945
        40.250          39.000
 107911960.934 8  84087230.60247  20534964.513    20534963.311    20534961.748
        48.250          42.000
 106421705.287 8  82926008.32749  20251377.524    20251377.068    20251378.653
        51.250          56.750
 118039017.637 6                  22066148.118
        36.500
 179866146.600 8                  34227372.884
        48.500
 138954251.031 5                  26442116.162
        32.250
 203890040.583 7                  38798989.112
        43.500
 134996775.269 7                  25689030.989
        44.750
 107632863.115 8                  20113775.899
        51.750
  30689814.557 7                   5840233.650
        43.250
 117991047.974 7                  22452950.449
        45.000
 133239649.250 6 103823096.46543  25354662.960    25354662.008    25354662.040
        37.250          23.250
 121279821.935 7                  23078783.231
        43.750
 142142472.151 6                  27048828.453
        38.750
 131381282.371 5 102375044.27243  25001028.335    25001027.128    25001028.490
        35.500          19.500
 195091269.081 7                  37124636.791
        46.750
 119830356.038 7                  22456160.244
        44.500
 102817419.381 8                  19261167.933
        52.250
 134116917.390 5 104506719.75044  25521604.169    25521603.418    25521613.199
        33.500          27.000
 105240033.202 8                  19659723.050
        52.250
 21 10 20 10 42 30.0000000  0 26G01G17G03G04R04G06G07G19G09R19S25E11
                                S23E04R17S48E12G02E19E26G20S36R02R18
                                G30R03
 126522707.680 6  98589121.65545  24076482.711    24076482.627    24076489.647
        37.250          35.250
 110226446.651 8  85890731.68046  20975397.046    20975396.729    20975396.789
        49.000          41.750
 124824202.001 6  97265618.27546  23753257.742    23753257.653    23753261.261
        39.000          39.000
 113224004.897 7  88226497.93646  21545813.184    21545813.015    21545812.950
        46.500          36.500
 111085486.631 8                  20744430.017
        50.750
 112997156.902 7  88049741.87046  21502643.676    21502643.654    21502646.102
        47.250          40.250
 125128418.312 6  97502695.60246  23811138.858    23811138.456    23811141.785
        40.500          38.750
 107932407.563 8  84103163.00947  20538855.371    20538854.169    20538852.650
        48.750          42.000
 106417723.401 8  82922905.54049  20250619.779    20250619.323    20250620.901
        51.750          56.750
 117923769.952 5                  22044602.966
        35.750
 179867200.304 8                  34227572.860
        48.500
 138876355.331 5                  26427292.973
        32.500
 203890110.809 7                  38798999.258
        43.500
 134930145.293 7                  25676351.663
        44.500
 107710132.814 8                  20128215.619
        51.500
  30689248.646 7                   5840176.373
        43.250
 117945352.426 7                  22444254.729
        44.500
 133155106.906 6 103757219.33443  25338574.621    25338573.660    25338573.696
        38.000          22.750
 121289904.260 7                  23080701.750
        43.500
 142212404.624 6                  27062136.566
        37.750
 131315266.472 5 102323603.31842  24988463.574    24988462.331    24988466.066
        33.500          16.750
 195091242.661 7                  37124631.313
        46.500
 119935116.085 7                  22475791.774
        43.750
 102780287.068 8                  19254211.710
        52.000
 134039317.960 6 104446252.38544  25506837.322    25506836.585    25506846.922
        36.500          28.750
 105282548.380 8                  19667665.656
        52.250
 21 10 20 10 43  0.0000000  0 26G01G17G03G04R04G06G07G19G09R19S25E11
                                S23E04R17S48E12G02E19E26G20S36R02R18
                                G30R03
 126604286.505 6  98652689.10045  24092005.867    24092005.778    24092013.171
        37.250          35.250
 110282369.409 8  85934307.80347  20986039.005    20986038.688    20986038.531
        48.000          42.000
 124894003.509 6  97320008.98446  23766540.710    23766540.630    23766543.756
        38.250          38.500
 113288593.661 7  88276826.80546  21558103.773    21558103.613    21558104.139
        45.750          37.250
 111031339.704 8                  20734318.100
        50.250
 112931441.997 7  87998535.44346  21490138.601    21490138.575    21490141.044
        47.000          40.750
 125055006.607 6  97445491.80346  23797169.149    23797168.765    23797172.119
        40.750          39.750
 107953489.253 8  84119590.27147  20542867.226    20542866.024    20542864.482
        48.000          42.250
 106414301.763 8  82920239.31049  20249968.593    20249968.137    20249969.784
        51.250          57.000
 117808716.141 5                  22023094.583
        35.750
 179868264.531 8                  34227775.563
        48.750
 138798403.479 5                  26412459.118
        33.500
 203890183.930 7                  38799014.842
        44.000
 134863754.363 7                  25663718.071
        45.000
 107788008.753 8                  20142768.405
        51.250
  30688685.869 7                   5840116.239
        43.750
 117899846.856 7                  22435595.454
        45.250
 133070482.406 6 103691278.17043  25322471.392    25322470.422    25322468.928
        37.500          22.500
 121300328.001 7                  23082685.371
        44.000
 142282512.115 6                  27075478.476
        38.000
 131249281.385 5 102272186.44043  24975907.889    24975906.620    24975909.414
        35.250          18.750
 195091224.704 7                  37124626.672
        47.000
 120039861.980 7                  22495420.771
        43.750
 102743827.473 8                  19247381.470
        51.750
 133961490.441 5 104385607.26744  25492027.927    25492027.208    25492036.801
        32.250          27.750
 105325481.287 8                  19675685.580
        52.250
 21 10 20 10 43 30.0000000  0 26G01G17G03G04R04G06G07G19G09R19S25E11
                                S23E04R17S48E12G02E19E26G20S36R02R18
                                G30R03
 126686055.085 6  98716404.40245  24107566.617    24107566.537    24107573.792
        37.750          35.250
 110338758.115 8  85978247.00246  20996769.395    20996769.078    20996768.967
        48.250          41.500
 124963777.038 6  97374377.90646  23779818.435    23779818.342    23779820.804
        37.500          37.500
 113353587.069 7  88327470.97246  21570471.836    21570471.680    21570472.227
        45.500          36.750
 110977681.531 8                  20724298.197
        50.500
 112865893.320 7  87947458.54346  21477664.898    21477664.876    21477667.328
        47.000          40.500
 124981596.444 6  97388289.20046  23783199.482    23783199.102    23783202.860
        41.000          39.500
 107975198.797 8  84136506.77047  20546998.441    20546997.243    20546995.698
        48.250          42.000
 106411433.790 8  82918004.50749  20249423.004    20249422.548    20249424.152
        51.500          56.750
 117693854.316 6                  22001622.917
        37.000
 179869338.807 8                  34227980.582
        48.750
 138720390.582 5                  26397614.012
        33.500
 203890255.841 7                  38799028.749
        43.750
 134797597.206 7                  25651128.550
        45.000
 107866482.550 8                  20157433.185
        51.250
  30689729.668 7                   5840058.913
        43.750
 117854526.769 7                  22426971.209
        45.250
 132985770.951 6 103625269.26143  25306351.303    25306350.320    25306348.733
        37.500          21.000
 121311086.171 7                  23084732.685
        44.000
 142352788.045 6                  27088852.010
        38.250
 131183320.599 5 102220788.42343  24963356.778    24963355.504    24963357.270
        35.000          19.500
 195091200.182 7                  37124621.180
        47.000
 120144585.302 7                  22515046.883
        44.000
 102708037.765 8                  19240677.041
        51.750
 133883430.677 5 104324781.19844  25477173.101    25477172.386    25477182.764
        33.500          27.500
 105368822.786 8                  19683782.169
        52.250
 21 10 20 10 44  0.0000000  0 26G01G17G03G04R04G06G07G19G09R19S25E11
                                S23E04R17S48E12G02E19E26G20S36R02R18
                                G30R03
 126768011.629 6  98780266.15645  24123163.106    24123163.026    24123170.655
        37.250          35.500
 110395609.619 8  86022546.82146  21007587.891    21007587.578    21007587.401
        48.250          41.500
 125033521.109 6  97428723.85346  23793090.149    23793090.069    23793093.134
        38.000          37.000
 113418981.539 7  88378427.65746  21582916.011    21582915.859    21582916.395
        45.500          36.750
 110924510.495 8                  20714368.578
        50.500
 112800511.765 7  87896511.86746  21465223.212    21465223.190    21465225.297
        47.000          40.500
 124908189.518 6  97331089.11246  23769230.675    23769230.295    23769233.873
        41.500          39.750
 107997534.292 8  84153911.01947  20551248.832    20551247.634    20551246.029
        48.250          42.250
 106409117.788 8  82916199.81549  20248982.385    20248981.934    20248983.487
        51.500          57.000
 117579187.139 6                  21980187.490
        38.000
 179870411.502 8                  34228185.566
        48.500
 138642316.513 5                  26382756.574
        31.750
 203890328.819 7                  38799042.253
        43.500
 134731673.462 7                  25638583.790
        45.000
 107945551.274 8                  20172209.115
        51.250
  30689171.648 7                   5839999.458
        43.500
 117809392.620 7                  22418382.468
        44.750
 132900972.520 6 103559192.56143  25290215.198    25290214.201    25290212.387
        37.000          21.750
 121322176.604 7                  23086843.094
        43.500
 142423230.557 6                  27102257.252
        38.000
 131117382.671 6 102169408.26143  24950808.702    24950807.455    24950809.937
        36.000          18.250
 195091170.520 7                  37124616.052
        46.500
 120249282.205 7                  22534667.149
        44.500
 102672919.216 8                  19234097.977
        52.000
 133805139.138 5 104263774.52645  25462274.243    25462273.510    25462285.115
        35.750          30.500
 105412568.683 8                  19691954.544
        52.250
 21 10 20 10 44 30.0000000  0 26G01G17G03G04R04G06G07G19G09R19S25E11
                                S23E04R17S48E12G02E19E26G20S36R02R18
                                G30R03
 126850158.140 6  98844275.93746  24138794.776    24138794.696    24138803.456
        38.250          36.000
 110452924.046 8  86067207.36446  21018494.670    21018494.362    21018493.988
        48.250          41.500
 125103238.178 6  97483048.76646  23806357.065    23806356.981    23806360.013
        37.500          37.500
 113484777.213 7  88429696.96746  21595436.347    21595436.187    21595437.090
        46.000          37.000
 110871829.111 8                  20704530.950
        50.500
 112735301.977 7  87845699.04146  21452814.279    21452814.262    21452816.348
        47.250          40.750
 124834790.609 6  97273895.26646  23755263.011    23755262.627    23755266.384
        41.000          39.750
 108020496.836 8  84171803.87947  20555618.440    20555617.251    20555615.833
        48.250          42.250
 106407355.746 8  82914826.77749  20248646.971    20248646.520    20248648.201
        51.500          57.000
 117464720.963 6                  21958789.509
        37.500
 179871490.917 8                  34228392.074
        48.500
 138564184.830 5                  26367888.725
        31.000
 203890404.563 7                  38799055.534
        43.500
 134665986.439 7                  25626083.702
        44.750
 108025215.096 8                  20187096.527
        51.500
  30688614.007 7                   5839941.841
        43.500
 117764448.528 7                  22409829.890
        44.750
 132816090.731 6 103493050.91443  25274063.142    25274062.154    25274060.886
        36.500          22.000
 121333600.894 7                  23089017.120
        43.250
 142493841.602 6                  27115694.744
        37.500
 131051469.429 6 102118047.33643  24938265.459    24938264.185    24938266.343
        37.000          18.750
 195091141.337 7                  37124611.567
        46.750
 120353952.893 7                  22554282.318
        44.500
 102638477.135 8                  19227645.828
        51.750
 133726620.410 5 104202590.82944  25447334.334    25447333.574    25447343.085
        33.250          28.500
 105456718.472 8                  19700202.262
        52.500
 21 10 20 10 45  0.0000000  0 26G01G17G03G04R04G06G07G19G09R19S25E11
                                S23E04R17S48E12G02E19E26G20S36R02R18
                                G30R03
 126932492.108 6  98908431.76146  24154463.622    24154463.542    24154471.414
        39.000          36.500
 110510697.624 8  86112225.68346  21029488.464    21029488.151    21029488.040
        48.250          41.500
 125172926.160 6  97537351.01046  23819618.115    23819618.044    23819621.128
        38.250          37.000
 113550969.820 7  88481275.57746  21608032.421    21608032.256    21608033.097
        46.000          36.750
 110819635.333 8                  20694783.963
        50.250
 112670264.171 7  87795020.22346  21440437.909    21440437.896    21440440.422
        47.250          41.250
 124761400.802 6  97216708.51146  23741297.720    23741297.340    23741300.438
        41.000          40.000
 108044084.037 8  84190183.48847  20560106.833    20560105.640    20560104.452
        48.250          42.250
 106406145.204 8  82913883.48149  20248416.574    20248416.123    20248417.742
        51.500          56.750
 117350457.932 6                  21937428.155
        37.500
 179872583.596 8                  34228601.185
        48.250
 138485994.593 5                  26353009.368
        31.750
 203890479.451 7                  38799068.917
        43.500
 134600535.055 7                  25613628.922
        44.750
 108105470.456 8                  20202094.200
        51.250
  30688057.870 7                   5839884.627
        43.250
 117719694.231 7                  22401313.433
        45.000
 132731124.668 6 103426843.58443  25257894.265    25257893.282    25257892.720
        37.500          23.000
 121345356.192 7                  23091254.098
        44.000
 142564618.715 6                  27129163.778
        37.750
 130985578.978 5 102066704.14943  24925726.531    24925725.293    24925727.368
        35.500          18.000
 195091111.311 7                  37124605.163
        46.750
 120458592.864 7                  22573891.575
        44.000
 102604712.602 8                  19221320.822
        51.750
 133647874.445 6 104141230.05045  25432348.896    25432348.101    25432358.915
        36.500          31.250
 105501267.238 8                  19708524.069
        52.250
 21 10 20 10 45 30.0000000  0 26G01G17G03G04R04G06G07G19G09R19S25E11
                                S23E04R17S48E12G02E19E26G20S36R02R18
                                G30R03
 127015014.372 6  98972734.30446  24170167.264    24170167.188    24170175.564
        39.000          36.000
 110568929.570 7  86157601.16746  21040569.621    21040569.313    21040569.289
        47.750          41.000
 125242586.402 6  97591631.64546  23832874.073    23832874.015    23832877.110
        37.250          36.500
 113617558.409 7  88533162.74546  21620703.973    21620703.804    21620704.204
        46.000          36.750
 110767930.676 8                  20685128.366
        50.000
 112605401.904 7  87744478.19846  21428095.235    21428095.218    21428097.840
        47.000          41.000
 124688024.234 6  97159532.07946  23727334.459    23727334.093    23727337.265
        41.000          40.250
 108068296.168 8  84209050.05347  20564714.515    20564713.317    20564711.869
        48.000          42.000
 106405487.054 8  82913370.62449  20248291.412    20248290.956    20248292.394
        51.000          56.500
 117236403.646 6                  21916108.079
        36.750
 179873684.689 8                  34228811.387
        48.250
 138407748.528 5                  26338119.436
        32.750
 203890555.083 7                  38799084.094
        43.250
 134535321.520 7                  25601219.231
        45.000
 108186316.626 8                  20217202.049
        51.250
  30687503.355 7                   5839824.085
        43.000
 117675132.809 7                  22392833.752
        44.750
 132646077.059 6 103360572.70743  25241709.704    25241708.716    25241708.818
        37.500          23.000
 121357442.990 7                  23093554.115
        43.750
 142635562.712 6                  27142664.764
        38.500
 130919712.200 5 102015379.40743  24913192.676    24913191.447    24913193.396
        34.750          18.500
 195091082.578 7                  37124601.465
        46.500
 120563202.260 7                  22593495.284
        44.250
 102571629.683 8                  19215123.058
        51.750
 133568904.710 5 104079694.92945  25417322.012    25417321.239    25417332.220
        35.000          31.500
 105546213.234 8                  19716920.250
        52.250
 21 10 20 10 46  0.0000000  0 27G01G17G03G04R04G06G07G19G09R19S25E11
                                S23E04R17S48E12G02E19E26G20S36R02R18
                                G30R03R05
 127097725.627 6  99037184.08945  24185906.757    24185906.681    24185915.224
        40.000          35.750
 110627619.061 8  86203333.18546  21051737.977    21051737.669    21051737.528
        48.000          40.750
 125312220.034 6  97645891.55146  23846125.243    23846125.172    23846128.437
        37.750          36.250
 113684541.853 7  88585357.59946  21633450.403    21633450.229    21633450.640
        46.000          36.500
 110716716.368 8                  20675564.770
        50.250
 112540718.595 7  87694075.61146  21415786.425    21415786.412    21415788.518
        47.250          40.250
 124614664.729 7  97102368.93146  23713374.009    23713373.652    23713376.998
        42.000          40.000
 108093133.404 8  84228403.71146  20569440.844    20569439.646    20569438.124
        48.000          41.750
 106405381.962 8  82913288.72049  20248271.297    20248270.846    20248272.513
        51.500          56.500
 117122563.405 6                  21894824.342
        36.250
 179874789.506 8                  34229024.863
        48.250
 138329448.906 5                  26323220.049
        33.250
 203890632.125 7                  38799097.335
        43.250
 134470347.936 7                  25588855.165
        45.000
 108267752.717 8                  20232420.372
        51.250
  30686946.965 7                   5839767.041
        43.250
 117630767.160 7                  22384391.226
        44.750
 132560950.596 6 103294240.39443  25225510.763    25225509.766    25225509.864
        37.750          22.750
 121369861.571 7                  23095917.434
        43.750
 142706674.297 6                  27156197.482
        37.750
 130853870.253 6 101964074.03743  24900662.859    24900661.590    24900664.827
        36.000          19.500
 195091062.018 7                  37124596.180
        46.250
 120667778.944 7                  22613093.533
        44.500
 102539232.619 8                  19209054.237
        51.750
 133489714.215 5 104017987.76444  25402253.220    25402252.420    25402262.588
        34.500          28.750
 105591555.212 8                  19725390.850
        52.250
 132135587.08016                  24718694.844
        38.250
 21 10 20 10 46 30.0000000  0 26G01G17G03G04R04G06G07G19G09R19S25E11
                                S23E04R17S48E12G02E19E26G20S36R02R18
                                G30R03
 127180621.113 6  99101777.42145  24201682.332    24201682.265    24201689.964
        40.000          35.750
 110686760.119 8  86249417.07246  21062992.116    21062991.808    21062991.878
        48.000          41.500
 125381822.761 6  97700127.36946  23859369.904    23859369.842    23859373.491
        37.250          36.500
 113751913.643 7  88637855.05746  21646271.035    21646270.866    21646271.292
        45.750          36.750
 110665987.826 8                  20666091.676
        50.500
 112476212.227 7  87643810.89846  21403511.152    21403511.139    21403512.922
        47.250          40.750
 124541320.947 6  97045218.03446  23699417.271    23699416.918    23699420.308
        41.500          40.750
 108118590.615 8  84248240.46647  20574284.973    20574283.775    20574282.501
        48.500          42.250
 106405825.169 8  82913634.06249  20248355.744    20248355.293    20248356.857
        51.500          57.000
 117008936.957 6                  21873584.416
        37.750
 179875906.892 8                  34229238.387
        48.250
 138251092.664 5                  26308309.813
        32.500
 203890706.258 7                  38799113.982
        43.250
 134405610.920 7                  25576536.135
        45.000
 108349772.444 8                  20247748.161
        51.500
  30686389.955 7                   5839709.826
        43.000
 117586594.767 7                  22375985.618
        45.000
 132475742.228 6 103227844.24944  25209296.334    25209295.342    25209295.018
        38.000          24.000
 121382606.840 7                  23098342.638
        43.500
 142777948.743 6                  27169760.509
        37.750
 130788048.505 6 101912784.42843  24888138.511    24888137.331    24888139.096
        36.500          19.250
 195091039.065 7                  37124591.574
        46.500
 120772317.173 7                  22632683.372
        44.250
 102507519.777 8                  19203113.314
        51.750
 133410300.899 6 103956106.95645  25387141.228    25387140.428    25387151.482
        36.500          31.750
 105637285.514 8                  19733933.610
        52.250
 21 10 20 10 47  0.0000000  0 26G01G17G03G04R04G06G07G19G09R19S25E11
                                S23E04R17S48E12G02E19E26G20S36R02R18
                                G30R03
 127263701.103 6  99166514.50545  24217492.088    24217492.008    24217500.078
        40.500          35.000
 110746351.320 8  86295851.71446  21074332.093    21074331.785    21074331.935
        48.000          41.250
 125451395.366 6  97754339.69646  23872609.143    23872609.090    23872612.677
        37.250          36.000
 113819672.179 7  88690653.88046  21659164.984    21659164.815    21659165.332
        46.000          36.500
 110615745.961 8                  20656709.168
        50.750
 112411885.836 7  87593686.43646  21391270.456    21391270.443    21391272.575
        47.500          41.000
 124467996.453 7  96988082.16646  23685464.318    23685463.961    23685467.379
        42.000          40.500
 108144667.305 8  84268559.93247  20579247.428    20579246.230    20579244.826
        48.250          42.250
 106406816.912 8  82914406.83849  20248544.532    20248544.081    20248545.573
        51.750          56.500
 116895528.978 6                  21852384.388
        37.500
 179877025.428 8                  34229453.137
        48.500
 138172681.890 5                  26293388.231
        32.500
 203890779.894 7                  38799127.013
        43.500
 134341112.104 7                  25564262.354
        45.000
 108432374.731 8                  20263184.204
        51.500
  30687432.931 7                   5839652.102
        43.250
 117542618.122 7                  22367616.974
        45.000
 132390453.869 6 103161385.80443  25193066.217    25193065.238    25193065.126
        37.500          23.000
 121395678.675 7                  23100830.081
        44.000
 142849386.195 6                  27183356.131
        37.750
 130722247.360 6 101861510.84543  24875615.983    24875614.821    24875617.373
        36.250          18.500
 195091013.919 7                  37124586.928
        46.500
 120876814.806 7                  22652266.950
        45.000
 102476494.708 8                  19197301.192
        51.750
 133330667.578 5 103894054.72844  25371987.509    25371986.714    25371998.306
        34.000          29.250
 105683402.265 8                  19742548.437
        51.750
 21 10 20 10 47 30.0000000  0 26G01G17G03G04R04G06G07G19G09R19S25E11
                                S23E04R17S48E12G02E19E26G20S36R02R18
                                G30R03
 127346963.664 6  99231393.83545  24233336.422    24233336.338    24233344.687
        40.750          35.000
 110806388.972 8  86342634.23746  21085757.069    21085756.765    21085756.658
        48.000          41.000
 125520936.407 6  97808527.44545  23885842.267    23885842.227    23885845.756
        37.500          35.500
 113887813.786 7  88743751.20046  21672131.820    21672131.655    21672132.384
        46.000          36.250
 110565989.214 8                  20647417.372
        51.000
 112347740.265 7  87543702.86946  21379063.983    21379063.975    21379065.917
        47.500          40.750
 124394692.585 6  96930962.36446  23671514.697    23671514.344    23671518.067
        41.500          40.250
 108171360.896 8  84289360.09847  20584327.001    20584325.803    20584324.424
        48.500          42.000
 106408355.196 8  82915605.48849  20248837.275    20248836.819    20248838.335
        51.500          56.500
 116782342.392 6                  21831224.951
        37.500
 179878155.292 8                  34229668.910
        48.750
 138094216.337 5                  26278457.153
        31.750
 203890852.932 7                  38799140.325
        43.750
 134276850.950 7                  25552033.798
        45.250
 108515555.872 8                  20278728.686
        51.500
  30686873.769 7                   5839593.394
        43.750
 117498837.560 7                  22359285.795
        45.000
 132305085.424 6 103094864.95143  25176821.280    25176820.333    25176820.204
        37.250          23.250
 121409074.770 7                  23103379.388
        44.000
 142920984.819 6                  27196981.118
        37.500
 130656465.417 5 101810252.22443  24863099.670    24863098.539    24863099.208
        35.500          18.750
 195090987.122 7                  37124582.224
        47.000
 120981268.878 7                  22671841.544
        45.500
 102446159.099 8                  19191618.398
        52.000
 133250814.971 6 103831831.62445  25356791.780    25356790.971    25356802.843
        36.250          31.250
 105729901.158 8                  19751235.016
        52.250
 21 10 20 10 48  0.0000000  0 26G01G17G03G04R04G06G07G19G09R19S25E11
                                S23E04R17S48E12G02E19E26G20S36R02R18
                                G30R03
 127430414.870 6  99296420.13546  24249217.603    24249217.519    24249226.129
        40.500          36.000
 110866877.674 8  86389768.23246  21097267.456    21097267.157    21097267.151
        48.000          41.000
 125590452.465 6  97862695.73846  23899071.078    23899071.034    23899074.282
        38.000          36.000
 113956342.723 7  88797150.33746  21685172.765    21685172.596    21685173.129
        45.750          36.250
 110516724.063 8                  20638217.308
        50.750
 112283784.327 7  87493867.07146  21366893.413    21366893.409    21366895.449
        47.250          40.750
 124321418.773 6  96873865.97646  23657571.169    23657570.807    23657574.184
        41.750          40.250
 108198676.992 8  84310645.33147  20589525.027    20589523.843    20589522.421
        48.500          42.250
 106410446.082 8  82917234.73749  20249235.163    20249234.712    20249236.224
        51.500          56.750
 116669388.310 6                  21810109.442
        37.500
 179879293.465 8                  34229888.114
        48.500
 138015703.817 5                  26263516.563
        31.000
 203890930.764 7                  38799154.455
        43.750
 134212834.928 7                  25539851.922
        45.500
 108599320.667 8                  20294382.192
        51.500
  30686321.069 7                   5839535.491
        43.500
 117455261.385 7                  22350993.665
        45.250
 132219644.871 6 103028287.91343  25160563.016    25160562.042    25160561.036
        37.250          22.750
 121422800.836 7                  23105991.225
        44.250
 142992750.636 6                  27210638.183
        37.750
 130590708.943 6 101759013.46043  24850585.583    24850584.470    24850586.052
        36.250          19.250
 195090958.546 7                  37124577.028
        46.750
 121085684.002 7                  22691409.215
        46.000
 102416521.901 8                  19186066.388
        52.000
 133170751.566 5 103769444.26645  25341556.472    25341555.654    25341567.515
        35.500          32.000
 105776785.907 8                  19759993.362
        52.000
 21 10 20 10 48 30.0000000  0 26G01G17G03G04R04G06G07G19G09R19S25E11
                                S23E04R17S48E12G02E19E26G20S36R02R18
                                G30R03
 127514050.017 6  99361589.76546  24265133.254    24265133.174    24265142.436
        40.000          36.500
 110927811.202 8  86437248.84346  21108862.890    21108862.595    21108862.431
        48.000          41.000
 125659939.463 6  97916841.37846  23912294.015    23912293.966    23912297.527
        37.500          36.000
 114025252.508 7  88850846.23646  21698285.695    21698285.517    21698286.181
        45.250          36.250
 110467946.180 8                  20629108.511
        50.500
 112220016.161 7  87444177.58446  21354758.666    21354758.662    21354760.659
        47.250          40.750
 124248173.714 6  96816792.00246  23643633.183    23643632.808    23643635.757
        41.250          40.250
 108226610.334 8  84332411.53947  20594840.638    20594839.449    20594838.023
        48.250          42.250
 106413084.756 8  82919290.83949  20249737.267    20249736.816    20249738.352
        51.250          56.750
 116556666.378 6                  21789038.524
        37.500
 179880436.132 8                  34230108.770
        48.500
 137937141.470 5                  26248566.323
        32.000
 203891008.585 7                  38799171.134
        43.500
 134149060.717 7                  25527716.129
        45.750
 108683662.615 8                  20310143.890
        51.250
  30685770.238 7                   5839476.909
        43.500
 117411887.172 7                  22342739.747
        45.500
 132134129.394 6 102961652.48343  25144289.574    25144288.573    25144287.688
        37.250          22.750
 121436851.799 7                  23108665.235
        44.000
 143064679.002 6                  27224326.672
        36.750
 130524973.363 6 101707790.99143  24838076.727    24838075.596    24838077.202
        36.750          20.000
 195090934.058 7                  37124572.109
        46.750
 121190053.340 7                  22710967.263
        44.750
 102387581.567 8                  19180644.759
        52.000
 133090475.390 5 103706891.11745  25326281.307    25326280.485    25326291.992
        34.250          31.500
 105824049.368 8                  19768822.629
        52.000
 21 10 20 10 49  0.0000000  0 27G01G17G03G04R04G06G07G19G09R19S25E11
                                S23E04R17S48E12G02E19E26G20S36R02R18
                                G30R03R05
 127597865.705 6  99426900.04746  24281083.147    24281083.063    24281092.342
        41.000          36.500
 110989184.836 8  86485072.39146  21120541.911    21120541.607    21120541.522
        48.250          41.000
 125729394.509 6  97970962.13146  23925511.428    23925511.379    23925514.423
        38.750          36.750
 114094537.971 7  88904834.87446  21711470.263    21711470.080    21711470.827
        45.750          36.000
 110419652.616 8                  20620090.220
        50.750
 112156435.202 7  87394633.96846  21342659.643    21342659.643    21342661.776
        47.750          41.250
 124174957.402 6  96759740.40646  23629700.082    23629699.716    23629703.352
        41.500          40.250
 108255157.310 8  84354655.90047  20600273.002    20600271.818    20600270.548
        48.500          42.250
 106416267.788 8  82921771.11449  20250342.996    20250342.545    20250344.042
        51.750          56.750
 116444178.209 6                  21768008.732
        37.250
 179881582.771 8                  34230328.886
        48.250
 137858527.577 5                  26233607.008
        31.000
 203891085.642 7                  38799183.847
        43.250
 134085526.284 7                  25515625.975
        44.750
 108768576.939 8                  20326011.962
        51.250
  30685216.437 7                   5839420.490
        43.250
 117368713.827 7                  22334524.270
        44.500
 132048537.623 6 102894957.61843  25128002.026    25128001.007    25127999.878
        37.750          23.500
 121451223.910 7                  23111400.057
        43.250
 143136766.468 5                  27238045.294
        35.500
 130459255.671 6 101656582.47743  24825571.463    24825570.381    24825571.232
        36.250          20.250
 195090908.766 7                  37124566.390
        46.500
 121294372.353 7                  22730516.299
        44.250
 102359338.212 8                  19175354.122
        52.000
 133009985.711 6 103644171.60645  25310964.733    25310963.924    25310975.468
        36.500          32.250
 105871685.605 8                  19777721.456
        51.750
 131544684.88216                  24608157.048
        40.250
 21 10 20 10 49 30.0000000  0 27G01G17G03G04R04G06G07G19G09R19S25E11
                                S23E04R17S48E12G02E19E26G20S36R02R18
                                G30R03R05
 127681866.340 6  99492354.42046  24297068.567    24297068.483    24297077.780
        39.500          36.000
 111051001.186 8  86533240.91346  21132305.179    21132304.880    21132304.859
        48.000          40.750
 125798822.573 6  98025061.85046  23938722.749    23938722.691    23938726.274
        37.750          36.750
 114164201.662 7  88959118.24446  21724726.755    21724726.577    21724727.252
        45.250          36.000
 110371848.002 8                  20611163.182
        51.000
 112093048.613 7  87345241.81746  21330597.534    21330597.534    21330600.223
        47.250          41.000
 124101777.091 6  96702716.88946  23615774.419    23615774.035    23615777.557
        41.000          39.750
 108284321.545 8  84377381.24447  20605822.792    20605821.603    20605820.583
        48.250          42.250
 106419999.425 8  82924678.87849  20251053.135    20251052.684    20251054.154
        51.250          56.500
 116331932.432 6                  21747026.576
        37.750
 179882737.572 8                  34230553.639
        48.250
 137779868.288 5                  26218638.133
        32.250
 203891164.797 7                  38799199.104
        43.000
 134022237.417 7                  25503582.397
        45.500
 108854066.129 8                  20341987.757
        51.500
  30684668.317 7                   5839362.761
        43.250
 117325747.985 7                  22326348.185
        45.000
 131962875.472 6 102828207.90343  25111700.986    25111699.962    25111698.775
        37.000          22.500
 121465921.156 7                  23114196.793
        43.750
 143209017.509 6                  27251795.072
        36.750
 130393560.619 6 101605391.59643  24813069.569    24813068.523    24813069.779
        36.500          19.000
 195090887.385 7                  37124562.110
        46.500
 121398643.852 7                  22750057.564
        44.500
 102331799.344 8                  19170194.936
        52.000
 132929289.591 5 103581291.26245  25295608.986    25295608.195    25295619.366
        35.750          31.000
 105919696.755 8                  19786690.274
        51.750
 131446977.999 6                  24589878.412
        40.500
 21 10 20 10 50  0.0000000  0 27G01G17G03G04R04G06G07G19G09R19S25E11
                                S23E04R17S48E12G02E19E26G20S36R02R18
                                G30R03R05
 127766051.069 6  99557952.21746  24313088.798    24313088.714    24313097.578
        40.500          36.000
 111113258.066 8  86581752.70646  21144152.444    21144152.145    21144151.998
        48.250          41.250
 125868223.499 6  98079140.41846  23951928.859    23951928.797    23951933.390
        37.000          37.000
 114234241.061 7  89013694.36446  21738054.981    21738054.812    21738055.513
        45.750          36.500
 110324532.109 8                  20602327.106
        51.000
 112029858.495 7  87296002.75746  21318572.935    21318572.927    21318575.525
        47.750          41.500
 124028635.912 6  96645723.85646  23601856.301    23601855.917    23601859.592
        41.500          40.250
 108314101.500 8  84400586.36647  20611489.683    20611488.494    20611487.600
        48.500          42.750
 106424278.780 8  82928013.43549  20251867.422    20251866.971    20251868.687
        51.750          57.000
 116219933.519 6                  21726089.303
        38.000
 179883909.046 8                  34230779.407
        48.500
 137701164.817 5                  26203661.177
        32.250
 203891245.904 7                  38799214.352
        43.250
 133959194.720 7                  25491585.807
        45.500
 108940127.957 8                  20358070.310
        51.000
  30685720.643 7                   5839306.339
        43.250
 117282991.171 7                  22318211.832
        45.250
 131877144.310 6 102761404.42143  25095386.910    25095385.904    25095384.480
        37.750          23.750
 121480942.399 7                  23117055.329
        44.000
 143281431.251 5                  27265575.214
        35.250
 130327887.622 6 101554217.91843  24800572.550    24800571.468    24800572.774
        37.500          21.000
 195090865.761 7                  37124559.316
        46.500
 121502865.598 7                  22769588.220
        44.500
 102304967.450 8                  19165168.370
        52.000
 132848388.848 6 103518251.47145  25280214.809    25280214.009    25280225.309
        36.250          32.000
 105968079.999 8                  19795728.996
        52.000
 131349497.581 6                  24571644.163
        37.500
 21 10 20 10 50 30.0000000  0 27G01G17G03G04R04G06G07G19G09R19S25E11
                                S23E04R17S48E12G02E19E26G20S36R02R18
                                G30R03R05
 127850409.696 6  99623685.50446  24329142.018    24329141.929    24329151.387
        40.250          36.250
 111175943.686 8  86630598.58046  21156081.050    21156080.751    21156080.717
        48.250          40.750
 125937587.604 6  98133190.26345  23965128.685    23965128.614    23965132.283
        37.000          35.250
 114304644.139 7  89068553.87046  21751452.216    21751452.042    21751452.883
        45.750          36.250
 110277694.752 8                  20593580.493
        51.250
 111966857.439 7  87246911.01346  21306584.135    21306584.131    21306586.505
        47.750          41.250
 123955526.795 6  96588755.80146  23587943.933    23587943.549    23587947.104
        41.250          40.250
 108344486.216 8  84424262.73147  20617271.840    20617270.656    20617269.448
        48.250          42.250
 106429095.477 8  82931766.70349  20252784.000    20252783.544    20252785.253
        51.500          56.500
 116108175.810 6                  21705195.971
        37.500
 179885078.724 8                  34231005.617
        48.500
 137622408.670 5                  26188674.749
        32.500
 203891319.797 7                  38799227.468
        43.250
 133896389.337 7                  25479634.198
        45.250
 109026750.281 8                  20374258.120
        51.000
  30685168.690 7                   5839248.561
        43.250
 117240435.429 7                  22310113.579
        45.250
 131791335.778 6 102694540.64443  25079057.872    25079056.826    25079055.953
        38.250          23.250
 121496277.029 7                  23119973.314
        44.000
 143353997.530 5                  27279385.226
        35.250
 130262226.781 6 101503053.71943  24788077.684    24788076.611    24788078.099
        37.000          20.000
 195090835.038 7                  37124553.301
        46.500
 121607025.378 7                  22789108.686
        44.750
 102278834.983 8                  19160272.904
        52.000
 132767275.962 6 103455046.38545  25264778.803    25264778.008    25264789.890
        36.500          31.500
 106016822.150 8                  19804834.568
        52.250
 131252234.405 7                  24553448.681
        43.000
 21 10 20 10 51  0.0000000  0 27G01G17G03G04R04G06G07G19G09R19S25E11
                                S23E04R17S48E12G02E19E26G20S36R02R18
                                G30R03R05
 127934954.189 6  99689563.57446  24345231.250    24345231.166    24345241.046
        38.750          36.250
 111239068.204 8  86679786.45346  21168093.377    21168093.078    21168092.994
        48.000          40.250
 126006927.494 6  98187221.26345  23978323.468    23978323.406    23978327.362
        36.750          34.750
 114375421.021 7  89123704.66145  21764920.521    21764920.356    21764921.156
        45.750          35.750
 110231348.514 8                  20584925.606
        51.000
 111904060.261 7  87197978.13846  21294634.372    21294634.372    21294636.461
        47.500          41.000
 123882465.334 6  96531824.88646  23574040.624    23574040.218    23574043.721
        41.250          39.750
 108375487.095 8  84448419.22547  20623171.189    20623170.005    20623168.547
        48.250          42.000
 106434461.354 8  82935947.90449  20253805.203    20253804.752    20253806.250
        51.250          56.250
 115996675.955 6                  21684353.787
        38.250
 179886264.556 8                  34231234.609
        48.250
 137543613.646 5                  26173680.357
        33.250
 203891400.897 7                  38799243.668
        43.250
 133833834.576 7                  25467730.469
        45.500
 109113943.755 8                  20390552.252
        51.250
  30684621.346 7                   5839190.550
        43.000
 117198095.012 7                  22302056.669
        45.500
 131705463.605 6 102627627.29944  25062717.239    25062716.198    25062714.802
        38.000          24.000
 121511936.606 7                  23122953.318
        44.250
 143426728.294 5                  27293226.017
        34.750
 130196590.327 6 101451908.48743  24775587.476    24775586.430    24775586.993
        36.000          19.250
 195090815.341 7                  37124549.688
        46.250
 121711134.423 7                  22808618.424
        44.250
 102253417.393 8                  19155511.493
        52.000
 132685965.614 5 103391687.45845  25249306.715    25249305.942    25249316.658
        35.500          31.250
 106065933.208 8                  19814009.060
        52.000
 131155218.11316                  24535296.865
        41.750
 21 10 20 10 51 30.0000000  0 27G01G17G03G04R04G06G07G19G09R19S25E11
                                S23E04R17S48E12G02E19E26G20S36R02R18
                                G30R03R05
 128019677.806 6  99755581.21146  24361354.369    24361354.289    24361363.919
        39.750          37.000
 111302623.011 8  86729309.61546  21180187.445    21180187.146    21180187.194
        48.250          40.750
 126076237.107 6  98241228.66745  23991513.346    23991513.270    23991516.623
        37.000          34.750
 114446563.212 7  89179140.09846  21778458.378    21778458.209    21778459.270
        45.250          36.000
 110185486.714 8                  20576361.438
        50.750
 111841463.141 8  87149201.14846  21282722.464    21282722.472    21282724.568
        48.000          41.250
 123809447.858 6  96474928.25046  23560145.974    23560145.568    23560149.075
        41.500          40.250
 108407096.409 8  84473049.82447  20629186.242    20629185.053    20629183.626
        48.500          42.250
 106440369.538 8  82940551.68449  20254929.283    20254928.836    20254930.492
        51.750          56.500
 115885432.282 6                  21663557.722
        37.250
 179887460.458 8                  34231464.321
        48.500
 137464774.900 5                  26158678.312
        32.250
 203891482.232 7                  38799259.355
        43.500
 133771525.155 7                  25455873.552
        45.500
 109201699.919 8                  20406951.753
        51.250
  30684073.239 7                   5839134.074
        43.000
 117155965.508 7                  22294039.507
        45.500
 131619523.323 6 102560660.88043  25046363.204    25046362.180    25046360.602
        38.750          23.250
 121527914.068 7                  23125993.778
        44.000
 143499616.880 5                  27307096.826
        34.000
 130130972.016 6 101400777.43343  24763100.553    24763099.534    24763100.380
        37.000          20.000
 195090788.043 7                  37124545.539
        46.750
 121815183.957 7                  22828117.462
        43.750
 102228711.149 8                  19150883.333
        52.250
 132604453.863 6 103328171.58945  25233796.240    25233795.445    25233806.388
        37.000          32.500
 106115404.202 8                  19823250.088
        51.500
 131058414.060 5                  24517187.767
        35.250
 21 10 20 10 52  0.0000000  0 27G01G17G03G04R04G06G07G19G09R19S25E11
                                S23E04R17S48E12G02E19E26G20S36R02R18
                                G30R03R05
 128104578.626 6  99821736.88946  24377511.329    24377511.240    24377520.772
        38.750          37.250
 111366605.136 8  86779165.75046  21192362.882    21192362.578    21192362.640
        48.000          40.750
 126145515.152 6  98295211.47945  24004696.317    24004696.255    24004699.909
        37.000          35.500
 114518067.141 7  89234857.40746  21792065.304    21792065.126    21792066.194
        45.250          36.000
 110140107.997 8                  20567887.568
        51.000
 111779067.058 7  87100580.81446  21270848.914    21270848.922    21270851.149
        47.750          41.500
 123736476.133 6  96418067.25946  23546259.837    23546259.444    23546262.925
        41.250          40.250
 108439311.935 8  84498152.79047  20635316.526    20635315.342    20635314.091
        48.250          42.250
 106446817.945 8  82945576.41649  20256156.504    20256156.057    20256157.706
        51.500          56.500
 115774447.375 6                  21642809.340
        37.500
 179888663.155 8                  34231694.935
        48.500
 137385892.396 5                  26143667.857
        33.000
 203891563.008 7                  38799276.512
        43.500
 133709460.528 7                  25444062.897
        45.500
 109290014.925 8                  20423455.363
        50.750
  30683527.193 7                   5839075.218
        43.000
 117114047.370 7                  22286062.867
        45.000
 131533514.877 6 102493641.32843  25029996.205    25029995.213    25029993.605
        38.000          23.000
 121544207.146 7                  23129094.125
        43.500
 143572661.350 5                  27320997.574
        34.000
 130065370.170 6 101349659.17443  24750616.652    24750615.660    24750616.594
        37.250          20.500
 195090770.371 7                  37124541.818
        46.500
 121919171.395 7                  22847604.738
        44.250
 102204717.008 8                  19146388.331
        52.000
 132522741.437 6 103264499.34645  25218246.117    25218245.326    25218257.667
        36.250          31.750
 106165230.616 8                  19832558.495
        52.250
 130961826.82917                  24499119.723
        42.750
 21 10 20 10 52 30.0000000  0 27G01G17G03G04R04G06G07G19G09R19S25E11
                                S23E04R17S48E12G02E19E26G20S36R02R18
                                G30R03R05
 128189655.930 6  99888030.05946  24393700.728    24393700.639    24393711.476
        38.750          37.500
 111431012.034 8  86829352.87346  21204619.152    21204618.848    21204618.973
        48.000          40.750
 126214761.588 6  98349169.64945  24017873.737    24017873.675    24017877.227
        36.500          35.750
 114589930.154 7  89290854.53145  21805740.310    21805740.118    21805740.997
        45.250          35.750
 110095211.736 8                  20559503.468
        51.250
 111716874.188 7  87052118.83146  21259014.096    21259014.100    21259016.271
        47.750          41.750
 123663553.127 6  96361244.23446  23532382.781    23532382.375    23532385.879
        41.250          40.000
 108472132.045 8  84523726.86647  20641561.934    20641560.750    20641559.521
        48.250          42.250
 106453805.642 8  82951021.37249  20257486.151    20257485.704    20257487.478
        51.250          56.750
 115663725.790 6                  21622111.101
        37.500
 179889870.876 8                  34231928.694
        48.500
 137306967.226 5                  26128648.366
        33.000
 203891644.388 7                  38799290.656
        43.500
 133647641.313 7                  25432299.059
        45.500
 109378886.431 8                  20440063.342
        50.750
  30682979.080 7                   5839019.506
        43.250
 117072342.137 7                  22278126.646
        45.000
 131447439.445 6 102426569.59143  25013617.109    25013616.130    25013614.271
        38.500          23.500
 121560814.712 7                  23132254.622
        44.000
 143645860.983 5                  27334928.029
        33.500
 129999784.522 6 101298553.54243  24738136.217    24738135.189    24738136.532
        37.500          20.500
 195090748.425 7                  37124536.850
        46.750
 122023093.621 7                  22867079.957
        44.250
 102181437.542 8                  19142027.273
        51.750
 132440830.363 5 103200672.32045  25202659.448    25202658.653    25202669.868
        35.750          32.000
 106215409.367 8                  19841932.000
        52.000
 130865477.709 7                  24481095.243
        42.500
 21 10 20 10 53  0.0000000  0 27G01G17G03G04R04G06G07G19G09R19S25E11
                                S23E04R17S48E12G02E19E26G20S36R02R18
                                G30R03R05
 128274914.183 6  99954464.19446  24409926.265    24409926.181    24409936.767
        38.250          37.500
 111495846.544 7  86879873.19946  21216956.991    21216956.683    21216956.542
        47.750          41.000
 126283981.626 5  98403107.25645  24031046.496    24031046.456    24031049.325
        35.500          34.750
 114662155.064 7  89347133.64846  21819484.617    21819484.416    21819485.003
        44.500          36.000
 110050802.730 8                  20551210.064
        51.250
 111654891.943 7  87003820.97147  21247219.274    21247219.278    21247221.441
        47.750          42.000
 123590686.321 6  96304464.99546  23518516.789    23518516.387    23518519.395
        41.000          40.250
 108505560.625 8  84549775.07447  20647923.223    20647922.039    20647920.838
        48.000          42.500
 106461336.969 8  82956889.93649  20258919.403    20258918.956    20258920.431
        51.000          56.750
 115553276.590 6                  21601465.629
        38.000
 179891093.708 8                  34232163.615
        48.500
 137228005.857 5                  26113622.831
        33.750
 203891727.955 7                  38799305.945
        43.500
 133586073.442 7                  25420583.161
        45.750
 109468317.407 8                  20456775.967
        50.500
  30682435.566 7                   5838962.372
        43.500
 117030856.677 7                  22270232.234
        45.250
 131361303.632 6 102359450.79543  24997225.476    24997224.479    24997223.426
        38.250          23.750
 121577740.910 7                  23135475.498
        44.000
 143719220.390 5                  27348888.902
        34.500
 129934219.527 6 101247464.01743  24725658.853    24725657.785    24725660.446
        36.500          20.750
 195090727.547 7                  37124532.683
        46.750
 122126954.209 7                  22886543.683
        44.250
 102158880.065 8                  19137801.468
        52.000
 132358728.021 6 103136696.25945  25187035.819    25187035.024    25187046.617
        36.000          32.000
 106265943.043 8                  19851372.122
        52.000
 130769363.490 6                  24463116.364
        38.500
 21 10 20 10 53 30.0000000  0 27G01G17G03G04R04G06G07G19G09R19S25E11
                                S23E04R17S48E12G02E19E26G20S36R02R18
                                G30R03R05
 128360345.550 6 100021033.19646  24426182.950    24426182.866    24426194.147
        38.250          37.000
 111561099.274 8  86930719.41446  21229374.212    21229373.913    21229373.800
        48.000          41.000
 126353168.033 6  98457018.64745  24044211.377    24044211.333    24044215.115
        36.250          35.250
 114734732.207 7  89403687.22546  21833295.342    21833295.141    21833296.294
        46.000          36.250
 110006873.448 8                  20543006.565
        51.250
 111593115.387 8  86955683.38846  21235463.686    21235463.694    21235465.487
        48.000          41.750
 123517871.212 6  96247726.04646  23504660.163    23504659.774    23504662.763
        41.250          40.000
 108539588.828 8  84576290.52047  20654398.889    20654397.705    20654396.378
        48.500          42.500
 106469403.843 8  82963175.80549  20260454.401    20260453.954    20260455.464
        51.500          56.750
 115443096.675 6                  21580867.141
        38.000
 179892316.191 8                  34232400.097
        48.500
 137149002.263 5                  26098588.546
        33.500
 203891805.986 7                  38799321.524
        43.250
 133524750.411 7                  25408913.763
        46.000
 109558297.943 8                  20473591.015
        50.750
  30683491.729 7                   5838904.930
        43.250
 116989585.439 7                  22262378.546
        45.250
 131275101.765 6 102292280.52244  24980821.489    24980820.501    24980820.187
        38.250          24.000
 121594977.502 7                  23138755.608
        44.000
 143792731.685 5                  27362878.466
        35.250
 129868668.437 6 101196385.31443  24713185.540    24713184.499    24713185.768
        36.750          21.000
 195090705.371 7                  37124527.513
        46.500
 122230744.014 7                  22905993.435
        44.000
 102137040.130 8                  19133710.187
        52.000
 132276429.310 6 103072567.18245  25171375.690    25171374.903    25171386.347
        36.750          33.000
 106316820.967 8                  19860876.974
        52.250
 130673478.099 5                  24445175.461
        32.250
 21 10 20 10 54  0.0000000  0 27G01G17G03G04R04G06G07G19G09S25R19E11
                                S23E04R17S48E12G02E19E26G20S36R02R18
                                G30R03R05
 128445947.736 6 100087735.25446  24442474.175    24442474.082    24442484.460
        37.500          36.000
 111626766.416 8  86981888.54346  21241869.997    21241869.698    21241869.977
        48.000          40.500
 126422319.394 6  98510902.70646  24057370.433    24057370.407    24057374.595
        36.500          36.000
 114807657.594 7  89460512.16745  21847172.619    21847172.409    21847173.603
        45.750          35.750
 109963421.798 8                  20534892.113
        51.250
 111531545.255 7  86907706.65346  21223747.194    21223747.198    21223749.099
        47.750          41.500
 123445109.291 6  96191028.54046  23490814.124    23490813.735    23490816.460
        41.500          40.000
 108574213.771 8  84603270.95447  20660987.750    20660986.566    20660985.529
        48.000          42.250
 106478003.774 8  82969877.04549  20262091.034    20262090.587    20262091.814
        51.250          56.250
 179893714.14218                  34232636.892
        48.500
 115333189.365 6                  21560321.370
        38.750
 137069956.293 5                  26083546.910
        33.750
 203891881.860 7                  38799336.495
        43.250
 133463671.378 7                  25397290.878
        45.750
 109648824.017 8                  20490508.004
        50.500
  30682941.709 7                   5838847.072
        43.250
 116948528.590 7                  22254565.715
        45.250
 131188833.339 6 102225058.38744  24964405.212    24964404.251    24964404.145
        38.000          24.250
 121612521.902 7                  23142094.158
        43.750
 143866392.735 5                  27376896.238
        35.000
 129803129.154 6 101145315.79043  24700713.731    24700712.694    24700714.127
        38.000          21.750
 195090673.965 7                  37124522.107
        46.500
 122334459.086 7                  22925429.584
        43.250
 102115917.944 8                  19129753.309
        52.000
 132193934.865 5 103008285.65045  25155677.011    25155676.216    25155688.434
        35.500          32.750
 106368038.745 8                  19870444.678
        52.000
 130577821.506 7                  24427284.697
        42.500
 21 10 20 10 54 30.0000000  0 27G01G17G03G04R04G06G07G19G09S25R19E11
                                S23E04R17S48E12G02E19E26G20S36R02R18
                                G30R03R05
 128531728.849 6 100154576.71246  24458797.691    24458797.611    24458809.160
        36.000          36.250
 111692854.304 7  87033385.53146  21254446.065    21254445.761    21254446.201
        47.750          40.750
 126491444.450 6  98564766.27945  24070524.561    24070524.544    24070529.066
        36.250          35.000
 114880937.529 7  89517613.38146  21861117.316    21861117.111    21861118.135
        45.000          36.000
 109920455.995 8                  20526868.608
        51.000
 111470192.549 7  86859899.34046  21212072.187    21212072.191    21212074.041
        47.750          41.750
 123372412.072 6  96134381.45046  23476980.349    23476979.947    23476982.833
        40.750          40.000
 108609442.640 8  84630721.98147  20667691.536    20667690.352    20667689.243
        48.250          42.250
 106487144.662 8  82976999.81049  20263830.502    20263830.051    20263831.302
        51.000          56.500
 179894958.641 8                  34232875.967
        48.500
 115223567.054 6                  21539828.840
        38.250
 136990877.873 5                  26068498.248
        33.750
 203891963.346 7                  38799349.758
        43.250
 133402845.781 7                  25385716.120
        46.250
 109739902.040 8                  20507527.776
        50.500
  30682398.006 7                   5838789.625
        43.000
 116907696.468 7                  22246795.626
        45.750
 131102508.831 6 102157792.54944  24947978.355    24947977.385    24947977.358
        38.000          25.250
 121630381.784 7                  23145492.755
        44.250
 143940211.561 5                  27390944.513
        35.000
 129737609.880 6 101094261.85943  24688245.971    24688244.943    24688246.541
        36.250          21.750
 195090652.500 7                  37124519.013
        46.500
 122438107.318 7                  22944853.047
        44.250
 102095525.073 8                  19125933.034
        52.000
 132111255.509 5 102943860.06145  25139943.967    25139943.145    25139955.039
        35.500          32.000
 106419602.316 8                  19880077.133
        52.000
 130482402.438 7                  24409434.620
        42.000
 21 10 20 10 55  0.0000000  0 27G01G17G03G04R04G06G07G19G09S25R19E11
                                S23E04R17S48E12G02E19E26G20S36R02R18
                                G30R03R05
 128617688.663 6 100221557.36446  24475156.564    24475156.484    24475167.956
        36.750          36.750
 111759361.342 7  87085209.12246  21267102.321    21267102.017    21267102.181
        47.750          40.750
 126560543.663 6  98618609.76845  24083673.508    24083673.486    24083677.501
        36.750          34.000
 114954570.043 7  89574989.32246  21875129.271    21875129.066    21875130.246
        45.750          36.000
 109877976.299 8                  20518935.999
        51.000
 111409060.018 8  86812263.59947  21200439.113    21200439.117    21200441.039
        48.000          42.000
 123299782.863 6  96077787.37246  23463159.355    23463158.962    23463162.153
        41.500          40.500
 108645273.855 8  84658642.36947  20674510.090    20674508.901    20674507.439
        48.000          42.000
 106496825.990 8  82984543.68749  20265672.748    20265672.297    20265673.597
        51.250          56.500
 179896217.897 8                  34233117.949
        48.750
 115114234.582 6                  21519389.851
        37.250
 136911768.667 5                  26053444.444
        33.500
 203892050.328 7                  38799366.906
        43.500
 133342274.775 7                  25374189.872
        46.250
 109831530.237 8                  20524651.130
        50.750
  30681861.371 7                   5838733.711
        43.500
 116867091.260 7                  22239068.827
        45.500
 131016129.873 6 102090484.29444  24931540.813    24931539.843    24931540.268
        39.000          25.500
 121648556.595 7                  23148951.279
        44.250
 144014188.079 5                  27405022.653
        34.500
 129672110.979 6 101043223.77643  24675780.925    24675779.884    24675782.904
        37.500          20.750
 195090636.409 7                  37124514.783
        46.750
 122541686.323 7                  22964264.198
        43.250
 102075863.790 8                  19122249.887
        52.000
 132028393.908 6 102879292.44845  25124176.064    25124175.233    25124187.248
        36.000          31.750
 106471509.134 8                  19889773.783
        51.750
 130387224.973 6                  24391629.675
        41.750
 21 10 20 10 55 30.0000000  0 27G01G17G03G04R04G06G07G19G09S25R19E11
                                S23E04R17S48E12G02E19E26G20S36R02R18
                                G30R03R05
 128703816.664 6 100288669.06246  24491547.003    24491546.905    24491559.100
        37.000          37.750
 111826274.541 8  87137349.20146  21279835.444    21279835.145    21279835.435
        48.000          41.000
 126629607.433 6  98672425.62045  24096816.928    24096816.924    24096820.007
        36.000          34.250
 115028542.943 7  89632630.50546  21889205.842    21889205.646    21889206.480
        45.500          36.250
 109835972.325 8                  20511091.827
        50.750
 111348140.191 8  86764793.60147  21188846.379    21188846.387    21188848.402
        48.250          42.250
 123227214.395 7  96021240.61346  23449350.142    23449349.753    23449352.458
        42.000          40.750
 108681697.187 8  84687024.14547  20681440.942    20681439.753    20681438.489
        48.250          42.250
 106507037.037 8  82992500.33449  20267615.787    20267615.336    20267616.709
        51.250          56.750
 179897478.305 8                  34233360.163
        48.750
 115005186.374 6                  21499005.275
        37.750
 136832620.345 5                  26038383.137
        33.000
 203892131.996 7                  38799382.964
        43.500
 133281949.276 7                  25362710.340
        46.000
 109923696.045 8                  20541874.799
        50.750
  30681315.357 7                   5838676.721
        43.500
 116826704.862 7                  22231383.538
        45.250
 130929687.978 6 102023127.00344  24915090.948    24915090.018    24915090.362
        39.000          26.000
 121667035.477 7                  23152467.712
        44.000
 144088311.850 5                  27419128.396
        34.500
 129606622.350 6 100992193.73143  24663319.252    24663318.220    24663320.693
        37.250          21.750
 195090611.212 7                  37124510.427
        46.750
 122645184.408 7                  22983659.527
        44.250
 102056926.569 8                  19118702.269
        52.000
 131945342.433 6 102814576.89145  25108372.095    25108371.286    25108383.108
        36.000          32.750
 106523746.384 8                  19899532.034
        51.750
 130292279.524 7                  24373867.464
        45.250
 21 10 20 10 56  0.0000000  0 27G01G17G03G04R04G06G07G19G09S25R19E11
                                S23E04R17S48E12G02E19E26G20S36R02R18
                                G30R03R05
 128790123.100 6 100355919.73546  24507971.615    24507971.531    24507983.875
        37.000          37.000
 111893602.920 8  87189812.79946  21292647.740    21292647.436    21292647.487
        48.250          40.500
 126698646.691 6  98726222.33245  24109954.448    24109954.448    24109957.826
        36.250          34.000
 115102864.674 7  89690543.51146  21903348.740    21903348.548    21903349.350
        45.500          36.000
 109794454.484 8                  20503338.860
        51.000
 111287446.254 8  86717499.62047  21177296.743    21177296.751    21177298.903
        48.000          42.000
 123154720.850 6  95964752.24746  23435554.460    23435554.071    23435557.069
        41.750          40.500
 108718721.603 8  84715874.29847  20688486.738    20688485.549    20688484.126
        48.250          42.000
 106517787.744 8  83000877.49349  20269661.616    20269661.169    20269662.571
        51.250          56.500
 179898758.672 8                  34233604.318
        48.750
 114896437.671 6                  21478674.708
        37.750
 136753444.995 5                  26023316.520
        33.250
 203892218.146 7                  38799399.750
        43.500
 133221880.877 7                  25351279.779
        46.000
 110016408.093 8                  20559200.149
        50.500
  30680779.429 7                   5838620.767
        43.500
 116786549.835 7                  22223742.281
        45.250
 130843196.043 6 101955730.69644  24898632.705    24898631.811    24898631.304
        39.500          25.750
 121685828.277 7                  23156043.875
        44.000
 144162593.144 5                  27433264.254
        34.250
 129541154.614 6 100941179.94543  24650861.806    24650860.769    24650862.752
        38.000          21.250
 195090593.349 7                  37124508.156
        46.750
 122748610.835 7                  23003041.544
        45.000
 102038726.460 8                  19115292.920
        52.000
 131862114.151 6 102749723.57745  25092534.431    25092533.622    25092544.670
        36.000          32.000
 106576322.203 8                  19909353.605
        52.000
 130197578.361 6                  24356149.003
        39.750
 21 10 20 10 56 30.0000000  0 27G01G17G03G04R04G06G07G19G09S25R19E11
                                S23E04R17S48E12G02E19E26G20S36R02R18
                                G30R03R05
 128876595.913 5 100423300.02046  24524427.417    24524427.333    24524440.010
        35.750          36.500
 111961332.989 7  87242589.40146  21305536.481    21305536.177    21305536.085
        47.750          40.500
 126767650.186 6  98779991.17345  24123085.691    24123085.678    24123088.974
        36.000          33.250
 115177521.310 7  89748717.46945  21917555.289    21917555.102    21917556.433
        45.250          35.750
 109753410.778 8                  20495674.187
        50.750
 111226969.159 7  86670374.61247  21165788.463    21165788.467    21165790.592
        47.750          42.000
 123082293.408 7  95908315.38446  23421772.340    23421771.960    23421774.679
        42.250          40.750
 108756333.690 8  84745182.37846  20695644.042    20695642.853    20695641.633
        48.000          41.750
 106529065.786 8  83009665.56049  20271807.799    20271807.348    20271808.695
        51.000          56.250
 179900034.778 8                  34233850.495
        48.500
 114787981.413 6                  21458400.070
        38.000
 136674232.556 5                  26008243.178
        33.250
 203892298.924 7                  38799416.103
        43.500
 133162058.905 7                  25339896.131
        45.750
 110109652.012 8                  20576625.247
        50.500
  30681837.116 7                   5838563.428
        43.250
 116746616.516 7                  22216143.285
        45.000
 130756643.790 6 101888287.41244  24882162.725    24882161.840    24882160.918
        39.250          25.250
 121704922.582 7                  23159677.462
        43.750
 144237019.961 5                  27447427.626
        34.250
 129475695.978 6 100890173.25543  24638404.724    24638403.700    24638405.581
        37.250          21.000
 195090571.647 7                  37124504.310
        46.750
 122851952.534 7                  23022408.120
        44.500
 102021254.113 8                  19112019.676
        52.000
 131778699.943 6 102684725.40245  25076660.857    25076660.035    25076672.158
        37.000          33.750
 106629221.846 8                  19919236.182
        52.000
 130103112.405 6                  24338479.511
        38.250
 21 10 20 10 57  0.0000000  0 27G01G17G03G04R04G06G07G19G09S25R19E11
                                S23E04R17S48E12G02E19E26G20S36R02R18
                                G30R03R05
 128963239.191 5 100490813.08445  24540916.050    24540915.961    24540928.528
        35.500          35.750
 112029467.201 7  87295680.92046  21318502.149    21318501.854    21318501.613
        47.750          40.250
 126836622.830 6  98833736.02745  24136210.673    24136210.665    24136214.156
        36.750          33.000
 115252515.440 7  89807154.41945  21931826.268    21931826.085    21931827.160
        45.250          35.500
 109712845.412 8                  20488098.454
        51.000
 111166716.071 8  86623424.15147  21154322.573    21154322.577    21154324.507
        48.000          42.000
 123009939.721 6  95851935.97946  23408003.506    23408003.135    23408006.061
        41.750          40.750
 108794537.206 8  84774951.31346  20702914.115    20702912.926    20702911.498
        48.000          41.750
 106540874.989 8  83018867.51649  20274055.040    20274054.593    20274056.016
        51.000          56.250
 179901314.010 8                  34234096.309
        48.500
 114679826.672 6                  21438182.582
        38.500
 136594989.230 5                  25993163.141
        33.500
 203892381.362 7                  38799431.047
        43.250
 133102488.857 7                  25328560.145
        45.750
 110203430.537 8                  20594150.188
        50.500
  30681296.721 7                   5838507.327
        43.250
 116706911.455 7                  22208587.567
        45.250
 130670037.143 6 101820801.71844  24865681.773    24865680.893    24865679.747
        39.000          25.000
 121724322.150 7                  23163369.152
        43.750
 144311596.528 6                  27461619.183
        36.250
 129410251.277 6 100839177.40943  24625951.540    24625950.508    24625952.108
        37.750          22.000
 195090549.945 7                  37124499.745
        46.750
 122955211.787 7                  23041758.651
        45.500
 102004516.799 8                  19108884.303
        52.000
 131695106.865 6 102619587.86145  25060753.733    25060752.911    25060765.309
        36.250          32.500
 106682447.537 8                  19929179.095
        52.000
 130008885.736 7                  24320851.773
        42.500
 21 10 20 10 57 30.0000000  0 27G01G17G03G04R04G06G07G19G09S25R19E11
                                S23E04R17S48E12G02E19E26G20S36R02R18
                                G30R03R05
 129050052.580 6 100558458.66446  24557437.052    24557436.963    24557449.595
        36.500          36.750
 112098003.216 8  87349085.53346  21331543.862    21331543.576    21331543.637
        48.000          40.500
 126905565.105 6  98887457.21845  24149329.697    24149329.675    24149333.763
        36.000          32.750
 115327844.917 7  89865852.67745  21946161.052    21946160.869    21946161.961
        45.500          35.750
 109672758.303 8                  20480612.592
        50.750
 111106689.605 8  86576650.27347  21142900.002    21142900.006    21142901.823
        48.250          42.250
 122937662.904 6  95795616.48146  23394249.891    23394249.534    23394252.191
        41.750          41.000
 108833330.581 8  84805179.87646  20710296.088    20710294.899    20710293.580
        48.250          41.750
 106553214.665 8  83028482.83049  20276403.276    20276402.829    20276404.347
        51.250          56.500
 179902603.176 8                  34234343.947
        48.250
 114571978.318 6                  21418021.538
        38.500
 136515716.630 5                  25978078.193
        33.750
 203892465.841 7                  38799447.234
        43.250
 133043171.750 7                  25317272.444
        45.500
 110297741.165 8                  20611774.348
        50.500
  30680753.527 7                   5838448.923
        43.250
 116667436.621 7                  22201075.852
        45.250
 130583378.358 6 101753275.41144  24849191.167    24849190.269    24849189.226
        38.750          24.500
 121744026.262 7                  23167118.677
        43.750
 144386322.467 6                  27475839.529
        36.250
 129344820.478 6 100788192.40543  24613499.908    24613498.858    24613500.919
        37.750          21.250
 195090527.313 7                  37124496.373
        46.500
 123058388.060 7                  23061093.040
        44.000
 101988516.847 8                  19105886.954
        52.000
 131611337.490 6 102554312.95745  25044812.924    25044812.102    25044824.524
        37.500          34.000
 106735996.437 8                  19939182.329
        52.000
 129914900.775 7                  24303270.367
        43.750
 21 10 20 10 58  0.0000000  0 27G01G17G03G04R04G06G07G19G09S25R19E11
                                S23E04R17S48E12G02E19E26G20S36R02R18
                                G30R03R05
 129137034.738 6 100626235.71046  24573990.185    24573990.092    24574003.407
        36.250          36.250
 112166938.355 8  87402801.14946  21344662.082    21344661.792    21344661.719
        48.000          40.250
 126974476.506 5  98941154.27845  24162442.994    24162442.963    24162447.319
        35.000          32.000
 115403506.583 7  89924809.77745  21960559.207    21960559.033    21960560.099
        45.500          35.500
 109633148.155 8                  20473216.031
        50.750
 111046891.483 8  86530054.33147  21131520.636    21131520.640    21131523.261
        48.250          42.250
 122865465.253 7  95739358.67346  23380510.759    23380510.397    23380513.506
        42.500          41.250
 108872711.608 8  84835866.35046  20717790.117    20717788.933    20717787.527
        48.500          41.500
 106566083.161 8  83038510.20749  20278851.947    20278851.500    20278853.258
        51.500          56.500
 179903902.187 8                  34234593.768
        48.500
 114464440.016 6                  21397917.831
        38.500
 136436415.544 5                  25962987.627
        34.250
 203892551.087 7                  38799464.772
        43.250
 132984107.624 7                  25306033.003
        45.750
 110392580.854 8                  20629497.309
        50.250
  30680217.065 7                   5838392.138
        43.250
 116628193.101 7                  22193608.084
        45.250
 130496668.116 6 101685709.00344  24832690.803    24832689.905    24832688.970
        38.750          24.750
 121764033.207 7                  23170925.774
        43.750
 144461196.584 6                  27490087.522
        36.000
 129279402.672 6 100737217.54243  24601051.267    24601050.181    24601052.562
        38.000          22.250
 195090510.596 7                  37124492.188
        46.500
 123161477.921 7                  23080412.884
        44.750
 101973255.430 8                  19103027.823
        52.000
 131527393.480 6 102488902.01145  25028838.591    25028837.760    25028850.091
        38.000          33.250
 106789865.213 8                  19949245.450
        52.000
 129821158.563 6                  24285734.609
        39.000
 21 10 20 10 58 30.0000000  0 27G01G17G03G04R04G06G07G19G09S25R19E11
                                S23E04R17S48E12G02E19E26G20S36R02R18
                                G30R03R05
 129224188.514 6 100694146.44246  24590576.103    24590576.010    24590589.532
        37.250          37.000
 112236273.333 8  87456828.33146  21357856.069    21357855.788    21357855.836
        48.000          40.500
 127043360.685 6  98994830.15845  24175551.794    24175551.754    24175555.299
        36.500          34.500
 115479501.650 7  89984026.67445  21975020.786    21975020.617    21975021.469
        45.500          35.750
 109594018.382 8                  20465908.828
        51.000
 110987327.627 8  86483640.93347  21120186.119    21120186.123    21120188.570
        48.250          42.500
 122793353.188 7  95683167.54546  23366788.242    23366787.885    23366790.915
        42.250          41.500
 108912682.223 8  84867012.24247  20725396.334    20725395.145    20725393.797
        48.250          42.000
 106579482.984 8  83048951.60349  20281401.879    20281401.432    20281403.116
        51.250          56.750
 179905207.026 8                  34234845.319
        48.500
 114357219.334 6                  21377873.602
        38.250
 136357090.863 5                  25947892.720
        34.750
 203892638.407 7                  38799480.360
        43.500
 132925300.677 7                  25294842.314
        46.000
 110487950.340 8                  20647319.570
        50.250
  30679682.523 7                   5838337.275
        43.500
 116589186.154 7                  22186185.287
        45.500
 130409911.743 6 101618106.66744  24816181.370    24816180.467    24816179.699
        38.250          24.250
 121784345.502 7                  23174791.229
        44.000
 144536221.778 6                  27504364.393
        37.250
 129214001.049 6 100686255.26743  24588605.892    24588604.806    24588605.908
        37.750          21.250
 195090495.124 7                  37124488.552
        46.750
 123264483.766 7                  23099716.200
        44.500
 101958738.423 8                  19100308.372
        51.750
 131443280.609 6 102423359.50845  25012833.413    25012832.582    25012843.681
        37.250          33.500
 106844054.603 8                  19959368.249
        52.000
 129727708.85717                  24268243.156
        45.000
 21 10 20 10 59  0.0000000  0 27G01G17G03G04R04G06G07G19G09S25R19E11
                                S23E04R17S48E12G02E19E26G20S36R02R18
                                G30R03R05
 129311504.502 6 100762183.57246  24607193.004    24607192.888    24607206.788
        36.500          37.500
 112305997.250 8  87511158.58246  21371124.188    21371123.902    21371124.106
        48.000          40.250
 127112209.159 6  99048478.21745  24188653.492    24188653.452    24188657.212
        37.250          35.500
 115555818.980 7  90043494.68945  21989543.424    21989543.246    21989543.971
        45.000          35.250
 109555359.174 8                  20458689.249
        50.750
 110927991.717 8  86437405.15147  21108894.858    21108894.862    21108896.770
        48.500          42.250
 122721321.016 7  95627038.68346  23353081.171    23353080.818    23353083.607
        43.000          41.500
 108953231.957 8  84898609.39646  20733112.807    20733111.618    20733110.316
        48.500          41.750
 106593404.428 8  83059799.45649  20284051.084    20284050.637    20284052.333
        51.500          56.500
 179906513.929 8                  34235098.180
        48.500
 114250312.023 6                  21357889.319
        38.000
 136277735.200 5                  25932791.940
        34.250
 203892720.148 7                  38799495.667
        43.500
 132866742.926 7                  25283699.089
        46.000
 110583838.355 8                  20665238.414
        50.250
  30679136.199 7                   5838280.490
        43.500
 116550408.795 7                  22178806.125
        45.750
 130323101.708 6 101550462.51344  24799662.337    24799661.407    24799660.381
        38.500          25.000
 121804953.389 7                  23178712.759
        44.250
 144611388.718 6                  27518667.974
        38.500
 129148606.845 6 100635298.75343  24576162.094    24576160.999    24576162.030
        38.250          21.750
 195090471.509 7                  37124484.689
        46.750
 123367395.136 7                  23119002.626
        44.250
 101944958.653 8                  19097726.892
        52.000
 131358992.517 6 102357680.53245  24996793.197    24996792.402    24996804.570
        38.250          34.500
 106898552.819 8                  19969549.445
        52.000
 129634454.046 7                  24250797.342
        45.000
 21 10 20 10 59 30.0000000  0 27G01G17G03G04R04G06G07G19G09S25R19E11
                                S23E04R17S48E12G02E19E26G20S36R02R18
                                G30R03R05
 129398993.629 6 100830355.57846  24623842.433    24623842.340    24623856.409
        36.250          36.750
 112376119.344 7  87565799.09146  21384467.963    21384467.677    21384468.099
        47.500          40.500
 127181033.675 6  99102107.60146  24201750.408    24201750.368    24201754.223
        38.000          36.250
 115632467.712 7  90103220.93745  22004128.961    22004128.778    22004129.979
        45.000          35.500
 109517181.658 8                  20451560.086
        51.250
 110868897.650 8  86391357.81547  21097649.637    21097649.637    21097651.583
        48.000          42.500
 122649382.874 6  95570983.08446  23339391.586    23339391.233    23339394.137
        41.750          41.250
 108994370.690 8  84930665.50547  20740941.270    20740940.086    20740938.884
        48.000          42.000
 106607857.994 8  83071061.95149  20286801.536    20286801.089    20286802.699
        51.250          56.750
 179907843.925 8                  34235353.613
        48.500
 114143734.278 6                  21337964.719
        38.500
 136198361.576 5                  25917687.583
        33.500
 203892808.760 7                  38799513.321
        43.500
 132808446.566 7                  25272605.732
        45.750
 110680254.043 8                  20683256.191
        50.250
  30678605.006 7                   5838223.915
        43.500
 116511874.304 7                  22171473.252
        45.250
 130236251.312 6 101482786.92044  24783135.531    24783134.628    24783133.138
        38.500          25.250
 121825867.367 7                  23182692.514
        44.000
 144686708.147 5                  27533000.381
        35.500
 129083231.589 6 100584357.04843  24563721.835    24563720.749    24563721.829
        38.000          22.750
 195090449.529 7                  37124480.615
        46.750
 123470221.046 7                  23138271.898
        45.500
 101931930.183 8                  19095286.381
        51.750
 131274543.053 6 102291875.82945  24980722.882    24980722.104    24980734.037
        37.750          34.000
 106953368.369 8                  19979789.245
        51.750
 129541452.283 6                  24233398.101
        40.250
 21 10 20 11  0  0.0000000  0 27G01G17G03G04R04G06G07G19G09S25R19E11
                                S23E04R17S48E12G02E19E26G20S36R02R18
                                G30R03R05
 129486643.419 6 100898652.73745  24640522.008    24640521.919    24640537.033
        36.500          35.750
 112446625.505 7  87620738.87246  21397884.820    21397884.521    21397885.099
        47.500          40.250
 127249822.653 6  99155709.29445  24214840.545    24214840.505    24214844.160
        37.500          34.750
 115709433.662 7  90163194.36945  22018775.296    22018775.109    22018776.247
        45.750          35.750
 109479473.530 8                  20444518.624
        51.250
 110810036.046 8  86345491.62747  21086448.746    21086448.746    21086450.929
        48.500          42.750
 122577530.053 7  95514993.95146  23325718.592    23325718.239    23325721.190
        42.750          41.500
 109036085.045 8  84963170.15147  20748879.359    20748878.170    20748876.948
        48.500          42.000
 106622830.816 8  83082729.06149  20289650.803    20289650.361    20289651.949
        51.500          56.750
 179909170.275 8                  34235610.176
        48.500
 114037478.531 6                  21318102.085
        38.750
 136118959.626 5                  25902577.539
        33.000
 203892894.090 7                  38799527.183
        43.250
 132750400.524 7                  25261559.858
        45.750
 110777182.855 8                  20701369.636
        50.000
  30679670.277 7                   5838168.248
        43.250
 116473572.629 7                  22164184.875
        45.500
 130149350.381 6 101415071.92644  24766598.535    24766597.614    24766595.889
        39.000          25.000
 121847074.614 7                  23186728.359
        44.250
 144762167.809 4                  27547359.532
        29.750
 129017863.092 6 100533420.60843  24551281.947    24551280.870    24551282.665
        37.750          21.250
 195090427.382 7                  37124477.963
        46.750
 123572949.240 7                  23157522.783
        45.000
 101919642.854 8                  19092984.710
        52.000
 131189922.770 6 102225938.02445  24964620.233    24964619.482    24964631.201
        36.500          33.750
 107008486.919 8                  19990085.836
        51.750
 129448692.792 6                  24216047.243
        37.500
 21 10 20 11  0 30.0000000  0 27G01G17G03G04R04G06G07G19G09S25R19E11
                                S23E04R17S48E12G02E19E26G20S36R02R18
                                G30R03R05
 129574458.465 6 100967078.62946  24657234.450    24657234.352    24657248.904
        36.500          36.250
 112517518.286 7  87675979.91546  21411375.642    21411375.338    21411375.564
        47.500          40.250
 127318581.600 6  99209287.59445  24227925.394    24227925.363    24227929.053
        37.250          34.500
 115786719.758 7  90223417.26445  22033482.505    22033482.318    22033483.525
        45.250          35.500
 109442239.332 8                  20437565.050
        51.250
 110751414.646 8  86299812.60647  21075293.455    21075293.455    21075295.438
        48.250          42.500
 122505770.492 7  95459077.52046  23312062.939    23312062.577    23312065.441
        42.250          41.250
 109078378.218 8  84996125.81947  20756927.522    20756926.329    20756925.127
        48.250          42.000
 106638327.160 8  83094804.11049  20292599.736    20292599.289    20292600.873
        51.250          56.750
 179910505.151 8                  34235868.882
        48.500
 113931554.337 6                  21298300.345
        38.500
 136039536.037 5                  25887463.803
        32.750
 203892979.815 7                  38799544.752
        43.500
 132692610.778 7                  25250562.807
        46.000
 110874627.439 8                  20719579.811
        50.250
  30679138.005 7                   5838111.481
        43.500
 116435510.823 7                  22156941.908
        45.500
 130062405.719 6 101347322.86244  24750053.162    24750052.232    24750051.189
        38.750          25.250
 121868579.402 7                  23190820.438
        44.500
 144837772.323 4                  27561745.881
        27.250
 128952506.154 6 100482493.14043  24538845.724    24538844.638    24538845.066
        36.750          21.500
 195090410.820 7                  37124472.597
        46.750
 123675582.363 7                  23176755.649
        43.000
 101908103.803 8                  19090822.929
        52.250
 131105139.306 6 102159873.11645  24948486.860    24948486.087    24948497.926
        37.000          34.750
 107063910.664 8                  20000439.574
        51.750
 129356182.405 6                  24198741.741
        41.250
 21 10 20 11  1  0.0000000  0 27G01G17G03G04R04G06G07G19G09S25R19E11
                                S23E04R17S48E12G02E19E26G20S36R02R18
                                G30R03R05
 129662439.922 5 101035634.28845  24673977.544    24673977.424    24673992.626
        34.500          34.000
 112588797.807 7  87731522.31446  21424939.504    21424939.196    21424939.534
        47.750          40.000
 127387312.620 5  99262844.11945  24241004.593    24241004.567    24241008.187
        35.750          31.500
 115864325.501 7  90283889.23645  22048250.503    22048250.311    22048251.224
        44.500          34.750
 109405480.458 8                  20430700.298
        51.000
 110693037.722 8  86254324.08347  21064184.624    21064184.616    21064186.501
        48.500          42.000
 122434109.540 7  95403237.91146  23298426.492    23298426.126    23298428.682
        43.000          41.000
 109121250.930 8  85029533.08146  20765086.020    20765084.836    20765083.410
        48.500          41.500
 106654347.773 8  83107287.68349  20295648.320    20295647.873    20295649.665
        51.500          56.250
 179911848.570 8                  34236130.351
        48.250
 113825967.968 6                  21278562.503
        38.750
 135960094.162 5                  25872346.777
        31.500
 203893067.204 7                  38799562.513
        43.500
 132635079.846 7                  25239615.086
        46.250
 110972587.218 8                  20737885.706
        49.750
  30678608.157 7                   5838056.739
        43.250
 116397692.465 7                  22149745.216
        45.500
 129975420.835 6 101279542.46044  24733501.023    24733500.080    24733498.436
        38.750          25.000
 121890382.545 7                  23194969.459
        44.500
                                  27576160.250
        19.250
 128887163.056 6 100431576.49143  24526410.466    24526409.384    24526410.503
        38.000          20.500
 195090390.446 7                  37124469.812
        46.750
 123778121.119 6                  23195971.903
        40.750
 101897317.253 8                  19088802.196
        52.000
 131020196.825 6 102093684.29445  24932322.221    24932321.434    24932333.597
        38.000          33.500
 107119638.705 8                  20010849.917
        51.750
 129263924.308 7                  24181483.430
        42.500
 21 10 20 11  1 30.0000000  0 27G01G17G03G04R04G06G07G19G09S25R19E11
                                S23E04R17S48E12G02E19E26G20S36R02R18
                                G30R03R05
 129750584.493 6 101104316.92346  24690751.746    24690751.644    24690767.346
        37.250          38.000
 112660458.859 7  87787362.01646  21438576.493    21438576.189    21438576.315
        47.500          40.000
 127456013.312 5  99316377.03644  24254077.076    24254077.041    24254081.141
        33.500          28.000
 115942245.785 7  90344606.30345  22063078.216    22063078.020    22063079.000
        44.750          35.250
 109369193.352 8                  20423924.465
        51.750
 110634905.014 8  86209025.86047  21053122.289    21053122.281    21053124.235
        48.500          42.500
 122362547.125 7  95347475.07946  23284808.227    23284807.861    23284810.584
        42.750          41.500
 109164698.788 8  85063388.51246  20773353.609    20773352.420    20773351.181
        48.250          41.500
 106670888.914 8  83120176.86149  20298796.095    20298795.653    20298797.419
        51.250          56.500
 179913199.133 8                  34236392.312
        48.750
 113720721.124 6                  21258887.431
        38.500
 135880632.844 5                  25857225.676
        32.000
 203893155.189 7                  38799578.459
        43.500
 132577805.780 7                  25228716.306
        46.250
 111071056.599 8                  20756287.580
        50.000
  30678079.353 7                   5838000.759
        43.500
 116360116.666 7                  22142594.799
        45.500
 129888394.754 6 101211729.95644  24716940.210    24716939.271    24716937.599
        39.000          24.250
 121912480.338 7                  23199174.635
        44.250
                                  27590601.368
        22.250
 128821830.831 6 100380668.30043  24513978.095    24513977.027    24513978.453
        37.250          20.500
 195090375.439 7                  37124466.042
        46.750
 123880561.587 6                  23215168.585
        38.250
 101887281.904 8                  19086922.562
        51.750
 130935095.140 6 102027371.42345  24916127.784    24916127.020    24916138.936
        37.000          33.750
 107175665.490 8                  20021316.360
        52.000
 129171916.975 7                  24164271.957
        44.500
 21 10 20 11  2  0.0000000  0 27G01G17G03G04R04G06G07G19G09S25R19E11
                                S23E04R17S48E12G02E19E26G20S36R02R18
                                G30R03R05
 129838889.367 5 101173124.58444  24707555.693    24707555.604    24707572.571
        30.500          28.250
 112732496.197 7  87843494.91946  21452284.422    21452284.114    21452284.838
        47.250          40.250
 127524681.723 5  99369884.76243  24267144.489    24267144.413    24267148.416
        31.000          23.250
 116020476.017 7  90405564.88745  22077964.816    22077964.624    22077965.993
        44.500          35.250
 109333375.233 8                  20417235.363
        51.250
 110577016.736 8  86163918.10247  21042106.450    21042106.442    21042108.634
        48.250          42.750
 122291083.864 7  95291789.51446  23271209.001    23271208.639    23271211.262
        42.750          41.500
 109208717.511 8  85097688.77046  20781730.306    20781729.117    20781727.849
        48.000          41.750
 106687947.246 8  83133469.05149  20302042.111    20302041.669    20302043.276
        51.000          56.500
 179914551.592 8                  34236655.906
        48.750
 113615816.143 6                  21239276.039
        39.000
 135801151.178 5                  25842100.566
        32.500
 203893243.018 7                  38799596.922
        43.750
 132520786.976 7                  25217865.916
        46.250
 111170030.665 8                  20774783.189
        50.250
  30677545.845 7                   5837944.577
        43.500
 116322782.922 7                  22135490.490
        45.750
 129801326.787 6 101143884.80344  24700371.630    24700370.660    24700368.918
        38.250          24.750
 121934869.496 7                  23203435.171
        44.500


 128756506.771 6 100329766.47143  24501547.439    24501546.375    24501547.700
        36.500          21.000
 195090354.254 7                  37124462.407
        47.000
 123982899.368 5                  23234347.692
        35.750
 101877997.253 8                  19085183.222
        51.750
 130849834.333 6 101960934.60445  24899903.944    24899903.184    24899914.373
        36.000          33.500
 107231986.006 8                  20031837.412
        51.750
 129080159.536 7                  24147106.144
        42.250
 21 10 20 11  2 30.0000000  0 26G01G17G03G04R04G06G07G19G09S25R19E11
                                S23E04R17S48E12G02E19G20S36R02R18G30
                                R03R05
                                  24724390.746
        22.500
 112804910.231 7  87899921.35546  21466064.574    21466064.266    21466064.881
        47.500          40.250
 127593320.589 4  99423369.52343  24280205.384    24280205.304    24280210.071
        29.250          20.250
 116099016.309 7  90466765.07845  22092910.526    22092910.330    22092911.398
        44.500          35.000
 109298027.942 8                  20410634.509
        51.000
 110519377.838 8  86119004.66947  21031138.110    21031138.106    21031140.513
        48.500          42.750
 122219725.188 7  95236185.43646  23257629.796    23257629.434    23257632.214
        43.000          41.750
 109253307.691 8  85132434.31546  20790215.577    20790214.393    20790213.325
        48.500          41.750
 106705524.128 8  83147165.30649  20305387.041    20305386.594    20305387.853
        51.250          56.500
 179915918.977 8                  34236920.026
        48.750
 113511260.286 6                  21219731.077
        38.750
 135721653.143 5                  25826972.595
        33.750
 203893332.299 7                  38799612.135
        43.500
 132464026.641 7                  25207064.771
        46.500
 111269509.283 8                  20793373.294
        50.250
  30677017.531 7                   5837889.554
        43.500
 116285695.497 7                  22128433.131
        45.750
 129714221.008 6 101076010.20044  24683796.035    24683795.052    24683793.298
        38.500          25.000
 121957551.499 7                  23207751.299
        44.750
 128691193.274 6 100278872.88143  24489119.361    24489118.257    24489119.263
        37.750          20.750
 195090335.956 7                  37124460.171
        47.000
 124085135.337 5                  23253506.404
        32.500
 101869467.782 8                  19083585.379
        51.750
 130764419.354 6 101894377.67445  24883648.260    24883647.487    24883659.873
        37.250          33.750
 107288599.797 8                  20042413.560
        52.000
 128988655.759 6                  24129987.262
        40.250
 21 10 20 11  3  0.0000000  0 27G01G17G03G04R04G06G07G19G09S25R19E11
                                S23E04R17S48E12G02E19E26G20S36R02R18
                                G30R03R05
                                  24741262.795
        20.000
 112877697.925 7  87956638.94846  21479915.769    21479915.456    21479916.103
        47.500          40.500
 127661929.523 4  99476830.93542  24293262.357    24293262.299    24293265.956
        27.250          17.750
 116177863.698 7  90528204.56245  22107914.708    22107914.521    22107915.749
        44.750          35.250
 109263150.227 8                  20404121.435
        51.250
 110461990.191 8  86074287.01547  21020217.592    21020217.588    21020220.122
        49.000          43.250
 122148473.425 7  95180664.66647  23244071.120    23244070.758    23244073.463
        43.500          42.250
 109298467.144 8  85167623.44947  20798809.043    20798807.859    20798806.926
        48.500          42.000
 106723617.864 8  83161264.30549  20308830.064    20308829.622    20308831.057
        51.500          56.500
 179917287.079 8                  34237186.571
        48.750
 113407057.017 6                  21200250.870
        39.000
 135642139.838 5                  25811841.943
        34.500
 203893420.434 7                  38799629.686
        43.750
 132407524.841 7                  25196312.729
        46.500
 111369489.184 8                  20812056.881
        50.000
  30676491.933 7                   5837834.169
        43.750
 116248855.557 7                  22121422.632
        45.750
 129627078.437 6 101008106.93144  24667213.524    24667212.514    24667210.880
        38.750          25.250
 121980524.691 7                  23212123.071
        44.500


 128625890.018 6 100227987.27443  24476691.850    24476690.706    24476691.659
        37.000          20.750
 195090320.339 7                  37124457.881
        47.000
 124187267.732 5                  23272646.002
        31.250
 101861694.619 8                  19082129.041
        52.000
 130678852.075 6 101827702.09745  24867366.318    24867365.523    24867376.477
        37.500          33.500
 107345503.638 8                  20053044.005
        51.750
 128897406.041 7                  24112916.965
        43.250
 21 10 20 11  3 30.0000000  0 26G01G17G03G04R04G06G07G19G09S25R19E11
                                S23E04R17S48E12G02E19G20S36R02R18G30
                                R03R05


 112950855.017 7  88013644.38846  21493837.126    21493836.818    21493837.588
        47.250          40.000
 127730506.961 4  99530267.76842  24306312.007    24306311.967    24306315.703
        26.250          15.000
 116257013.941 7  90589880.03645  22122976.709    22122976.517    22122977.408
        44.250          34.500
 109228739.456 8                  20397695.204
        51.000
 110404854.273 8  86029765.51247  21009344.863    21009344.859    21009347.184
        48.750          42.750
 122077329.606 7  95125228.00947  23230532.936    23230532.570    23230535.013
        43.000          42.000
 109344192.041 8  85203253.19046  20807510.256    20807509.076    20807507.965
        48.250          41.500
 106742225.332 8  83175763.61449  20312370.901    20312370.454    20312372.117
        51.250          56.250
 179918660.572 8                  34237453.397
        48.750
 113303208.991 6                  21180837.702
        38.750
 135562610.602 5                  25796708.352
        34.000
 203893506.987 7                  38799647.881
        43.750
 132351280.299 7                  25185609.882
        46.250
 111469965.492 8                  20830833.521
        50.250
  30677564.727 7                   5837777.907
        43.500
 116212262.907 7                  22114459.225
        45.750
 129539898.934 6 100940174.87844  24650623.481    24650622.471    24650621.518
        39.500          25.750
 122003786.075 7                  23216549.642
        44.250
 128560594.637 6 100177107.78643  24464267.209    24464266.096    24464265.730
        37.750          20.500
 195090300.270 7                  37124452.247
        46.750
 124289292.654 5                  23291764.812
        30.000
 101854677.752 8                  19080814.370
        52.000
 130593132.907 5 101760908.18745  24851054.205    24851053.392    24851064.343
        35.250          33.000
 107402692.704 8                  20063726.921
        51.750
 128806410.088 6                  24095894.966
        40.500
 21 10 20 11  4  0.0000000  0 26G01G17G03G04R04G06G07G19G09S25R19E11
                                S23E04R17S48E12G02E19G20S36R02R18G30
                                R03R05


 113024378.131 7  88070935.03646  21507828.217    21507827.909    21507828.629
        47.250          40.000
 127799052.562 4  99583679.81642  24319355.572    24319355.589    24319359.260
        27.000          14.000
 116336463.801 7  90651788.97745  22138095.286    22138095.090    22138096.214
        44.750          34.500
 109194794.045 8                  20391356.357
        51.000
 110347971.783 8  85985441.48047  20998520.717    20998520.717    20998522.848
        48.500          42.750
 122006296.007 7  95069877.24347  23217015.782    23217015.411    23217017.866
        43.500          42.250
 109390479.427 8  85239321.23346  20816318.496    20816317.312    20816316.123
        48.500          41.500
 106761344.613 8  83190661.74349  20316009.310    20316008.868    20316010.372
        51.250          56.250
 179920043.822 8                  34237721.762
        48.500
 113199719.894 6                  21161492.221
        39.250
 135483066.333 5                  25781571.321
        34.750
 203893594.455 7                  38799663.156
        43.500
 132295292.854 7                  25174955.481
        46.000
 111570934.956 8                  20849701.937
        50.000
  30677036.566 7                   5837721.148
        43.500
 116175918.504 7                  22107543.187
        45.250
 129452683.430 6 100872214.78844  24634026.800    24634025.781    24634025.033
        40.250          26.750
 122027333.863 7                  23221030.401
        44.000
 128495306.095 6 100126233.65143  24451843.052    24451841.948    24451842.409
        37.000          21.250
 195090285.888 7                  37124449.287
        46.500
 124391207.696 4                  23310861.867
        27.750
 101848417.532 8                  19079641.774
        51.750
 130507263.487 6 101693997.21445  24834713.807    24834712.998    24834723.527
        37.250          34.000
 107460163.398 8                  20074463.184
        51.750
 128715668.299 6                  24078921.118
        41.000
 21 10 20 11  4 30.0000000  0 25G17G03G04R04G06G07G19G09S25R19E11S23
                                E04R17S48E12G02E19G20S36R02R18G30R03
                                R05
 113098270.409 7  88128513.34746  21521889.393    21521889.080    21521889.852
        47.500          39.750
 127867571.978 4  99637071.47442  24332397.873    24332397.890    24332398.418
        24.500          12.500
 116416216.573 7  90713933.95145  22153271.935    22153271.739    22153272.973
        45.000          35.000
 109161318.996 8                  20385104.944
        51.000
 110291350.817 8  85941321.23547  20987746.120    20987746.116    20987748.357
        48.500          42.500
 121935380.997 7  95014618.87647  23203521.094    23203520.719    23203523.193
        43.500          42.500
 109437333.343 8  85275830.72846  20825234.695    20825233.515    20825232.154
        48.500          41.500
 106780980.136 8  83205962.13849  20319745.604    20319745.162    20319746.775
        51.250          56.000
 179921436.187 8                  34237992.836
        48.500
 113096599.794 6                  21142215.276
        38.500
 135403514.112 5                  25766433.122
        35.250
 203893685.393 7                  38799680.921
        43.500
 132239568.835 7                  25164351.824
        46.500
 111672400.460 8                  20868663.723
        49.750
  30676515.225 7                   5837666.899
        43.500
 116139829.769 7                  22100675.805
        45.500
 129365439.260 6 100804232.34044  24617425.356    24617424.341    24617422.426
        40.750          26.500
 122051172.611 7                  23225567.016
        44.250
 128430029.730 6 100075368.96043  24439421.008    24439419.962    24439421.056
        37.250          20.750
 195090269.754 7                  37124447.056
        46.750
                                  23329947.034
        24.250
 101842921.715 8                  19078612.267
        51.750
 130421251.997 6 101626975.54245  24818345.436    24818344.627    24818356.217
        37.500          33.500
 107517918.567 8                  20085252.166
        51.250
 128625187.424 7                  24061994.988
        44.500
 21 10 20 11  5  0.0000000  0 25G17G03G04R04G06G07G19G09S25R19E11S23
                                E04R17S48E12G02E19G20S36R02R18G30R03
                                R05
 113172525.704 7  88186374.52446  21536019.912    21536019.608    21536020.206
        47.000          39.250
                                  24345430.452
        22.250
 116496266.018 7  90776310.09145  22168505.122    22168504.935    22168505.895
        44.500          34.500
 109128309.433 8                  20378940.581
        50.750
 110234989.946 8  85897403.65947  20977021.087    20977021.079    20977023.278
        48.500          42.500
 121864583.939 7  94959452.41747  23190048.723    23190048.348    23190050.829
        43.500          42.750
 109484748.058 8  85312777.21346  20834257.367    20834256.187    20834255.007
        48.000          41.250
 106801126.806 8  83221660.83149  20323579.451    20323579.004    20323580.682
        51.250          55.750
 179922840.654 8                  34238266.137
        48.750
 112993849.366 6                  21123006.315
        39.000
 135323951.543 5                  25751293.060
        34.750
 203893775.224 7                  38799698.441
        43.750
 132184104.954 7                  25153797.382
        46.250
 111774355.073 8                  20887716.072
        49.750
  30675994.414 7                   5837611.169
        43.500
 116103994.560 7                  22093856.519
        45.500
 129278164.443 6 100736226.00044  24600816.950    24600815.940    24600814.319
        40.500          26.000
 122075297.362 7                  23230157.829
        44.000
 128364762.084 6 100024511.09443  24427001.416    24427000.388    24427001.459
        36.000          20.250
 195090247.094 7                  37124442.602
        47.000
                                  23348998.659
        26.000
 101838187.796 8                  19077725.422
        51.750
 130335096.938 6 101559841.99445  24801950.643    24801949.830    24801961.402
        38.250          34.500
 107575951.554 8                  20096093.289
        51.500
 128534964.827 6                  24045113.969
        40.000
 21 10 20 11  5 30.0000000  0 26G01G17G03G04R04G06G07G19G09S25R19E11
                                S23E04R17S48E12G02E19G20S36R02R18G30
                                R03R05


 113247141.494 7  88244516.60346  21550218.762    21550218.458    21550219.114
        46.750          39.250
                                  24358456.141
        24.500
 116576609.742 7  90838915.54945  22183793.827    22183793.626    22183794.587
        44.500          34.250
 109095764.778 8                  20372863.664
        51.000
 110178891.677 8  85853690.70947  20966345.987    20966345.979    20966348.281
        48.250          42.750
 121793907.630 7  94904380.04547  23176599.338    23176598.949    23176601.646
        44.000          43.250
 109532721.923 8  85350159.39546  20843386.587    20843385.407    20843384.361
        48.000          41.250
 106821783.436 8  83237756.89649  20327510.264    20327509.822    20327511.569
        51.000          56.000
 179924251.465 8                  34238539.778
        48.500
 112891472.953 6                  21103867.948
        38.750
 135244380.241 5                  25736151.004
        35.000
 203893866.731 7                  38799715.662
        43.500
 132128901.889 7                  25143292.446
        46.500
 111876796.236 8                  20906859.854
        50.000
  30675473.295 7                   5837555.739
        43.500
 116068414.653 7                  22087085.832
        45.500
 129190860.473 6 100668196.97644  24584203.532    24584202.535    24584201.472
        39.750          26.250
 122099707.071 7                  23234802.704
        44.250
 128299502.833 6  99973659.75543  24414581.812    24414580.775    24414582.163
        37.000          20.750
 195090227.931 7                  37124440.156
        46.750
                                  23368040.402
        21.500
 101834217.495 8                  19076981.857
        51.750
 130248800.852 6 101492598.59345  24785529.320    24785528.502    24785539.560
        37.000          34.000
 107634259.686 8                  20106985.898
        51.250
 128445001.789 6                  24028284.430
        39.000
 21 10 20 11  6  0.0000000  0 25G17G03G04R04G06G07G19G09S25R19E11S23
                                E04R17S48E12G02E19G20S36R02R18G30R03
                                R05
 113322111.492 7  88302934.69346  21564485.094    21564484.786    21564485.312
        46.500          38.750
                                  24371477.506
        23.000
 116657241.512 7  90901745.46145  22199137.631    22199137.426    22199138.361
        45.000          34.250
 109063680.128 8                  20366871.738
        51.000
 110123054.594 8  85810181.28047  20955720.413    20955720.400    20955722.905
        48.750          42.750
 121723351.101 7  94849401.01247  23163172.802    23163172.405    23163175.237
        43.750          43.250
 109581248.593 8  85387972.33346  20852620.897    20852619.708    20852618.785
        48.000          41.250
 106842944.937 8  83254246.36849  20331537.218    20331536.776    20331538.484
        51.250          56.000
 179925669.117 8                  34238816.853
        48.500
 112789471.473 6                  21084799.801
        39.250
 135164797.834 5                  25721006.755
        35.000
 203893958.055 7                  38799733.597
        43.500
 132073956.379 7                  25132836.888
        46.250
 111979717.110 8                  20926093.093
        49.750
  30674952.399 7                   5837500.979
        43.500
 116033087.915 7                  22080363.509
        45.500
 129103524.962 6 100600143.36744  24567583.794    24567582.793    24567582.016
        39.000          25.500
 122124396.824 7                  23239501.010
        44.250
 128234247.658 6  99922811.60443  24402164.550    24402163.504    24402165.236
        37.500          22.000
 195090210.743 7                  37124436.771
        47.000
                                  23387048.983
        22.500
 101831008.244 8                  19076380.446
        52.000
 130162362.335 6 101425244.20845  24769079.905    24769079.083    24769090.205
        38.000          34.000
 107692835.859 8                  20117928.164
        51.500
 128355295.426 6                  24011503.651
        40.250
 21 10 20 11  6 30.0000000  0 25G17G03G04R04G06G07G19G09S25R19E11S23
                                E04R17S48E12G02E19G20S36R02R18G30R03
                                R05
 113397439.770 7  88361631.96446  21578819.822    21578819.523    21578819.836
        46.750          38.750
                                  24384488.421
        20.750
 116738165.880 7  90964803.37045  22214537.018    22214536.817    22214537.757
        44.250          34.000
 109032061.844 8                  20360967.037
        51.000
 110067488.051 8  85766882.66247  20945146.676    20945146.663    20945148.721
        48.750          42.750
 121652924.197 7  94794522.99847  23149770.655    23149770.258    23149773.360
        43.750          43.250
 109630333.307 8  85426220.11346  20861961.469    20861960.280    20861959.285
        48.250          41.500
 106864616.884 8  83271133.59449  20335661.428    20335660.986    20335662.537
        51.000          56.000
 179927098.042 8                  34239094.255
        48.750
 112687855.879 6                  21065804.098
        39.000
 135085212.753 5                  25705861.833
        34.500
 203894051.525 7                  38799749.565
        43.750
 132019275.900 7                  25122431.587
        46.500
 112083121.896 8                  20945416.879
        49.500
  30674435.272 7                   5837445.804
        43.750
 115998022.952 7                  22073690.746
        45.500
 129016167.136 6 100532072.36544  24550960.254    24550959.248    24550958.446
        39.000          25.250
 122149372.397 7                  23244253.673
        44.250
 128169003.649 6  99871972.13643  24389749.449    24389748.434    24389749.186
        37.250          21.500
 195090200.558 7                  37124433.730
        47.000
                                  23406046.211
        24.250
 101828568.513 8                  19075923.515
        52.000
 130075790.700 6 101357786.09245  24752605.143    24752604.307    24752615.723
        38.000          34.000
 107751684.844 8                  20128921.897
        51.250
 128265853.977 6                  23994772.594
        40.000
 21 10 20 11  7  0.0000000  0 25G17G03G04R04G06G07G19G09S25R19E11S23
                                E04R17S48E12G02E19G20S36R02R18G30R03
                                R05
 113473117.121 7  88420601.23646  21593220.815    21593220.516    21593220.902
        47.000          39.000


 116819373.567 7  91028082.03145  22229990.302    22229990.097    22229991.278
        44.750          34.500
 109000902.071 8                  20355148.352
        51.500
 110012187.634 8  85723791.41547  20934623.203    20934623.190    20934625.522
        49.000          43.250
 121582622.976 7  94739742.92947  23136393.027    23136392.625    23136395.088
        44.000          43.500
 109679967.195 8  85464895.81946  20871406.433    20871405.240    20871404.291
        48.500          41.500
 106886791.129 8  83288412.22149  20339880.910    20339880.468    20339882.045
        51.250          56.250
 179928536.254 8                  34239373.212
        48.750
 112586624.182 6                  21046879.333
        39.000
 135005619.647 5                  25690716.012
        34.750
 203894141.508 7                  38799767.957
        43.500
 131964854.174 7                  25112075.537
        46.750
 112187000.750 8                  20964829.488
        49.750
  30675514.733 7                   5837390.172
        43.500
 115963214.616 7                  22067066.967
        45.750
 128928781.132 6 100463979.42244  24534331.552    24534330.533    24534329.868
        39.500          27.000
 122174625.841 7                  23249059.287
        44.500
 128103763.696 6  99821135.82243  24377334.832    24377333.773    24377334.454
        38.250          22.250
 195090185.021 7                  37124430.859
        46.750
                                  23425018.004
        18.750
 101826892.769 8                  19075609.514
        52.000
 129989081.611 6 101290220.86445  24736105.517    24736104.677    24736115.516
        37.500          34.500
 107810796.539 8                  20139964.399
        51.750
 128176671.484 7                  23978089.660
        43.000
 21 10 20 11  7 30.0000000  0 25G17G03G04R04G06G07G19G09S25R19E11S23
                                E04R17S48E12G02E19G20S36R02R18G30R03
                                R05
 113549144.965 7  88479843.61346  21607688.413    21607688.118    21607688.663
        47.000          38.750


 116900866.207 7  91091582.74545  22245498.019    22245497.814    22245499.044
        44.750          34.000
 108970204.007 8                  20349415.880
        51.250
 109957159.815 8  85680912.58347  20924151.650    20924151.633    20924153.880
        49.250          43.000
 121512454.593 7  94685066.35647  23123040.465    23123040.063    23123042.309
        44.000          43.500
 109730152.083 8  85504000.87346  20880956.264    20880955.080    20880954.219
        48.500          41.500
 106909470.426 8  83306084.39649  20344196.691    20344196.249    20344197.845
        51.250          56.250
 179929985.762 8                  34239654.486
        48.750
 112485784.564 6                  21028029.582
        39.750
 134926024.100 5                  25675569.399
        34.000
 203894234.165 7                  38799786.228
        43.500
 131910695.826 7                  25101769.430
        46.250
 112291354.788 8                  20984330.284
        49.250
  30674999.461 7                   5837335.927
        43.500
 115928668.668 7                  22060493.033
        45.500
 128841373.123 6 100395869.32844  24517698.193    24517697.165    24517696.666
        39.250          27.500
 122200160.078 7                  23253918.313
        44.000
 128038531.672 6  99770305.68543  24364921.168    24364920.122    24364921.382
        37.250          21.500
 195090173.515 7                  37124428.230
        46.750
                                  23443973.802
        19.750
 101825986.605 8                  19075439.905
        52.000
 129902241.568 6 101222553.60745  24719580.129    24719579.302    24719590.098
        38.250          34.750
 107870172.343 8                  20151056.141
        51.250
 128087753.438 7                  23961455.947
        44.750
 21 10 20 11  8  0.0000000  0 25G17G03G04R04G06G07G19G09S25R19E11S23
                                E04R17S48E12G02E19G20S36R02R18G30R03
                                R05
 113625515.534 7  88539353.05046  21622221.294    21622220.995    21622221.463
        46.750          38.250


 116982636.237 7  91155299.60545  22261058.269    22261058.055    22261058.846
        44.500          33.500
 108939961.433 8                  20343768.253
        51.250
 109902401.913 8  85638244.07247  20913731.925    20913731.908    20913733.560
        49.250          42.750
 121442416.632 7  94630491.40947  23109712.297    23109711.891    23109714.463
        43.750          43.500
 109780880.840 8  85543529.72046  20890609.771    20890608.587    20890607.652
        48.500          41.250
 106932648.232 8  83324145.01249  20348607.401    20348606.959    20348608.354
        51.250          56.000
 179931440.475 8                  34239936.699
        48.500
 112385336.199 6                  21009251.368
        39.000
 134846422.447 5                  25660422.022
        34.250
 203894323.863 7                  38799803.091
        43.250
 131856796.195 7                  25091512.758
        46.500
 112396175.947 8                  21003919.156
        49.500
  30674482.306 7                   5837281.033
        43.250
 115894381.611 7                  22053968.492
        45.500
 128753939.595 6 100327739.35344  24501060.681    24501059.649    24501058.729
        39.750          28.000
 122225968.805 7                  23258829.458
        44.500
 127973302.070 6  99719477.43743  24352508.279    24352507.224    24352508.695
        37.250          22.250
 195090154.757 7                  37124423.915
        46.750


 101825845.807 8                  19075413.509
        52.000
 129815267.878 6 101154782.19845  24703028.955    24703028.128    24703039.626
        38.500          35.250
 107929804.250 8                  20162195.974
        51.500
 127999095.454 7                  23944869.429
        42.250
 21 10 20 11  8 30.0000000  0 24G17G03G04R04G06G07G19G09S25R19E11S23
                                E04R17S48E12G02E19G20S36R18G30R03R05
 113702233.888 7  88599133.49246  21636820.483    21636820.184    21636820.470
        47.000          38.000


 117064688.715 7  91219236.56745  22276672.308    22276672.103    22276673.180
        45.000          34.000
 108910181.012 8                  20338207.295
        51.250
 109847923.802 8  85595793.58947  20903364.947    20903364.930    20903367.078
        49.250          43.000
 121372519.358 7  94576026.08447  23096411.587    23096411.190    23096413.533
        44.000          43.250
 109832158.894 8  85583486.59146  20900367.672    20900366.488    20900365.555
        48.250          41.250
 106956330.692 8  83342598.86449  20353113.970    20353113.523    20353115.101
        51.250          56.000
 179932898.493 8                  34240219.668
        48.750
 112285291.593 6                  20990548.583
        39.250
 134766823.794 5                  25645274.779
        35.750
 203894417.097 7                  38799821.138
        43.250
 131803163.360 7                  25081306.685
        46.500
 112501468.814 8                  21023595.372
        49.750
  30673965.589 7                   5837225.590
        43.500
 115860362.658 7                  22047494.939
        45.500
 128666489.942 6 100259596.80744  24484419.094    24484418.057    24484417.483
        40.750          28.250
 122252058.405 7                  23263794.223
        44.500
 127908082.786 6  99668657.23543  24340097.600    24340096.554    24340098.118
        38.750          22.000
 195090138.002 7                  37124421.979
        46.750
 101826479.407 8                  19075532.435
        52.000
 129728170.485 6 101086914.41345  24686455.234    24686454.412    24686465.235
        38.000          35.000
 107989697.056 8                  20173384.669
        51.000
 127910706.422 7                  23928334.089
        43.750
 21 10 20 11  9  0.0000000  0 23G17G04R04G06G07G19G09S25R19E11S23E04
                                R17S48E12G02E19G20S36R18G30R03R05
 113779289.252 7  88659176.54246  21651483.520    21651483.212    21651483.739
        47.000          38.250
 117147013.025 7  91283385.32645  22292338.192    22292337.987    22292339.514
        44.750          34.250
 108880853.536 8                  20332730.126
        51.500
 109793719.743 8  85553556.65147  20893050.264    20893050.247    20893052.498
        49.000          43.000
 121302757.719 7  94521666.44747  23083136.368    23083135.971    23083138.426
        43.500          43.000
 109883975.785 8  85623863.33646  20910228.183    20910226.999    20910226.042
        48.250          41.000
 106980508.201 8  83361438.46649  20357714.806    20357714.364    20357715.953
        51.250          56.000
 179934360.278 8                  34240505.320
        48.750
 112185646.539 6                  20971921.364
        39.000
 134687221.389 5                  25630126.655
        35.500
 203894507.784 7                  38799838.130
        43.500
 131749789.625 7                  25071150.041
        46.500
 112607222.058 8                  21043357.881
        49.250
  30673448.354 7                   5837170.450
        43.500
 115826605.278 7                  22041071.238
        45.500
 128579017.522 6 100191436.50944  24467773.768    24467772.700    24467771.751
        41.000          27.750
 122278419.499 7                  23268810.634
        44.250
 127842865.052 6  99617838.22643  24327687.613    24327686.572    24327687.169
        39.000          22.500
 195090115.351 7                  37124419.238
        46.750
 101827880.323 8                  19075794.500
        51.750
 129640943.753 6 101018945.83945  24669856.364    24669855.537    24669866.259
        38.250          34.750
 108049839.622 8                  20184619.575
        51.000
 127822578.836 7                  23911848.262
        43.000
 21 10 20 11  9 30.0000000  0 23G17G04R04G06G07G19G09S25R19E11S23E04
                                R17S48E12G02E19G20S36R18G30R03R05
 113856685.451 7  88719485.16946  21666211.794    21666211.495    21666212.034
        47.000          38.250
 117229613.181 7  91347749.03445  22308056.119    22308055.909    22308057.647
        44.750          33.750
 108851984.520 8                  20327339.021
        51.250
 109739798.552 8  85511540.13047  20882789.454    20882789.437    20882791.573
        49.250          43.000
 121233140.735 7  94467419.52747  23069888.334    23069887.941    23069890.645
        44.000          43.250
 109936336.004 8  85664663.45246  20920192.128    20920190.926    20920190.136
        48.250          41.500
 107005185.757 8  83380667.71649  20362410.705    20362410.263    20362411.922
        51.500          56.000
 179935831.082 8                  34240793.243
        48.500
 112086411.979 6                  20953370.104
        39.250
 134607623.138 6                  25614979.691
        36.250
 203894603.286 7                  38799856.173
        43.250
 131696681.882 7                  25061043.930
        46.750
 112713439.075 8                  21063207.287
        49.250
  30672938.187 7                   5837117.658
        43.500
 115793117.533 7                  22034698.652
        45.750
 128491530.447 6 100123264.79044  24451125.466    24451124.407    24451123.203
        40.750          26.750
 122305057.346 7                  23273879.647
        44.500
 127777655.085 6  99567025.29943  24315278.096    24315277.028    24315278.779
        37.500          22.000
 195090099.960 7                  37124415.477
        46.750
 101830056.077 8                  19076202.145
        52.000
 129553596.506 6 100950883.36845  24653234.376    24653233.545    24653244.684
        38.500          35.750
 108110235.643 8                  20195902.133
        51.250
 127734720.522 7                  23895412.882
        42.750
 21 10 20 11 10  0.0000000  0 23G17G04R04G06G07G19G09S25R19E11S23E04
                                R17S48E12G02E19G20S36R18G30R03R05
 113934421.270 7  88780058.43946  21681004.486    21681004.191    21681004.734
        46.500          38.250
 117312488.178 7  91412326.91445  22323827.150    22323826.940    22323827.893
        44.250          33.250
 108823574.518 8                  20322033.942
        51.750
 109686164.106 8  85469747.04347  20872583.168    20872583.146    20872585.274
        48.750          43.250
 121163672.803 7  94413288.75447  23056668.984    23056668.587    23056671.196
        43.750          43.500
 109989238.825 8  85705886.37446  20930259.323    20930258.121    20930257.395
        48.000          41.500
 107030363.371 8  83400286.61749  20367201.878    20367201.436    20367203.096
        51.000          56.000
 179937318.899 8                  34241082.052
        48.750
 111987593.773 6                  20934897.832
        39.500
 134528032.072 5                  25599834.105
        35.500
 203894700.932 7                  38799875.482
        43.750
 131643842.086 7                  25050988.772
        46.500
 112820118.654 8                  21083143.535
        49.500
  30672434.638 7                   5837063.847
        43.500
 115759902.533 7                  22028378.156
        45.500
 128404031.999 6 100055084.18844  24434474.470    24434473.433    24434472.437
        39.750          25.750
 122331972.240 7                  23279001.327
        44.250
 127712454.136 6  99516219.39343  24302870.209    24302869.168    24302871.484
        36.750          22.250
 195090095.347 7                  37124412.861
        47.000
 101833009.626 8                  19076755.671
        51.750
 129466132.697 6 100882730.07445  24636590.213    24636589.364    24636600.513
        37.500          35.250
 108170883.834 8                  20207232.067
        51.500
 127647133.893 7                  23879027.148
        42.500
 21 10 20 11 10 30.0000000  0 23G17G04R04G06G07G19G09S25R19E11S23E04
                                R17S48E12G02E19G20S36R18G30R03R05
 114012480.151 7  88840883.44846  21695858.701    21695858.402    21695859.030
        46.250          38.250
 117395621.673 7  91477106.21845  22339646.870    22339646.660    22339647.796
        44.500          33.750
 108795607.922 8                  20316811.387
        51.500
 109632804.886 8  85428168.42447  20862429.146    20862429.124    20862431.364
        49.000          43.250
 121094343.178 7  94359265.75947  23043475.745    23043475.356    23043478.206
        44.000          43.500
 110042668.091 8  85747519.51646  20940426.414    20940425.216    20940424.457
        48.000          41.250
 107056025.692 8  83420283.21149  20372085.257    20372084.815    20372086.429
        51.000          56.000
 179939598.43418                  34241371.795
        48.750
 111889182.042 6                  20916500.287
        39.500
 134448435.804 5                  25584687.461
        34.750
 203894789.162 7                  38799892.309
        43.500
 131591256.828 7                  25040982.110
        46.500
 112927243.577 8                  21103162.322
        49.750
  30673516.811 7                   5837008.488
        43.500
 115726948.040 7                  22022106.960
        45.500
 128316509.925 6  99986885.18244  24417819.512    24417818.502    24417817.007
        39.500          25.250
 122359149.107 7                  23284173.126
        44.000
 127647248.291 6  99465409.64443  24290462.439    24290461.389    24290462.906
        37.250          22.000
 195090080.102 7                  37124409.659
        46.750
 101836727.526 8                  19077452.402
        52.250
 129378540.934 6 100814477.08145  24619921.608    24619920.768    24619931.967
        37.250          35.500
 108231767.208 8                  20218605.376
        51.500
 127559805.697 7                  23862691.205
        43.250
 21 10 20 11 11  0.0000000  0 23G17G04R04G06G07G19G09S25R19E11S23E04
                                R17S48E12G02E19G20S36R18G30R03R05
 114090876.620 7  88901971.49646  21710776.930    21710776.631    21710777.494
        46.250          38.250
 117479028.512 7  91542098.51345  22355518.672    22355518.476    22355519.820
        44.250          33.500
 108768101.715 8                  20311674.215
        51.250
 109579740.499 8  85386819.54047  20852331.335    20852331.313    20852333.416
        49.250          43.250
 121025171.813 7  94305366.07647  23030312.876    23030312.483    23030314.965
        44.000          43.500
 110096638.649 8  85789574.44546  20950696.904    20950695.702    20950694.544
        48.250          41.250
 107082188.542 8  83440669.82549  20377063.999    20377063.561    20377065.313
        51.250          56.250
 179941100.118 8                  34241664.570
        48.750
 111791199.208 6                  20898183.491
        39.750
 134368853.144 5                  25569543.140
        34.500
 203894887.865 7                  38799909.954
        43.250
 131538943.817 7                  25031027.412
        46.500
 113034828.114 8                  21123267.459
        49.250
  30673009.262 7                   5836954.234
        43.500
 115694272.964 7                  22015889.167
        45.500
 128228983.386 6  99918682.71044  24401163.918    24401162.894    24401161.335
        40.250          26.250
 122386604.022 7                  23289397.451
        44.250
 127582054.457 6  99414609.28443  24278056.000    24278054.981    24278056.197
        38.000          22.000
 195090066.978 7                  37124407.924
        46.750
 101841228.615 8                  19078295.303
        52.000
 129290840.978 6 100746139.76645  24603233.061    24603232.243    24603242.441
        38.750          35.750
 108292901.014 8                  20230025.928
        51.750
 127472754.611 6                  23846405.304
        41.000
 21 10 20 11 11 30.0000000  0 23G17G04R04G06G07G19G09S25R19E11S23E04
                                R17S48E12G02E19G20S36R18G30R03R05
 114169593.330 7  88963309.08746  21725756.139    21725755.835    21725756.898
        46.500          37.750
 117562691.730 7  91607290.58545  22371439.304    22371439.112    22371440.335
        44.250          33.000
 108741039.919 8                  20306621.012
        51.250
 109526959.058 8  85345691.13147  20842287.349    20842287.336    20842289.172
        49.500          43.000
 120956146.889 7  94251580.51247  23017177.748    23017177.355    23017179.668
        44.000          43.250
 110151133.794 8  85832038.14346  20961066.977    20961065.779    20961064.881
        48.500          41.250
 107108835.881 8  83461433.96249  20382134.769    20382134.331    20382136.111
        51.250          56.000
 179942608.057 8                  34241957.761
        49.000
 111693634.658 6                  20879945.070
        39.250
 134289271.036 5                  25554399.286
        34.250
 203894979.383 7                  38799927.965
        43.750
 131486888.974 7                  25021121.650
        46.500
 113142854.617 8                  21143454.779
        49.500
  30672498.934 7                   5836899.009
        43.500
 115661864.400 7                  22009722.048
        45.500
 128141439.515 6  99850466.74744  24384504.881    24384503.857    24384502.730
        40.500          27.000
 122414321.248 7                  23294672.046
        44.250
 127516857.892 6  99363806.80043  24265649.641    24265648.600    24265650.074
        38.750          22.500
 195090047.595 7                  37124405.653
        46.750
 101846499.145 8                  19079282.645
        52.000
 129203020.780 6 100677708.74345  24586521.023    24586520.228    24586530.713
        38.250          35.500
 108354266.936 8                  20241489.408
        51.000
 127385966.715 7                  23830170.974
        43.500
 21 10 20 11 12  0.0000000  0 23G17G04R04G06G07G19G09S25R19E11S23E04
                                R17S48E12G02E19G20S36R18G30R03R05
 114248637.569 7  89024901.89646  21740798.103    21740797.799    21740798.537
        46.500          37.750
 117646618.725 7  91672688.20245  22387410.251    22387410.073    22387411.223
        44.000          33.500
 108714431.469 8                  20301652.313
        51.500
 109474472.688 8  85304792.64747  20832299.713    20832299.696    20832301.562
        49.250          43.500
 120887281.592 7  94197919.33047  23004073.148    23004072.759    23004075.131
        43.750          43.500
 110206161.140 8  85874916.53646  20971538.467    20971537.269    20971536.370
        48.250          41.500
 107135976.034 8  83482582.11449  20387299.330    20387298.888    20387300.616
        51.250          56.000
 179944123.837 8                  34242252.132
        48.750
 111596503.032 6                  20861787.051
        39.750
 134209700.905 5                  25539257.350
        34.000
 203895074.542 7                  38799945.861
        43.500
 131435102.582 7                  25011266.977
        46.500
 113251329.881 8                  21163725.719
        49.000
  30671993.563 7                   5836846.293
        43.750
 115629733.813 7                  22003607.828
        45.250
 128053889.985 6  99782246.38344  24367845.332    24367844.317    24367843.302
        41.750          29.750
 122442309.455 7                  23299997.957
        44.250
 127451668.445 6  99313009.84443  24253244.967    24253243.921    24253245.046
        38.750          22.750
 195090036.409 7                  37124401.897
        47.000
 101852549.771 8                  19080416.257
        52.000
 129115092.693 6 100609193.65145  24569789.032    24569788.241    24569798.434
        38.000          35.750
 108415872.599 8                  20252998.180
        51.500
 127299453.066 7                  23813984.825
        42.500
 21 10 20 11 12 30.0000000  0 23G17G04R04G06G07G19G09S25R19E11S23E04
                                R17S48E12G02E19G20S36R18G30R03R05
 114328002.461 7  89086744.57046  21755900.813    21755900.505    21755901.308
        46.750          38.000
 117730802.757 7  91738286.10045  22403429.648    22403429.461    22403430.864
        44.000          33.250
 108688270.779 8                  20296766.593
        51.750
 109422279.457 8  85264122.58947  20822367.653    20822367.636    20822369.896
        49.500          43.750
 120818574.050 7  94144381.07547  22990998.572    22990998.179    22991000.527
        44.250          44.250
 110261714.126 8  85918204.52346  20982109.866    20982108.668    20982107.563
        48.250          41.500
 107163603.168 8  83504109.73349  20392556.641    20392556.199    20392557.898
        51.250          56.250
 179945644.006 8                  34242548.677
        48.750
 111499803.764 6                  20843710.464
        40.000
 134130139.980 5                  25524117.347
        33.750
 203895171.831 7                  38799964.946
        43.500
 131383580.753 7                  25001462.726
        46.250
 113360246.426 8                  21184079.722
        49.250
  30671487.894 7                   5836791.713
        43.250
 115597878.509 7                  21997546.153
        45.500
 127966332.275 7  99714019.63145  24351183.641    24351182.635    24351181.585
        42.000          30.250
 122470563.105 7                  23305374.458
        44.250
 127386481.744 6  99262215.02443  24240839.684    24240838.660    24240840.702
        38.250          23.000
 195090020.295 7                  37124400.027
        47.000
 101859377.023 8                  19081695.239
        52.000
 129027054.938 6 100540593.09346  24553035.330    24553034.517    24553044.941
        38.250          36.000
 108477710.693 8                  20264549.617
        51.000
 127213209.941 7                  23797852.073
        42.500
 21 10 20 11 13  0.0000000  0 23G17G04R04G06G07G19G09S25R19E11S23E04
                                R17S48E12G02E19G20S36R18G30R03R05
 114407685.963 7  89148835.50946  21771064.423    21771064.110    21771064.670
        46.500          37.750
 117815241.936 7  91804082.80745  22419497.872    22419497.680    22419499.354
        43.750          32.750
 108662557.203 8                  20291964.829
        51.250
 109370382.335 8  85223683.25847  20812491.841    20812491.824    20812493.888
        49.250          43.250
 120750027.607 7  94090968.35647  22977954.374    22977953.981    22977956.652
        44.000          44.000
 110317790.842 8  85961900.61246  20992780.773    20992779.575    20992778.567
        48.250          40.750
 107191716.284 8  83526016.04049  20397906.456    20397906.018    20397907.618
        51.000          55.750
 179947169.708 8                  34242845.660
        48.750
 111403542.708 6                  20825715.407
        40.000
 134050590.359 5                  25508979.422
        35.000
 203895267.969 7                  38799982.591
        43.500
 131332324.455 7                  24991708.976
        46.750
 113469601.870 8                  21204515.028
        49.000
  30670983.867 7                   5836736.372
        43.250
 115566300.668 7                  21991536.926
        45.750
 127878768.478 6  99645788.13744  24334520.213    24334519.225    24334518.696
        41.250          29.750
 122499081.528 7                  23310801.312
        44.500
 127321297.907 6  99211422.41843  24228435.060    24228434.050    24228436.502
        38.000          22.000
 195090003.862 7                  37124396.969
        46.750
 101866982.647 8                  19083120.136
        52.000
 128938910.551 6 100471909.44345  24536260.753    24536259.926    24536271.030
        38.250          35.250
 108539779.055 8                  20276144.759
        51.000
 127127239.151 7                  23781769.118
        42.500
 21 10 20 11 13 30.0000000  0 23G17G04R04G06G07G19G09S25R19E11S23E04
                                R17S48E12G02E19G20S36R18G30R03R05
 114487683.273 7  89211170.96746  21786287.261    21786286.953    21786287.938
        46.250          37.750
 117899931.615 7  91870074.71745  22435613.847    22435613.651    22435614.898
        44.000          32.250
 108637287.406 8                  20287246.032
        51.000
 109318781.541 8  85183474.83347  20802672.562    20802672.549    20802674.568
        49.000          43.250
 120681643.112 7  94037681.82347  22964941.147    22964940.750    22964943.591
        43.750          44.000
 110374386.837 8  86006001.33346  21003550.881    21003549.679    21003548.537
        48.000          40.750
 107220311.614 8  83548298.09149  20403348.044    20403347.606    20403349.166
        51.000          55.500
 179948702.634 8                  34243144.118
        49.000
 111307721.661 6                  20807803.362
        39.500
 133971051.408 5                  25493844.120
        34.500
 203895361.521 7                  38800000.701
        43.500
 131281331.906 7                  24982005.322
        46.750
 113579390.589 8                  21225031.831
        49.000
  30670479.849 7                   5836681.196
        43.750
 115534999.709 7                  21985580.583
        45.500
 127791198.373 6  99577551.73844  24317856.371    24317855.379    24317854.551
        41.000          28.500
 122527861.359 7                  23316277.853
        44.500
 127256114.732 6  99160630.34243  24216031.786    24216030.762    24216031.948
        37.250          21.500
 195089993.033 7                  37124395.766
        47.000
 101875364.994 8                  19084690.436
        52.250
 128850659.905 6 100403143.00646  24519467.693    24519466.871    24519477.454
        38.250          36.000
 108602072.961 8                  20287781.899
        51.250
 127041538.998 7                  23765736.252
        42.250
 21 10 20 11 14  0.0000000  0 23G17G04R04G06G07G19G09S25R19E11S23E04
                                R17S48E12G02E19G20S36R18G30R03R05
 114567995.747 7  89273752.00846  21801570.212    21801569.899    21801570.969
        46.750          37.750
 117984873.852 7  91936263.43445  22451778.125    22451777.942    22451778.754
        44.500          32.750
 108612465.030 8                  20282610.375
        51.000
 109267483.990 8  85143502.70447  20792911.053    20792911.036    20792913.306
        49.500          43.500
 120613427.848 7  93984527.16147  22951960.163    22951959.770    22951962.497
        44.000          43.750
 110431504.384 8  86050508.45946  21014419.952    21014418.750    21014417.827
        48.000          40.750
 107249392.118 8  83570958.20549  20408881.850    20408881.412    20408883.027
        51.000          55.750
 179950241.240 8                  34243445.671
        48.750
 111212349.539 6                  20789974.991
        39.750
 133891529.180 5                  25478711.471
        35.750
 203895458.578 7                  38800018.198
        43.250
 131230608.018 7                  24972352.955
        46.750
 113689614.102 8                  21245630.330
        49.000
  30671580.322 7                   5836629.379
        43.500
 115503981.765 7                  21979678.034
        45.750
 127703628.304 6  99509315.35944  24301191.733    24301190.763    24301190.338
        40.250          27.000
 122556905.848 7                  23321804.922
        44.500
 127190936.590 6  99109842.16143  24203629.136    24203628.117    24203629.317
        38.250          21.750
 195089981.714 7                  37124392.502
        46.750
 101884529.370 8                  19086407.022
        52.000
 128762310.046 6 100334299.24746  24502655.241    24502654.423    24502664.547
        38.000          36.000
 108664594.079 8                  20299461.250
        51.000
 126956115.229 6                  23749756.971
        41.500
 21 10 20 11 14 30.0000000  0 23G17G04R04G06G07G19G09S25R19E11S23E04
                                R17S48E12G02E19G20S36R18G30R03R05
 114648621.536 7  89336577.18946  21816912.899    21816912.591    21816913.612
        47.000          38.000
 118070066.973 7  92002647.64445  22467989.614    22467989.422    22467991.033
        43.750          32.750
 108588089.446 8                  20278058.649
        51.250
 109216492.779 8  85103769.27947  20783207.671    20783207.658    20783209.782
        49.250          43.500
 120545385.625 7  93931507.33347  22939012.398    22939012.009    22939014.292
        43.750          43.750
 110489141.873 8  86095420.73446  21025388.071    21025386.869    21025386.122
        48.000          41.000
 107278956.922 8  83593995.69249  20414507.795    20414507.357    20414509.053
        51.000          55.750
 179951787.446 8                  34243749.111
        48.750
 111117431.400 6                  20772230.447
        39.750
 133812025.985 6                  25463582.571
        36.250
 203895559.024 7                  38800037.247
        43.250
 131180153.902 7                  24962751.739
        46.750
 113800270.114 8                  21266308.468
        48.750
  30671084.408 7                   5836575.608
        43.500
 115473249.124 7                  21973829.816
        45.750
 127616060.628 6  99441080.83944  24284528.309    24284527.344    24284526.233
        40.500          26.000
 122586214.529 7                  23327382.283
        44.500
 127125763.889 6  99059058.23743  24191226.754    24191225.708    24191226.802
        38.250          21.000
 195089972.325 7                  37124391.764
        46.750
 101894477.244 8                  19088271.029
        51.750
 128673864.240 6 100265380.72446  24485824.770    24485823.966    24485833.744
        38.000          36.500
 108727340.565 8                  20311182.875
        51.000
 126870969.498 7                  23733828.978
        43.500
 21 10 20 11 15  0.0000000  0 23G17G04R04G06G07G19G09S25R19E11S23E04
                                R17S48E12G02E19G20S36R18G30R03R05
 114729546.511 7  89399635.50346  21832312.547    21832312.239    21832313.258
        47.000          38.250
 118155496.984 7  92069216.43145  22484246.867    22484246.689    22484247.849
        44.250          32.750
 108564147.728 8                  20273587.351
        51.500
 109165798.802 8  85064267.45947  20773560.931    20773560.918    20773562.901
        49.500          43.500
 120477507.447 7  93878615.32247  22926095.290    22926094.901    22926097.197
        44.000          43.750
 110547285.339 8  86140727.27246  21036452.543    21036451.341    21036450.589
        48.250          41.250
 107308992.850 8  83617400.29049  20420223.674    20420223.236    20420224.811
        51.250          56.000
 179953345.220 8                  34244052.734
        48.750
 111022960.264 6                  20754569.718
        39.500
 133732531.803 6                  25448455.365
        36.000
 203895653.135 7                  38800055.554
        43.250
 131129958.393 7                  24953199.881
        46.500
 113911343.629 8                  21287066.120
        48.750
  30670578.985 7                   5836523.151
        43.500
 115442791.859 7                  21968034.031
        45.500
 127528485.636 6  99372840.59344  24267863.104    24267862.130    24267860.625
        40.250          25.250
 122615774.599 7                  23333007.405
        44.250
 127060584.822 6  99008269.33143  24178823.807    24178822.783    24178824.247
        38.250          21.750
 195089956.161 7                  37124388.236
        46.500
 101905197.882 8                  19090279.071
        52.000
 128585313.452 6 100196380.39446  24468973.619    24468972.837    24468982.783
        39.000          36.750
 108790297.731 8                  20322943.999
        51.250
 126786090.591 6                  23717950.800
        41.750
 21 10 20 11 15 30.0000000  0 23G17G04R04G06G07G19G09S25R19E11S23E04
                                R17S48E12G02E19G20S36R18G30R03R05
 114810775.528 7  89462930.73246  21847770.019    21847769.711    21847770.741
        46.500          37.750
 118241169.080 7  92135973.86745  22500549.376    22500549.184    22500550.366
        43.750          32.500
 108540646.490 8                  20269198.881
        51.750
 109115412.052 8  85025005.04547  20763972.748    20763972.731    20763975.022
        49.250          43.750
 120409804.055 7  93825859.50247  22913211.987    22913211.594    22913213.630
        44.250          44.000
 110605939.895 8  86186432.06346  21047613.829    21047612.627    21047612.304
        48.250          41.000
 107339505.932 8  83641176.69749  20426029.831    20426029.389    20426031.289
        51.000          55.750
 179954906.083 8                  34244357.180
        49.000
 110928947.839 6                  20736995.541
        40.000
 133653055.875 5                  25433331.574
        35.750
 203895748.585 7                  38800073.029
        43.500
 131080029.499 7                  24943698.787
        46.250
 114022839.016 8                  21307901.730
        49.000
  30670076.690 7                   5836467.663
        43.750
 115412619.186 7                  21962292.467
        45.250
 127440913.020 6  99304602.21244  24251199.327    24251198.357    24251196.547
        41.000          26.000
 122645592.452 7                  23338681.487
        44.250
 126995407.132 6  98957481.50243  24166420.954    24166419.930    24166421.196
        38.250          21.250
 195089941.615 7                  37124384.806
        47.000
 101916699.443 8                  19092433.906
        52.000
 128496667.916 6 100127306.23546  24452104.581    24452103.799    24452113.793
        38.750          36.500
 108853470.820 8                  20334745.107
        51.000
 126701487.374 7                  23702122.900
        43.500
 21 10 20 11 16  0.0000000  0 23G17G04R04G06G07G19G09S25R19E11S23E04
                                R17S48E12G02E19G20S36R18G30R03R05
 114892311.840 7  89526465.41046  21863286.043    21863285.735    21863286.587
        46.750          37.500
 118327086.875 7  92202922.75445  22516899.123    22516898.936    22516899.870
        43.750          32.250
 108517590.572 8                  20264893.397
        51.750
 109065340.954 8  84985988.59647  20754444.494    20754444.481    20754446.911
        49.750          43.750
 120342284.171 7  93773246.67247  22900363.356    22900362.963    22900365.097
        44.250          44.250
 110665108.860 8  86232537.69146  21058873.427    21058872.220    21058871.872
        48.000          41.000
 107370500.528 8  83665328.31049  20431927.978    20431927.536    20431929.274
        51.000          55.500
 179956486.638 8                  34244666.907
        49.000
 110835404.609 6                  20719508.433
        39.750
 133573605.802 5                  25418212.631
        35.750
 203895849.097 7                  38800091.989
        43.500
 131030373.595 7                  24934249.708
        47.000
 114134759.429 8                  21328816.827
        49.250
  30669581.764 7                   5836414.549
        43.750
 115382738.706 7                  21956606.409
        45.750
 127353350.433 6  99236371.64644  24234536.535    24234535.556    24234533.962
        41.750          28.250
 122675672.874 7                  23344405.637
        44.500
 126930236.635 6  98906699.27843  24154018.983    24154017.942    24154019.428
        39.000          21.500
 195089929.827 7                  37124382.552
        47.000
 101928988.439 8                  19094736.073
        52.000
 128407936.199 6 100058164.90746  24435219.413    24435218.640    24435228.387
        38.250          36.000
 108916863.149 8                  20346587.553
        51.250
 126617166.879 7                  23686350.031
        42.750
 21 10 20 11 16 30.0000000  0 23G17G04R04G06G07G19G09S25R19E11S23E04
                                R17S48E12G02E19G20S36R18G30R03R05
 114974142.276 7  89590229.27446  21878857.689    21878857.376    21878858.498
        46.500          37.500
 118413237.663 7  92270053.19745  22533293.305    22533293.118    22533294.202
        44.000          32.750
 108494968.130 8                  20260669.006
        51.750
 109015577.684 8  84947212.00447  20744974.806    20744974.793    20744976.909
        49.500          44.000
 120274940.578 7  93720771.20947  22887547.966    22887547.569    22887549.999
        44.000          44.500
 110724779.696 8  86279034.38946  21070228.541    21070227.334    21070226.883
        48.000          41.000
 107401964.797 8  83689845.90449  20437915.461    20437915.023    20437916.495
        51.250          55.750
 179958062.594 8                  34244976.594
        48.750
 110742325.288 6                  20702108.532
        39.500
 133494172.879 6                  25403097.284
        36.000
 203895945.603 7                  38800110.685
        43.250
 130980980.803 7                  24924850.375
        47.250
 114247090.957 8                  21349808.553
        49.250
  30669083.269 7                   5836359.955
        43.500
 115353141.780 7                  21950974.155
        46.000
 127265789.573 7  99168142.42344  24217874.215    24217873.232    24217871.427
        42.000          29.000
 122706004.423 7                  23350177.546
        44.750
 126865062.911 6  98855914.54743  24141618.539    24141617.480    24141616.851
        38.500          21.500
 195089916.271 7                  37124380.764
        46.750
 101942055.451 8                  19097184.023
        52.000
 128319110.663 6  99988950.45646  24418316.191    24418315.404    24418325.095
        38.500          36.750
 108980461.405 8                  20358468.082
        51.250
 126533119.465 7                  23670626.265
        43.250
 21 10 20 11 17  0.0000000  0 23G17G04R04G06G07G19G09S25R19E11S23E04
                                R17S48E12G02E19G20S36R18G30R03R05
 115056269.713 7  89654224.56846  21894486.016    21894485.708    21894487.061
        46.250          37.750
 118499624.618 7  92337367.65945  22549732.195    22549732.003    22549733.456
        43.500          33.000
 108472783.805 8                  20256526.100
        51.750
 108966130.158 8  84908681.44747  20735565.348    20735565.331    20735567.421
        49.250          44.000
 120207781.492 7  93668439.51647  22874768.128    22874767.739    22874770.035
        44.250          44.500
 110784955.662 8  86325924.69046  21081679.706    21081678.499    21081677.796
        48.000          41.000
 107433902.562 8  83714732.45649  20443993.190    20443992.752    20443994.105
        51.000          56.000
 179959657.250 8                  34245287.371
        49.000
 110649719.275 6                  20684796.808
        39.750
 133414764.237 5                  25387985.838
        35.500
 203896044.721 7                  38800128.052
        43.250
 130931856.990 7                  24915502.410
        47.250
 114359836.349 8                  21370878.347
        49.000
  30668591.137 7                   5836308.017
        43.500
 115323835.494 7                  21945397.412
        46.000
 127178237.637 6  99099920.16744  24201213.516    24201212.519    24201211.239
        41.750          29.750
 122736591.347 7                  23355998.044
        44.750
 126799891.394 6  98805131.53943  24129216.060    24129214.969    24129215.396
        39.500          22.250
 195089908.373 7                  37124377.853
        47.000
 101955906.287 8                  19099778.620
        51.750
 128230199.381 6  99919669.20846  24401396.671    24401395.862    24401405.932
        39.250          37.250
 109044268.877 8                  20370387.818
        51.000
 126449351.358 7                  23654956.009
        42.250
 21 10 20 11 17 30.0000000  0 23G17G04R04G06G07G19G09S25R19E11S23E04
                                R17S48E12G02E19G20S36R18G30R03R05
 115138692.018 7  89718449.62646  21910170.874    21910170.570    21910171.711
        46.000          37.500
 118586245.306 7  92404864.24745  22566215.223    22566215.036    22566216.867
        44.250          32.500
 108451036.300 8                  20252464.904
        51.500
 108917000.810 8  84870398.82947  20726216.198    20726216.181    20726218.783
        49.000          44.000
 120140809.625 7  93616253.70547  22862023.544    22862023.147    22862025.701
        44.250          44.500
 110845634.199 7  86373206.61246  21093226.489    21093225.287    21093224.371
        47.750          40.750
 107466312.217 8  83739986.71349  20450160.352    20450159.919    20450161.734
        50.750          55.750
 179961266.505 8                  34245599.848
        48.750
 110557591.155 6                  20667574.068
        40.000
 133335381.571 5                  25372879.640
        34.750
 203896145.476 7                  38800148.349
        43.250
 130883002.555 7                  24906205.748
        47.000
 114472992.205 8                  21392024.348
        49.250
  30669701.372 7                   5836255.565
        43.500
 115294821.477 7                  21939876.314
        45.750
 127090696.710 6  99031706.48444  24184554.936    24184553.917    24184552.862
        40.750          29.250
 122767432.482 7                  23361867.065
        44.500
 126734722.114 6  98754350.28843  24116814.412    24116813.357    24116814.411
        38.500          22.000
 195089902.427 7                  37124374.673
        46.750
 101970541.402 8                  19102520.447
        52.250
 128141205.029 6  99850323.23046  24384461.589    24384460.785    24384470.404
        38.750          36.750
 109108282.743 8                  20382346.086
        51.250
 126365863.520 7                  23639338.425
        44.250
 21 10 20 11 18  0.0000000  0 23G17G04R04G06G07G19G09S25R19E11S23E04
                                R17S48E12G02E19G20S36R18G30R03R05
 115221401.963 7  89782898.81346  21925909.995    21925909.687    21925911.169
        46.250          37.500
 118673093.650 7  92472538.24045  22582742.149    22582741.953    22582743.457
        43.500          32.000
 108429720.241 8                  20248484.149
        51.250
 108868188.349 8  84832363.13347  20716927.521    20716927.504    20716929.824
        49.250          44.000
 120074024.423 7  93564213.34347  22849314.774    22849314.377    22849316.750
        45.000          44.500
 110906809.166 8  86420875.35946  21104867.666    21104866.459    21104865.690
        48.000          40.750
 107499188.346 8  83765604.45449  20456416.691    20456416.253    20456417.932
        51.000          56.000
 179962875.342 8                  34245913.300
        48.750
 110465941.383 6                  20650440.635
        39.750
 133256022.744 5                  25357778.404
        35.000
 203896246.108 7                  38800168.190
        43.250
 130834414.123 7                  24896959.711
        46.750
 114586551.464 8                  21413245.750
        49.000
  30669211.786 7                   5836202.067
        43.500
 115266097.612 7                  21934410.438
        45.500
 127003165.038 6  98963500.02744  24167898.145    24167897.130    24167896.251
        40.250          29.000
 122798522.842 7                  23367783.297
        44.000
 126669551.077 6  98703567.67643  24104412.375    24104411.307    24104412.678
        38.000          21.750
 195089887.151 7                  37124374.271
        46.750
 101985957.634 8                  19105408.584
        52.500
 128052126.527 6  99780911.67846  24367510.326    24367509.548    24367518.662
        39.500          37.500
 109172496.515 8                  20394341.789
        51.500
 126282652.884 7                  23623770.978
        42.500
 21 10 20 11 18 30.0000000  0 23G17G04R04G06G07G19G09S25R19E11S23E04
                                R17S48E12G02E19G20S36R18G30R03R05
 115304397.937 7  89847570.88046  21941703.455    21941703.147    21941704.833
        46.000          37.500
 118760167.991 7  92540388.32845  22599312.059    22599311.872    22599313.059
        43.500          32.000
 108408835.696 8                  20244583.745
        51.500
 108819695.976 8  84794576.85547  20707699.981    20707699.959    20707702.067
        49.000          44.000
 120007429.539 7  93512321.28347  22836642.077    22836641.680    22836644.091
        44.250          44.500
 110968478.836 7  86468929.58646  21116603.046    21116601.835    21116601.186
        47.750          40.750
 107532530.062 8  83791584.99249  20462761.253    20462760.815    20462762.641
        51.000          56.000
 179964488.974 8                  34246228.268
        48.750
 110374774.999 6                  20633397.574
        40.250
 133176690.175 5                  25342681.554
        35.250
 203896346.274 7                  38800185.168
        43.250
 130786092.827 7                  24887764.442
        46.750
 114700511.731 8                  21434541.852
        48.500
  30668721.690 7                   5836149.342
        43.500
 115237666.288 7                  21929000.197
        45.500
 126915644.917 6  98895302.57944  24151243.323    24151242.295    24151241.635
        40.000          28.250
 122829862.001 7                  23373746.904
        44.000
 126604378.949 6  98652784.20843  24092010.850    24092009.786    24092010.991
        38.000          22.000
 195089874.943 7                  37124372.214
        46.750
 102002156.382 8                  19108442.983
        52.250
 127962967.255 6  99711437.20546  24350543.225    24350542.452    24350551.815
        39.750          37.250
 109236908.542 8                  20406374.164
        50.750
 126199720.793 7                  23608257.250
        43.750
 21 10 20 11 19  0.0000000  0 23G17G04R04G06G07G19G09S25R19E11S23E04
                                R17S48E12G02E19G20S36R18G30R03R05
 115387673.936 7  89912461.14846  21957550.647    21957550.348    21957551.789
        46.000          37.500
 118847462.927 7  92608410.31045  22615923.696    22615923.509    22615924.837
        43.500          32.000
 108388377.774 8                  20240763.673
        51.250
 108771522.975 8  84757039.44347  20698532.867    20698532.850    20698535.420
        49.500          44.250
 119941024.442 7  93460577.11347  22824005.470    22824005.068    22824007.568
        44.000          44.000
 111030637.823 7  86517365.09846  21128431.666    21128430.459    21128429.697
        47.750          40.750
 107566332.590 8  83817924.60349  20469193.641    20469193.208    20469195.021
        50.750          55.750
 179966103.506 8                  34246544.023
        48.500
 110284093.435 6                  20616446.879
        39.750
 133097382.449 6                  25327590.008
        36.250
 203896441.622 7                  38800203.220
        43.000
 130738035.901 7                  24878619.525
        47.000
 114814866.671 8                  21455911.742
        48.750
  30668226.886 7                   5836095.861
        43.250
 115209525.940 7                  21923645.024
        45.500
 126828135.195 6  98827113.22644  24134590.747    24134589.710    24134589.227
        40.000          27.750
 122861445.656 7                  23379757.227
        44.500
 126539202.493 6  98601997.37543  24079607.769    24079606.701    24079607.555
        38.500          22.000
 195089862.669 7                  37124369.544
        46.500
 102019134.430 8                  19111623.724
        52.250
 127873726.749 6  99641899.42546  24333561.649    24333560.894    24333569.799
        39.250          38.000
 109301513.018 8                  20418443.297
        51.000
 126117065.425 7                  23592795.389
        44.000
