     2.11           OBSERVATION DATA    M (MIXED)           RINEX VERSION / TYPE
teqc  2019Feb25                         20230504 17:05:24UTCPGM / RUN BY / DATE
Linux2.6.32-573.12.1.el6.x86_64|x86_64|gcc|Win64-MinGW64|=+ COMMENT
BIT 2 OF LLI FLAGS DATA COLLECTED UNDER A/S CONDITION       COMMENT
-Unknown-                                                   MARKER NAME
-Unknown-           -Unknown-                               OBSERVER / AGENCY
-Unknown-           -Unknown-           -Unknown-           REC # / TYPE / VERS
-Unknown-           -Unknown-                               ANT # / TYPE
        0.0000        0.0000        0.0000                  APPROX POSITION XYZ
        0.0000        0.0000        0.0000                  ANTENNA: DELTA H/E/N
     1     1                                                WAVELENGTH FACT L1/2
     7    L1    L2    C1    P1    P2    S1    S2            # / TYPES OF OBSERV
 SNR is mapped to RINEX snr flag value [0-9]                COMMENT
  L1 & L2: min(max(int(snr_dBHz/6), 0), 9)                  COMMENT
  2021    10    12     0     0    0.0000000     GPS         TIME OF FIRST OBS
    18                                                      LEAP SECONDS
                                                            END OF HEADER
 21 10 12  0  0  0.0000000  0 26G31G16S48G32G25G18E05E09R09R22E31E12
                                G29E26R10S36S23R08E04R01S25R20E24E01
                                R21G26
 110339228.612 8  85978641.38247  20996844.736    20996844.450    20996842.329
        49.750          43.750
 130843882.242 5 101956290.34443  24898764.081    24898763.277    24898762.356
        35.500          18.750
  31871342.342 7                   6065094.946
        44.750
 116853835.969 7  91054958.72646  22236533.939    22236533.841    22236535.949
        46.000          38.500
 120386846.711 7  93808057.87747  22908816.530    22908815.712    22908817.590
        42.750          43.500
 120441094.570 7  93850247.55745  22919165.214    22919165.018    22919166.180
        44.500          33.750
 145476904.443 6                  27683334.751
        36.500
 125501575.469 7                  23882146.818
        45.000
 120529643.727 7                  22571295.403
        45.500
                                  24433273.857
        28.000
 128540819.879 8                  24460458.447
        48.000
 131507100.489 5                  25024965.300
        31.750
 112317112.203 8  87519890.83748  21373224.614    21373224.123    21373223.232
        48.750          53.000
 137041887.087 6                  26078178.194
        40.500
 109715458.463 8                  20582289.275
        50.250
 196145182.245 7                  37325181.032
        47.500
 205021202.632 7                  39014036.480
        44.000
 123740197.255 7                  23107609.988
        43.500
 140403993.646 7                  26717985.440
        45.750
 122539062.634 6                  22923465.560
        41.500
 195687403.597 7                  37238080.746
        46.750
 108443319.791 6                  20279430.797
        40.000
 141318743.845 6                  26892037.179
        41.000
 136508172.712 7                  25976605.110
        42.750
 110975845.733 8                  20738493.402
        51.500
 117271558.798 7  91380518.16646  22316007.251    22316006.836    22316010.241
        44.250          36.500
 21 10 12  0  0 30.0000000  0 26G31G16S48G32G25G18E05E09R09R22E31E12
                                G29E26R10S36S23R08E04R01S25R20E24E01
                                R21G26
 110295137.881 8  85944284.96747  20988454.544    20988454.258    20988452.327
        49.750          43.500
 130774404.283 6 101902151.73243  24885542.394    24885541.523    24885541.114
        37.750          20.250
  31871322.656 7                   6065118.471
        44.500
 116933975.840 7  91117404.98546  22251784.491    22251784.393    22251786.498
        47.750          38.250
 120448225.690 7  93855885.61047  22920496.357    22920495.535    22920497.616
        42.000          43.250
 120361003.801 7  93787839.31745  22903924.260    22903924.059    22903925.598
        44.750          34.000
 145444697.228 6                  27677206.171
        37.000
 125535144.252 7                  23888534.584
        44.750
 120582827.893 7                  22581255.639
        45.750
                                  24407618.933
        27.750
 128531469.784 7                  24458679.226
        47.500
 131418733.841 6                  25008149.797
        38.250
 112378137.339 8  87567442.85848  21384837.426    21384836.930    21384836.009
        48.500          52.750
 137073359.961 6                  26084167.162
        40.000
 109709538.787 8                  20581178.545
        50.500
 196145139.105 7                  37325172.084
        47.500
 205021029.735 7                  39014003.524
        44.000
 123834564.360 7                  23125233.078
        43.500
 140484284.479 6                  26733264.941
        41.250
 122577676.549 6                  22930688.553
        41.500
 195684627.114 7                  37237562.006
        46.500
 108478447.290 6                  20285999.234
        39.500
 141277951.622 6                  26884274.677
        41.500
 136540588.008 7                  25982773.334
        43.250
 110877082.129 8                  20720037.062
        51.750
 117225630.731 7  91344730.08145  22307267.523    22307267.099    22307270.088
        44.500          35.750
 21 10 12  0  1  0.0000000  0 26G31G16S48G32G25G18E05E09R09R22E31E12
                                G29E26R10S36S23R08E04R01S25R20E24E01
                                R21G26
 110251398.741 8  85910202.51747  20980131.413    20980131.123    20980129.023
        49.750          43.250
 130705039.695 5 101848101.51043  24872342.716    24872341.894    24872341.685
        35.750          18.750
  31871326.727 7                   6065146.508
        44.500
 117014429.560 7  91180096.09946  22267094.342    22267094.231    22267096.462
        47.500          37.500
 120509663.598 6  93903759.24247  22932187.593    22932186.766    22932189.107
        41.750          43.000
 120281131.262 7  93725601.11545  22888724.860    22888724.650    22888726.396
        44.250          34.000
 145412879.283 6                  27671151.402
        36.500
 125569076.042 7                  23894991.664
        44.500
 120636265.288 7                  22591262.453
        45.500
                                  24381958.835
        31.500
 128522154.298 7                  24456906.437
        47.750
 131330435.200 6                  24991347.520
        40.000
 112439581.647 8  87615321.52648  21396529.721    21396529.225    21396528.144
        49.000          52.500
 137105252.509 6                  26090236.294
        40.250
 109703844.270 8                  20580110.433
        50.500
 196145118.110 7                  37325168.721
        47.250
 205020881.414 7                  39013975.947
        43.500
 123929112.230 7                  23142888.747
        42.750
 140564632.551 7                  26748554.604
        43.000
 122616881.761 7                  22938022.473
        42.250
 195681875.224 7                  37237043.848
        46.250
 108514402.590 6                  20292723.496
        39.500
 141237165.866 6                  26876513.256
        40.750
 136573044.410 7                  25988949.640
        43.500
 110778876.249 8                  20701684.886
        51.750
 117179831.387 7  91309042.28545  22298552.338    22298551.918    22298553.930
        45.000          35.000
 21 10 12  0  1 30.0000000  0 26G31G16S48G32G25G18E05E09R09R22E31E12
                                G29E26R10S36S23R08E04R01S25R20E24E01
                                R21G26
 110207968.663 8  85876360.90047  20971866.840    20971866.550    20971864.521
        50.000          44.000
 130635744.449 6 101794105.29243  24859156.339    24859155.526    24859155.000
        37.500          20.000
  31871308.879 7                   6065171.504
        44.250
 117095149.530 7  91242994.57646  22282454.889    22282454.778    22282457.174
        47.250          37.250
 120571116.498 7  93951644.58747  22943881.421    22943880.603    22943883.384
        42.750          43.750
 120201436.217 7  93663501.18245  22873559.056    22873558.851    22873560.893
        44.750          34.250
 145381407.386 6                  27665162.602
        38.000
 125603325.703 7                  23901509.181
        44.750
 120689911.592 7                  22601310.308
        46.250
                                  24356288.189
        31.250
 128512829.670 7                  24455132.004
        47.750
 131242163.599 5                  24974550.726
        34.500
 112501398.894 8  87663490.78948  21408293.275    21408292.779    21408291.945
        48.750          52.500
 137137520.304 6                  26096376.742
        41.000
 109698332.389 8                  20579076.315
        50.500
 196145074.226 7                  37325161.093
        47.250
 205020713.128 7                  39013942.517
        44.000
 124023791.683 7                  23160569.296
        43.750
 140644989.184 6                  26763845.958
        40.000
 122656630.386 6                  22945458.994
        41.250
 195679089.687 7                  37236520.230
        47.000
 108551138.300 6                  20299592.834
        40.000
 141196342.364 6                  26868744.987
        41.750
 136605498.547 7                  25995125.897
        43.250
 110681187.646 8                  20683429.524
        51.000
 117134116.607 7  91273420.38145  22289853.306    22289852.886    22289854.451
        45.500          35.500
 21 10 12  0  2  0.0000000  0 26G31G16S48G32G25G18E05E09R09R22E31E12
                                G29E26R10S36S23R08E04R01S25R20E24E01
                                R21G26
 110164872.544 8  85842779.50547  20963666.001    20963665.711    20963663.700
        49.500          43.750
 130566540.542 6 101740180.20443  24845987.487    24845986.620    24845986.067
        36.000          19.750
  31871292.120 7                   6065194.524
        44.250
 117176155.674 7  91306116.25646  22297869.847    22297869.722    22297872.395
        47.250          39.000
 120632606.647 7  93999558.95847  22955583.154    22955582.345    22955584.717
        42.750          44.750
 120121944.377 7  93601559.64545  22858432.536    22858432.331    22858433.832
        44.500          34.000
 145350304.533 6                  27659243.780
        37.750
 125637914.224 7                  23908091.146
        45.000
 120743790.743 7                  22611397.679
        45.500
                                  24330619.828
        30.500
 128503518.399 8                  24453360.076
        48.000
 131153927.57715                  24957763.568
        33.000
 112563608.689 8  87711965.93848  21420131.538    21420131.042    21420130.083
        48.500          52.500
 137170184.832 6                  26102592.705
        41.000
 109693027.415 8                  20578081.533
        50.000
 196145033.725 7                  37325153.057
        47.250
 205020546.199 7                  39013911.118
        44.000
 124118620.587 7                  23178278.112
        43.500
 140725374.148 6                  26779143.431
        41.750
 122696942.794 7                  22953000.225
        42.250
 195676291.873 7                  37235995.932
        46.500
 108588675.757 6                  20306613.560
        39.750
 141155503.102 6                  26860973.503
        41.000
 136637973.487 7                  26001305.338
        43.750
 110584043.150 8                  20665275.605
        50.750
 117088508.552 7  91237881.62845  22281174.554    22281174.130    22281175.514
        45.250          35.750
 21 10 12  0  2 30.0000000  0 26G31G16S48G32G25G18E05E09R09R22E31E12
                                G29E26R10S36S23R08E04R01S25R20E24E01
                                R21G26
 110122111.592 8  85809459.27747  20955528.795    20955528.509    20955526.456
        50.250          44.000
 130497427.264 6 101686325.80643  24832834.841    24832833.974    24832834.135
        36.750          19.250
  31872875.261 7                   6065221.385
        44.250
 117257443.774 7  91369457.68546  22313338.470    22313338.336    22313340.999
        47.250          39.000
 120694133.474 7  94047501.93347  22967290.941    22967290.128    22967292.502
        43.500          44.500
 120042657.943 7  93539778.16245  22843344.159    22843343.945    22843345.911
        45.000          34.250
 145319570.637 6                  27653395.043
        38.250
 125672839.489 7                  23914737.238
        45.500
 120797902.828 7                  22621531.764
        45.000
                                  24304942.971
        32.000
 128494219.852 8                  24451590.786
        48.000
 131065770.92016                  24940986.977
        39.500
 112626207.443 8  87760744.17048  21432043.479    21432042.983    21432042.079
        49.000          52.750
 137203244.639 6                  26108883.572
        41.000
 109687930.375 8                  20577124.799
        50.000
 196144993.654 7                  37325145.773
        47.500
 205020380.532 7                  39013878.180
        43.750
 124213594.047 7                  23196014.006
        44.500
 140805786.359 6                  26794445.337
        40.750
 122737814.609 6                  22960646.232
        41.750
 195673484.540 7                  37235470.794
        46.250
 108627012.214 6                  20313782.437
        39.250
 141114647.013 6                  26853198.816
        41.500
 136670469.106 7                  26007489.420
        44.250
 110487445.988 8                  20647224.149
        52.250
 117043006.255 7  91202425.29046  22272515.588    22272515.164    22272516.964
        46.000          36.500
 21 10 12  0  3  0.0000000  0 26G31G16S48G32G25G18E05E09R09R22E31E12
                                G29E26R10S36S23R08E04R01S25R20E24E01
                                R21G26
 110079686.787 8  85776400.98347  20947455.662    20947455.376    20947453.250
        49.750          43.750
 130428402.931 6 101632540.70443  24819700.268    24819699.401    24819699.441
        36.250          19.250
  31872858.664 7                   6065246.408
        44.500
 117339009.556 7  91433015.28946  22328860.126    22328859.997    22328862.511
        47.500          37.500
 120755695.923 7  94095472.62547  22979006.271    22979005.453    22979007.541
        43.000          44.500
 119963579.339 7  93478158.65345  22828296.141    22828295.936    22828297.596
        44.750          34.000
 145289205.446 6                  27647617.328
        37.750
 125708099.271 7                  23921446.898
        45.250
 120852247.704 7                  22631709.574
        46.250
 129604349.306 5                  24279263.192
        30.250
 128484933.376 8                  24449823.551
        48.000
 130977664.433 4                  24924220.820
        29.500
 112689192.613 8  87809823.51248  21444029.209    21444028.713    21444028.039
        48.500          53.000
 137236698.086 6                  26115249.516
        40.500
 109683042.521 8                  20576208.199
        50.250
 196144958.820 7                  37325139.030
        47.250
 205020216.377 7                  39013847.142
        43.750
 124308706.770 7                  23213775.608
        44.750
 140886222.797 6                  26809752.405
        40.500
 122779241.955 6                  22968395.267
        41.750
 195670672.279 7                  37234942.798
        46.750
 108666145.215 6                  20321101.324
        39.250
 141073772.907 6                  26845420.512
        41.750
 136702985.120 7                  26013676.843
        44.500
 110391399.345 8                  20629275.480
        51.500
 116997608.572 7  91167050.47646  22263876.612    22263876.179    22263878.241
        45.250          36.250
 21 10 12  0  3 30.0000000  0 26G31G16S48G32G25G18E05E09R09R22E31E12
                                G29E26R10S36S23R08E04R01S25R20E24E01
                                R21G26
 110037598.538 8  85743604.94347  20939446.483    20939446.197    20939444.131
        50.000          43.750
 130359465.950 6 101578823.62843  24806581.665    24806580.767    24806581.011
        36.000          19.500
  31872840.419 7                   6065271.029
        44.500
 117420848.837 7  91496786.12046  22344433.656    22344433.531    22344436.099
        47.750          37.250
 120817292.476 7  94143469.92647  22990727.657    22990726.835    22990729.000
        42.750          43.750
 119884709.967 7  93416702.19645  22813287.816    22813287.606    22813289.082
        45.000          34.000
 145259207.908 6                  27641908.418
        38.000
 125743690.531 7                  23928219.902
        45.000
 120906824.866 7                  22641930.290
        44.750
 129467250.84014                  24253580.780
        28.250
 128475657.442 8                  24448058.405
        48.250
 130889613.341 6                  24907465.333
        40.000
 112752559.701 8  87859200.44448  21456087.884    21456087.388    21456086.485
        48.000          52.250
 137270542.729 6                  26121689.920
        40.500
 109678363.304 8                  20575330.787
        50.500
 196144919.272 7                  37325131.768
        47.500
 205020050.995 7                  39013815.295
        44.000
 124403952.820 7                  23231562.430
        45.000
 140966680.223 6                  26825063.003
        41.000
 122821220.050 6                  22976248.418
        41.750
 195667846.936 7                  37234414.999
        46.500
 108706070.612 6                  20328565.497
        39.750
 141032878.732 6                  26837638.839
        41.500
 136735520.062 7                  26019868.107
        43.000
 110295905.754 8                  20611430.189
        51.500
 116952313.796 7  91131755.86246  22255257.347    22255256.918    22255258.817
        45.250          36.000
 21 10 12  0  4  0.0000000  0 26G31G16S48G32G25G18E05E09R09R22E31E12
                                G29E26R10S36S23R08E04R01S25R20E24E01
                                R21G26
 109995846.568 8  85711070.94547  20931501.324    20931501.038    20931499.167
        49.750          44.000
 130290613.909 6 101525172.76643  24793479.806    24793478.921    24793478.580
        37.750          20.000
  31872816.920 7                   6065296.956
        44.500
 117502956.706 7  91560766.38946  22360057.967    22360057.847    22360060.583
        47.000          38.000
 120878921.198 7  94191492.31047  23002454.817    23002453.990    23002456.868
        42.250          44.000
 119806050.957 7  93355409.62045  22798319.170    22798318.956    22798320.665
        44.500          34.250
 145229576.679 6                  27636270.080
        37.250
 125779609.934 7                  23935055.004
        44.500
 120961632.685 7                  22652194.225
        46.250
                                  24227894.971
        28.250
 128466390.302 7                  24446294.912
        47.750
 130801618.404 6                  24890720.300
        37.000
 112816304.326 8  87908871.57348  21468217.946    21468217.450    21468216.455
        48.250          52.500
 137304775.842 6                  26128203.924
        40.000
 109673892.768 8                  20574491.559
        50.250
 196144878.949 7                  37325123.115
        47.250
 205019883.328 7                  39013784.902
        44.000
 124499325.805 7                  23249373.841
        43.750
 141047154.286 6                  26840376.481
        40.750
 122863744.003 7                  22984203.751
        42.000
 195665006.434 7                  37233881.821
        46.250
 108746784.544 6                  20336179.915
        39.500
 140991962.251 6                  26829852.554
        41.750
 136768073.022 7                  26026062.553
        43.750
 110200966.762 8                  20593688.476
        51.500
 116907119.487 7  91096539.52846  22246657.180    22246656.751    22246658.429
        45.000          36.000
 21 10 12  0  4 30.0000000  0 27G31G16S48G32G25G18E05E09R09G27R22E31
                                E12G29E26R10S36S23R08E04R01S25R20E24
                                E01R21G26
 109954444.975 8  85678809.96647  20923622.930    20923622.644    20923620.414
        49.750          43.250
 130221858.013 6 101471596.81043  24780396.269    24780395.362    24780394.586
        38.250          21.250
  31872801.694 7                   6065321.402
        44.500
 117585341.396 7  91624962.34746  22375735.132    22375735.021    22375737.774
        47.250          37.500
 120940593.923 6  94239549.07847  23014190.880    23014190.049    23014193.031
        41.750          43.250
 119727617.145 7  93294292.53645  22783393.913    22783393.708    22783395.069
        45.000          34.250
 145200324.061 6                  27630703.271
        38.000
 125815867.751 7                  23941954.632
        45.000
 121016684.328 7                  22662503.291
        46.000




 128457143.760 8                  24444535.370
        48.000
 130713693.096 6                  24873988.504
        38.750
 112880435.710 8  87958844.06848  21480421.660    21480421.164    21480420.461
        48.500          52.250
 137339408.281 6                  26134794.304
        39.750
 109669644.918 8                  20573694.951
        50.750
 196144850.732 7                  37325117.968
        47.500
 205019723.815 7                  39013752.692
        44.000
 124594833.390 7                  23267209.379
        43.750
 141127655.081 6                  26855695.229
        40.500
 122906822.280 6                  22992262.828
        41.250
 195662161.500 7                  37233348.861
        46.250
 108788297.252 6                  20343943.960
        39.750
 140951034.819 7                  26822064.750
        42.000
 136800656.117 7                  26032263.046
        42.750
 110106598.470 8                  20576053.558
        51.250
 116862037.218 7  91061410.48945  22238078.534    22238078.114    22238079.384
        45.500          35.500
 21 10 12  0  5  0.0000000  0 27G31G16S48G32G25G18E05E09R09G27R22E31
                                E12G29E26R10S36S23R08E04R01S25R20E24
                                E01R21G26
 109913370.198 8  85646803.65147  20915806.678    20915806.397    20915804.138
        49.750          43.750
 130153173.157 6 101418076.22443  24767326.392    24767325.494    24767324.422
        38.250          21.000
  31872768.940 7                   6065343.371
        44.500
 117667974.513 7  91689351.84846  22391459.577    22391459.466    22391462.289
        47.250          37.750
 121002285.270 7  94287620.38747  23025930.636    23025929.805    23025932.225
        42.500          44.250
 119649386.436 7  93233333.72545  22768506.781    22768506.567    22768507.884
        44.750          34.250
 145171425.275 6                  27625204.097
        37.500
 125852437.246 7                  23948913.661
        44.250
 121071954.871 7                  22672854.589
        46.250
                                  25840864.499
        29.000
 129055912.682 5                  24176515.888
        31.250
 128447892.696 7                  24442774.991
        47.000
 130625814.411 6                  24857265.435
        38.250
 112944925.919 8  88009096.17948  21492693.864    21492693.368    21492692.297
        48.500          52.000
 137374413.926 6                  26141455.802
        39.500
 109665595.754 8                  20572935.642
        50.250
 196144803.494 7                  37325108.055
        47.250
 205019548.310 7                  39013720.081
        44.000
 124690445.563 7                  23285064.415
        44.500
 141208154.650 6                  26871013.809
        41.500
 122950426.372 7                  23000419.550
        42.000
 195659286.874 7                  37232810.433
        46.250
 108830580.518 6                  20351849.968
        39.750
 140910070.784 6                  26814269.236
        41.750
 136833244.720 7                  26038464.391
        42.750
 110012779.006 8                  20558520.963
        52.000
 116817041.469 7  91026348.86746  22229515.932    22229515.508    22229516.764
        45.500          36.000
 21 10 12  0  5 30.0000000  0 27G31G16S48G32G25G18E05E09R09G27R22E31
                                E12G29E26R10S36S23R08E04R01S25R20E24
                                E01R21G26
 109872645.855 8  85615070.39747  20908056.937    20908056.651    20908054.553
        49.750          43.750
 130084580.706 6 101364627.63143  24754272.615    24754271.690    24754270.727
        38.250          19.750
  31872740.514 7                   6065365.993
        44.250
 117750874.629 7  91753949.24346  22407235.084    22407234.977    22407237.471
        47.250          38.500
 121064016.814 7  94335722.96447  23037677.495    23037676.664    23037679.191
        42.500          44.250
 119571383.850 7  93172552.66645  22753663.123    22753662.913    22753664.203
        45.000          34.500
 145142902.789 6                  27619776.794
        38.000
 125889338.909 7                  23955935.914
        45.000
 121127467.410 7                  22683249.837
        46.250
 135685921.95516 105729346.68152  25820175.544    25820175.375    25820185.435
        37.500          16.750
                                  24150823.071
        31.500
 128438659.197 8                  24441017.887
        48.000
 130538006.043 6                  24840555.610
        38.500
 113009794.053 8  88059642.76848  21505037.713    21505037.222    21505036.694
        48.750          52.500
 137409813.838 6                  26148192.092
        40.750
 109661769.171 8                  20572217.601
        50.250
 196144755.397 7                  37325099.881
        47.250
 205019378.628 7                  39013686.910
        44.250
 124786179.493 7                  23302941.503
        44.750
 141288672.389 7                  26886335.867
        44.000
 122994574.976 6                  23008677.363
        40.750
 195656409.150 7                  37232272.153
        46.750
 108873654.076 6                  20359905.758
        39.500
 140869091.729 6                  26806471.442
        41.750
 136865861.279 7                  26044671.154
        44.500
 109919534.703 8                  20541096.140
        52.250
 116772153.917 7  90991371.54946  22220973.922    22220973.502    22220975.195
        45.750          36.000
 21 10 12  0  6  0.0000000  0 27G31G16S48G32G25G18E05E09R09G27R22E31
                                E12G29E26R10S36S23R08E04R01S25R20E24
                                E01R21G26
 109832272.725 8  85583610.81947  20900374.329    20900374.043    20900372.068
        49.500          43.750
 130016079.435 6 101311250.09743  24741238.582    24741237.702    24741236.296
        37.750          19.500
  31872715.531 7                   6065392.170
        44.250
 117834037.712 7  91818751.46946  22423060.835    22423060.733    22423062.995
        46.750          37.500
 121125787.588 7  94383856.06047  23049432.104    23049431.277    23049433.588
        42.750          44.000
 119493611.354 7  93111950.90545  22738863.367    22738863.157    22738864.286
        44.750          34.250
 145114756.037 6                  27614420.586
        38.000
 125926570.197 7                  23963020.753
        45.000
 121183221.542 7                  22693691.138
        46.250
 135577339.93116                  25799506.485
        39.500
                                  24125132.119
        30.250
 128429442.361 8                  24439263.977
        48.000
 130450268.994 6                  24823859.885
        39.250
 113075036.832 8  88110481.29348  21517452.906    21517452.415    21517451.966
        48.250          52.250
 137445606.093 6                  26155003.466
        40.000
 109658165.631 8                  20571541.249
        49.750
 196144717.587 7                  37325093.728
        47.500
 205019212.334 7                  39013655.864
        43.750
 124882029.766 7                  23320840.538
        45.250
 141369204.988 6                  26901661.460
        39.750
 123039263.742 6                  23017039.100
        41.500
 195653524.401 7                  37231732.898
        46.750
 108917514.590 6                  20368107.791
        39.750
 140828096.225 6                  26798669.941
        41.750
 136898505.139 7                  26050882.929
        44.000
 109826868.156 8                  20523778.821
        52.000
 116727373.275 7  90956477.55046  22212452.372    22212451.948    22212454.094
        45.000          36.500
 21 10 12  0  6 30.0000000  0 27G31G16S48G32G25G18E05E09R09G27R22E31
                                E12G29E26R10S36S23R08E04R01S25R20E24
                                E01R21G26
 109792251.127 8  85552425.15847  20892758.648    20892758.362    20892756.193
        49.750          43.750
 129947666.979 6 101257941.73643  24728219.236    24728218.382    24728218.647
        38.000          20.750
  31872692.483 7                   6065417.815
        44.500
 117917458.668 7  91883754.41946  22438935.578    22438935.471    22438937.890
        47.250          37.750
 121187595.909 7  94432018.34847  23061193.740    23061192.913    23061194.957
        42.500          42.250
 119416070.396 7  93051529.55145  22724107.888    22724107.687    22724108.768
        45.500          34.500
 145086983.862 6                  27609135.762
        38.250
 125964127.953 7                  23970167.848
        44.750
 121239216.455 7                  22704176.819
        45.750
 135468795.98915                  25778854.257
        30.500
                                  24099439.200
        28.500
 128420240.657 7                  24437513.075
        47.750
 130362603.633 6                  24807177.283
        39.500
 113140650.180 8  88161608.59048  21529938.893    21529938.402    21529937.532
        48.750          52.000
 137481788.054 6                  26161888.284
        40.250
 109654785.473 8                  20570907.093
        49.500
 196144686.606 7                  37325086.761
        47.250
 205019049.121 7                  39013623.610
        43.750
 124977991.495 7                  23338759.687
        43.250
 141449749.323 6                  26916988.745
        40.250
 123084487.784 7                  23025499.045
        42.000
 195650626.579 7                  37231192.381
        46.500
 108962158.758 6                  20376456.383
        39.750
 140787082.245 6                  26790865.333
        41.250
 136931175.176 7                  26057099.523
        42.750
 109734781.544 8                  20506570.408
        52.000
 116682697.618 7  90921665.36646  22203951.014    22203950.585    22203953.133
        45.000          36.500
 21 10 12  0  7  0.0000000  0 27G31G16S48G32G25G18E05E09R09G27R22E31
                                E12G29E26R10S36S23R08E04R01S25R20E24
                                E01R21G26
 109752573.902 8  85521507.83647  20885208.279    20885207.989    20885205.577
        50.000          43.750
 129879334.494 6 101204695.71243  24715215.939    24715215.076    24715213.635
        37.750          19.250
  31872660.574 7                   6065440.459
        44.250
 118001126.030 7  91948949.49446  22454857.274    22454857.167    22454859.827
        47.250          38.500
 121249432.943 7  94480203.04247  23072961.284    23072960.453    23072962.238
        42.500          42.750
 119338754.946 7  92991283.91145  22709395.407    22709395.197    22709396.142
        45.500          35.000
 145059577.672 6                  27603920.051
        38.000
 126002001.622 7                  23977374.948
        44.750
 121295443.915 7                  22714706.269
        45.750
 135360377.25816                  25758223.914
        40.750
 128507309.529 5                  24073754.068
        30.250
 128411045.217 8                  24435763.152
        48.000
 130275002.922 6                  24790507.310
        39.750
 113206622.133 8  88213015.31648  21542492.949    21542492.458    21542491.662
        48.250          52.250
 137518349.838 6                  26168845.879
        39.250
 109651621.310 8                  20570314.082
        50.250
 196144643.077 7                  37325079.132
        47.000
 205018880.241 7                  39013591.303
        43.750
 125074048.887 6                  23356698.059
        41.500
 141530295.551 6                  26932316.755
        41.000
 123130234.341 6                  23034056.909
        41.250
 195647719.947 7                  37230648.623
        46.500
 109007574.650 6                  20384949.620
        40.000
 140746040.385 6                  26783055.206
        40.750
 136963862.510 7                  26063319.925
        43.750
 109643269.692 8                  20489469.013
        52.500
 116638117.645 7  90886927.73446  22195467.833    22195467.404    22195469.932
        45.500          37.000
 21 10 12  0  7 30.0000000  0 27G31G16S48G32G25G18E05E09R09G27R22E31
                                E12G29E26R10S36S23R08E04R01S25R20E24
                                E01R21G26
 109713252.323 8  85490867.64247  20877725.595    20877725.305    20877722.911
        50.000          43.500
 129811090.184 6 101151518.39543  24702229.487    24702228.616    24702226.818
        36.500          18.250
  31874230.070 7                   6065465.889
        44.250
 118085045.278 7  92014340.69546  22470826.665    22470826.563    22470829.677
        46.750          37.000
 121311307.730 6  94528417.09747  23084735.602    23084734.775    23084736.816
        41.750          42.250
 119261677.329 7  92931223.57545  22694727.390    22694727.185    22694728.495
        45.250          34.250
 145032547.186 6                  27598776.836
        37.750
 126040198.892 7                  23984643.647
        44.500
 121351913.955 7                  22725282.320
        47.000
                                  25737609.538
        33.500
 128370193.997 5                  24048068.082
        34.250
 128401865.384 8                  24434016.336
        48.000
 130187478.117 6                  24773851.776
        39.250
 113272959.222 8  88264706.54048  21555116.645    21555116.154    21555115.267
        48.000          51.750
 137555299.704 6                  26175877.368
        40.000
 109648684.234 8                  20569762.236
        50.250
 196144603.360 7                  37325071.334
        47.250
 205018714.026 7                  39013559.992
        44.000
 125170207.186 6                  23374654.319
        41.500
 141610850.328 7                  26947645.995
        42.500
 123176509.816 7                  23042713.581
        42.000
 195644807.511 7                  37230101.855
        46.500
 109053769.336 6                  20393588.107
        39.500
 140704979.499 6                  26775241.448
        40.500
 136996577.365 7                  26069545.176
        43.750
 109552345.632 8                  20472477.743
        52.250
 116593642.363 7  90852271.68146  22187004.289    22187003.860    22187006.018
        45.750          36.500
 21 10 12  0  8  0.0000000  0 27G31G16S48G32G25G18E05E09R09G27R22E31
                                E12G29E26R10S36S23R08E04R01S25R20E24
                                E01R21G26
 109674286.231 8  85460504.45447  20870310.433    20870310.147    20870308.026
        50.250          44.250
 129742932.087 6 101098408.26443  24689259.099    24689258.241    24689257.047
        37.000          19.000
  31874201.189 7                   6065488.140
        44.500
 118169211.985 7  92079924.87146  22486843.455    22486843.371    22486846.447
        47.250          37.500
 121373218.517 7  94576659.21047  23096516.717    23096515.886    23096518.558
        42.500          43.000
 119184838.677 7  92871349.42545  22680105.730    22680105.520    22680106.509
        45.000          34.500
 145005890.877 6                  27593704.054
        38.750
 126078716.307 7                  23991973.254
        44.750
 121408624.820 7                  22735901.464
        46.000


 128233093.911 5                  24022385.416
        35.250
 128392699.428 7                  24432272.058
        47.750
 130100029.344 6                  24757210.409
        39.000
 113339656.994 8  88316678.81148  21567808.680    21567808.189    21567807.355
        48.500          52.250
 137592634.796 6                  26182981.963
        40.000
 109645974.156 8                  20569254.158
        50.750
 196144567.050 7                  37325064.188
        47.250
 205018548.741 7                  39013528.114
        43.750
 125266462.232 7                  23392630.680
        43.500
 141691410.280 6                  26962976.373
        38.750
 123223308.564 7                  23051469.165
        42.500
 195641887.210 7                  37229555.235
        46.000
 109100738.556 6                  20402372.502
        39.750
 140663897.309 6                  26767423.768
        41.000
 137029318.310 7                  26075775.770
        43.000
 109462011.294 8                  20455596.763
        52.250
 116549269.550 7  90817695.47746  22178560.478    22178560.049    22178561.941
        45.750          36.500
 21 10 12  0  8 30.0000000  0 27G31G16S48G32G25G18E05E09R09G27R22E31
                                E12G29E26R10S36S23R08E04R01S25R20E24
                                E01R21G26
 109635674.434 8  85430417.33947  20862962.902    20862962.616    20862960.511
        50.000          44.500
 129674856.981 6 101045362.77543  24676305.148    24676304.348    24676302.752
        38.500          18.250
  31874168.117 7                   6065513.074
        44.500
 118253619.689 7  92145696.81646  22502905.813    22502905.737    22502908.838
        47.250          38.000
 121435162.316 7  94624927.10847  23108304.168    23108303.346    23108306.175
        42.250          42.500
 119108239.170 7  92811661.62945  22665529.047    22665528.846    22665529.927
        45.000          34.750
 144979606.288 6                  27588702.371
        37.500
 126117549.457 7                  23999362.790
        44.250
 121465574.681 7                  22746567.043
        46.500
 135035692.55615 105222647.70152  25696438.987    25696438.777    25696445.516
        31.250          16.000
 128096010.739 5                  23996706.810
        31.750
 128383544.588 7                  24430529.922
        47.500
 130012655.681 6                  24740583.552
        39.500
 113406710.192 8  88368928.03348  21580568.375    21580567.888    21580566.924
        48.000          52.000
 137630351.263 6                  26190159.100
        40.250
 109643489.682 8                  20568787.912
        49.500
 196144531.291 7                  37325057.078
        47.500
 205018381.260 7                  39013496.746
        43.750
 125362805.444 6                  23410622.430
        41.750
 141771969.937 6                  26978306.242
        40.500
 123270624.422 6                  23060320.082
        41.500
 195638946.563 7                  37229006.894
        46.750
 109148476.848 6                  20411299.022
        39.750
 140622790.550 6                  26759601.346
        40.500
 137062082.923 7                  26082010.627
        42.750
 109372267.290 8                  20438825.676
        52.250
 116504996.105 7  90783196.68846  22170135.529    22170135.096    22170136.916
        45.000          36.250
 21 10 12  0  9  0.0000000  0 27G31G16S48G32G25G18E05E09R09G27R22E31
                                E12G29E26R10S36S23R08E04R01S25R20E24
                                E01R21G26
 109597420.936 8  85400609.41547  20855683.555    20855683.269    20855681.130
        49.750          44.250
 129606866.651 6 100992383.34343  24663367.003    24663366.163    24663364.787
        36.500          18.500
  31874133.851 7                   6065538.410
        44.500
 118338267.707 7  92211656.14246  22519014.043    22519013.985    22519017.008
        46.750          37.500
 121497141.501 6  94673222.68247  23120098.465    23120097.647    23120099.901
        41.500          42.250
 119031884.031 7  92752164.25545  22650999.175    22650998.970    22650999.930
        45.000          34.500
 144953696.004 6                  27583771.519
        38.250
 126156698.873 7                  24006812.845
        44.000
 121522766.501 7                  22757276.711
        46.500
 134927672.515 6 105138476.81842  25675884.418    25675884.128    25675890.710
        36.000          17.750
 127958982.11115                  23971029.769
        32.000
 128374403.215 7                  24428790.519
        47.500
 129925361.359 6                  24723971.827
        39.500
 113474118.106 8  88421453.66348  21593395.731    21593395.249    21593394.297
        48.000          51.750
 137668450.221 6                  26197409.049
        40.500
 109641235.020 8                  20568365.434
        50.750
 196144487.456 7                  37325050.161
        47.750
 205018213.876 7                  39013465.297
        44.250
 125459233.437 7                  23428628.099
        43.250
 141852529.002 6                  26993635.974
        41.750
 123318456.120 7                  23069267.852
        42.500
 195636002.938 7                  37228454.742
        47.250
 109196983.645 6                  20420369.997
        39.750
 140581661.033 6                  26751774.625
        40.500
 137094874.201 7                  26088250.451
        42.750
 109283119.353 8                  20422165.988
        53.000
 116460823.925 7  90748776.81045  22161729.749    22161729.325    22161730.990
        45.000          35.750
 21 10 12  0  9 30.0000000  0 27G31G16S48G32G25G18E05E09R09G27R22E31
                                E12G29E26R10S36S23R08E04R01S25R20E24
                                E01R21G26
 109559528.325 8  85371082.70647  20848472.841    20848472.555    20848470.496
        50.000          44.250
 129538961.768 6 100939470.51343  24650445.008    24650444.154    24650442.285
        38.250          20.500
  31874099.541 7                   6065560.468
        44.250
 118423153.794 7  92277801.12646  22535167.329    22535167.276    22535170.325
        47.000          38.000
 121559156.497 6  94721546.08446  23131899.276    23131898.458    23131900.280
        41.750          41.250
 118955777.174 7  92692860.34145  22636516.524    22636516.310    22636517.190
        45.000          34.500
 144928161.217 6                  27578912.433
        37.500
 126196163.895 7                  24014322.749
        43.750
 121580201.446 7                  22768032.891
        46.500
 134819750.67515 105054382.28555  25655345.823    25655345.323    25655352.847
        35.750          30.000
 127821949.695 4                  23945361.634
        28.500
 128365276.230 7                  24427053.637
        47.500
 129838149.152 6                  24707375.784
        40.000
 113541879.265 8  88474254.55348  21606290.259    21606289.772    21606288.865
        48.500          51.750
 137706931.581 6                  26204731.640
        40.000
 109639212.284 8                  20567986.080
        50.500
 196144455.015 7                  37325043.534
        47.500
 205018047.187 7                  39013432.699
        44.250
 125555742.075 6                  23446650.729
        40.000
 141933086.467 5                  27008965.556
        35.250
 123366801.089 6                  23078311.755
        41.500
 195633055.331 7                  37227902.528
        46.500
 109246257.429 6                  20429583.269
        39.000
 140540509.232 6                  26743943.656
        40.750
 137127693.110 7                  26094495.880
        43.000
 109194572.405 8                  20405618.859
        52.750
 116416753.597 7  90714436.29946  22153343.491    22153343.062    22153344.945
        45.250          36.250
 21 10 12  0 10  0.0000000  0 26G31G16S48G32G25G18E05E09R09G27E31E12
                                G29E26R10S36S23R08E04R01S25R20E24E01
                                R21G26
 109521996.933 8  85341837.46547  20841330.822    20841330.536    20841328.456
        50.250          44.500
 129471140.014 6 100886622.45543  24637538.814    24637537.951    24637537.424
        37.250          19.750
  31874063.147 7                   6065584.763
        44.500
 118508273.273 7  92344128.25946  22551364.706    22551364.648    22551367.758
        46.500          37.500
 121621205.953 7  94769896.37246  23143706.593    23143705.775    23143707.765
        42.000          41.750
 118879919.925 7  92633750.90045  22622081.252    22622081.047    22622081.581
        45.000          34.500
 144903000.721 6                  27574124.265
        37.750
 126235941.293 7                  24021892.069
        44.750
 121637879.316 7                  22778833.839
        44.750
 134711934.06016 104970377.24053  25634829.670    25634829.474    25634836.859
        38.500          23.250
 128356162.258 8                  24425319.239
        48.250
 129751019.520 6                  24690795.476
        40.250
 113609989.131 8  88527327.16648  21619250.993    21619250.511    21619249.836
        48.250          51.500
 137745792.619 6                  26212126.562
        40.500
 109637422.166 8                  20567650.124
        50.750
 196144416.565 7                  37325035.069
        47.250
 205017880.116 7                  39013399.649
        44.000
 125652327.594 6                  23464688.402
        41.000
 142013638.834 6                  27024294.212
        37.500
 123415654.090 7                  23087451.018
        42.000
 195630094.986 7                  37227346.974
        46.500
 109296293.767 6                  20438941.385
        39.250
 140499333.228 6                  26736108.311
        41.250
 137160539.190 7                  26100746.417
        43.750
 109106628.361 8                  20389184.681
        53.000
 116372783.290 7  90680173.73246  22144976.337    22144975.908    22144977.775
        45.750          36.750
 21 10 12  0 10 30.0000000  0 27G31G16S48G32G25G18E05E09R09G27R22E31
                                E12G29E26R10S36S23R08E04R01S25R20E24
                                E01R21G26
 109484827.514 8  85312874.27647  20834257.771    20834257.485    20834255.547
        50.000          44.500
 129403400.038 6 100833838.11743  24624648.480    24624647.573    24624646.966
        37.250          18.500
  31874934.62217                   6065608.051
        44.250
 118593621.591 7  92410633.70846  22567605.628    22567605.566    22567608.669
        46.250          38.250
 121683288.667 6  94818272.49947  23155521.037    23155520.224    23155522.512
        41.750          42.500
 118804314.358 7  92574837.59245  22607693.938    22607693.728    22607694.368
        45.250          35.000
 144878213.841 6                  27569407.637
        37.500
 126276028.465 7                  24029520.406
        44.750
 121695799.344 7                  22789681.321
        46.000
 134604235.912 6 104886458.66143  25614334.277    25614333.741    25614339.746
        39.750          19.500
                                  23894039.961
        30.000
 128347060.460 8                  24423587.208
        48.250
 129663973.414 6                  24674230.879
        40.250
 113678444.510 8  88580669.01048  21632277.737    21632277.255    21632276.272
        48.000          51.500
 137785031.316 6                  26219593.595
        40.750
 109635865.143 8                  20567357.957
        50.000
 196144374.122 7                  37325028.429
        47.250
 205017711.787 7                  39013368.406
        43.750
 125748984.318 7                  23482739.580
        42.000
 142094182.339 6                  27039621.893
        40.000
 123465010.534 6                  23096683.490
        41.250
 195627123.194 7                  37226790.234
        46.500
 109347089.524 6                  20448440.199
        38.750
 140458131.598 6                  26728267.994
        41.750
 137193411.469 7                  26107001.584
        42.750
 109019289.853 8                  20372863.356
        53.000
 116328911.767 7  90645988.14546  22136627.766    22136627.346    22136629.528
        45.750          37.250
 21 10 12  0 11  0.0000000  0 27G31G16S48G32G25G18E05E09R09G27R22E31
                                E12G29E26R10S36S23R08E04R01S25R20E24
                                E01R21G26
 109448024.632 8  85284196.70847  20827254.270    20827253.984    20827252.374
        50.000          44.500
 129335744.333 6 100781119.41043  24611773.607    24611772.727    24611771.971
        37.250          19.250
  31874985.963 7                   6065631.648
        44.750
 118679198.177 7  92477317.01545  22583890.441    22583890.374    22583892.910
        45.500          34.250
 121745407.491 6  94866676.76946  23167341.962    23167341.144    23167343.228
        41.750          41.500
 118728966.237 7  92516124.89345  22593355.016    22593354.797    22593356.302
        45.250          35.000
 144853803.689 6                  27564762.436
        38.000
 126316426.523 7                  24037208.042
        44.250
 121753964.794 7                  22800572.817
        45.500
 134496649.092 6 104802626.20744  25593860.267    25593859.700    25593865.694
        38.250          25.000
 127411080.66915                  23868390.191
        30.750
 128337973.723 8                  24421858.020
        48.250
 129577015.593 6                  24657683.223
        40.500
 113747244.854 8  88634279.66448  21645370.094    21645369.616    21645368.686
        48.250          51.500
 137824649.446 6                  26227132.662
        40.000
 109634545.700 8                  20567110.372
        50.250
 196144332.796 7                  37325020.076
        47.750
 205017543.686 7                  39013338.271
        44.250
 125845708.287 7                  23500802.956
        45.000
 142174718.488 6                  27054947.735
        39.750
 123514869.912 6                  23106010.321
        41.500
 195624136.205 7                  37226231.742
        46.750
 109398644.849 6                  20458081.461
        39.750
 140416906.755 6                  26720423.145
        41.750
 137226313.151 7                  26113262.473
        44.000
 108932563.407 8                  20356656.528
        53.250
 116285141.494 7  90611881.45346  22128298.514    22128298.094    22128300.201
        45.750          36.750
 21 10 12  0 11 30.0000000  0 27G31G16S48G32G25G18E05E09R09G27R22E31
                                E12G29E26R10S36S23R08E04R01S25R20E24
                                E01R21G26
 109411589.110 8  85255805.39147  20820320.854    20820320.568    20820318.654
        50.000          44.250
 129268171.364 6 100728465.21943  24598915.666    24598914.795    24598913.015
        36.500          19.000
  31875036.050 7                   6065654.981
        44.500
 118764998.678 7  92544174.85045  22600217.043    22600216.976    22600219.836
        45.500          35.500
 121807561.454 7  94915108.44147  23179169.143    23179168.330    23179170.674
        42.500          42.250
 118653877.543 7  92457614.34845  22579066.645    22579066.440    22579067.277
        45.250          35.250
 144829769.521 6                  27560188.791
        37.000
 126357132.772 7                  24044954.289
        43.500
 121812375.119 7                  22811511.613
        45.750
 134389171.639 6 104718877.70344  25573408.518    25573407.964    25573412.251
        40.500          25.500
                                  23842746.749
        28.500
 128328901.191 7                  24420131.649
        47.750
 129490146.977 6                  24641152.478
        39.750
 113816386.438 8  88688156.22648  21658527.284    21658526.806    21658526.042
        48.000          51.250
 137864644.887 6                  26234743.548
        40.250
 109633464.614 8                  20566907.879
        50.500
 196144295.860 7                  37325013.400
        47.250
 205017375.306 7                  39013305.544
        43.750
 125942496.584 7                  23518878.690
        43.000
 142255244.850 6                  27070271.937
        40.000
 123565227.545 6                  23115431.097
        41.500
 195621141.945 7                  37225671.416
        47.000
 109450955.318 6                  20467862.396
        39.250
 140375657.256 6                  26712573.575
        41.250
 137259243.741 7                  26119528.969
        43.750
 108846451.272 8                  20340564.287
        52.750
 116241471.165 7  90577852.63546  22119988.374    22119987.950    22119989.552
        45.750          36.250
 21 10 12  0 12  0.0000000  0 27G31G16S48G32G25G18E05E09R09G27R22E31
                                E12G29E26R10S36S23R08E04R01S25R20E24
                                E01R21G26
 109375520.505 8  85227699.98048  20813457.336    20813457.050    20813454.950
        49.500          50.000
 129200678.452 6 100675873.37843  24586071.593    24586070.699    24586068.852
        38.000          19.750
  31875082.621 7                   6065677.849
        44.500
 118851017.767 7  92611202.94746  22616585.985    22616585.927    22616588.761
        47.000          37.750
 121869748.306 7  94963565.75846  23191003.093    23191002.289    23191004.421
        42.000          41.500
 118579049.006 7  92399306.52145  22564826.847    22564826.637    22564827.458
        45.250          35.250
 144806109.422 6                  27555686.496
        36.500
 126398143.357 7                  24052758.131
        44.000
 121871028.510 7                  22822495.384
        46.250
 134281805.319 6 104635215.32642  25552976.599    25552976.063    25552981.354
        39.250          17.000
                                  23817112.730
        33.000
 128319840.809 8                  24418407.483
        48.000
 129403367.307 6                  24624638.706
        40.250
 113885865.052 8  88742295.42048  21671748.718    21671748.240    21671747.221
        48.250          51.750
 137905014.280 6                  26242425.635
        40.250
 109632620.981 8                  20566749.424
        50.250
 196144258.351 7                  37325005.011
        47.250
 205017204.243 7                  39013273.424
        44.000
 126039341.404 7                  23536964.880
        42.500
 142335756.954 6                  27085593.066
        39.500
 123616077.348 6                  23124944.146
        41.750
 195618129.063 7                  37225107.478
        46.250
 109504016.436 6                  20477785.765
        39.500
 140334380.536 7                  26704719.008
        42.000
 137292201.646 7                  26125800.576
        43.250
 108760954.683 8                  20324587.111
        53.000
 116197898.323 7  90543899.77746  22111696.669    22111696.240    22111697.880
        45.250          36.000
 21 10 12  0 12 30.0000000  0 27G31G16S48G32G25G18E05E09R09G27R22E31
                                E12G29E26R10S36S23R08E04R01S25R20E24
                                E01R21G26
 109339826.794 8  85199886.69949  20806665.018    20806664.732    20806662.842
        50.000          54.250
 129133271.726 6 100623348.72043  24573243.992    24573243.085    24573243.420
        37.000          20.000
  31875131.764 7                   6065700.569
        44.250
 118937258.504 7  92678403.63145  22632997.064    22632997.002    22632999.558
        47.250          35.500
 121931974.646 7  95012053.83646  23202844.234    23202843.425    23202845.465
        42.500          40.750
 118504490.156 7  92341208.81445  22550638.732    22550638.522    22550639.196
        45.500          35.000
 144782830.215 6                  27551256.805
        37.250
 126439463.156 7                  24060621.186
        44.000
 121929932.810 7                  22833526.539
        44.750
                                  25532569.385    25532569.296    25532577.800
        43.500          15.500
                                  23791486.076
        34.250
 128310799.312 8                  24416687.058
        48.000
 129316685.183 6                  24608143.565
        40.250
 113955684.125 8  88796699.86848  21685034.483    21685034.010    21685033.646
        48.500          50.750
 137945763.043 6                  26250179.991
        40.000
 109632023.966 8                  20566636.936
        50.250
 196144223.316 7                  37324997.879
        47.000
 205017037.749 7                  39013240.920
        43.750
 126136246.764 6                  23555061.759
        41.000
 142416259.412 6                  27100912.725
        40.500
 123667422.490 6                  23134548.261
        40.750
 195615118.000 7                  37224542.783
        46.250
 109557832.008 6                  20487850.233
        39.000
 140293082.807 7                  26696860.204
        42.250
 137325193.993 7                  26132078.834
        43.000
 108676084.068 8                  20308726.860
        53.000
 116154429.285 7  90510027.80346  22103424.800    22103424.371    22103425.754
        46.000          36.000
 21 10 12  0 13  0.0000000  0 27G31G16S48G32G25G18E05E09R09G27R22E31
                                E12G29E26R10S36S23R08E04R01S25R20E24
                                E01R21G26
 109304500.797 8  85172359.95349  20799942.651    20799942.365    20799940.267
        50.000          54.250
 129065941.921 6 100570883.98143  24560431.758    24560430.869    24560429.883
        39.000          21.250
  31875176.578 7                   6065723.978
        44.250
 119023708.469 7  92745767.16745  22649448.064    22649447.993    22649450.532
        46.500          35.250
 121994231.152 7  95060565.39246  23214691.094    23214690.285    23214692.734
        42.250          41.250
 118430194.935 7  92283316.55145  22536500.604    22536500.390    22536501.334
        45.500          35.500
 144759923.042 6                  27546897.636
        36.500
 126481081.402 7                  24068540.786
        44.000
 121989079.166 7                  22844602.589
        46.250
 134067418.824 5 104468151.45543  25512182.093    25512181.508    25512188.708
        33.750          19.000
                                  23765871.213
        33.000
 128301767.692 8                  24414968.329
        48.000
 129230093.405 6                  24591665.523
        40.250
 114025831.757 8  88851360.35448  21698383.383    21698382.910    21698381.972
        48.000          50.750
 137986881.012 6                  26258004.318
        40.750
 109631665.357 8                  20566569.937
        50.250
 196144176.098 7                  37324990.259
        47.500
 205016865.308 7                  39013208.098
        44.000
 126233199.522 6                  23573166.982
        40.750
 142496740.832 6                  27116228.164
        41.250
 123719250.109 6                  23144244.750
        41.500
 195612092.675 7                  37223977.190
        46.500
 109612389.531 6                  20498052.988
        39.250
 140251754.585 7                  26688995.579
        42.250
 137358212.101 7                  26138361.972
        43.250
 108591833.420 8                  20292982.699
        52.500
 116111054.688 7  90476229.42046  22095170.659    22095170.230    22095171.814
        46.000          36.750
 21 10 12  0 13 30.0000000  0 27G31G16S48G32G25G18E05E09R09G27R22E31
                                E12G29E26R10S36S23R08E04R01S25R20E24
                                E01R21G26
 109269553.227 8  85145128.07649  20793292.474    20793292.188    20793289.909
        49.750          54.250
 128998697.364 6 100518485.67143  24547635.027    24547634.129    24547633.498
        38.750          20.750
  31875223.386 7                   6065747.025
        44.500
 119110374.005 7  92813298.73246  22665939.947    22665939.876    22665942.480
        46.500          36.500
 122056526.941 6  95109107.52446  23226545.767    23226544.963    23226547.144
        41.750          41.000
 118356175.376 7  92225639.08345  22522415.258    22522415.048    22522416.067
        45.250          35.750
 144737397.311 6                  27542611.263
        36.000
 126523005.495 7                  24076518.962
        44.000
 122048477.283 7                  22855725.611
        44.750
 133960441.53016 104384783.52753  25491820.247    25491820.064    25491828.552
        36.500          22.500
                                  23740266.578
        33.500
 128292755.302 8                  24413253.275
        48.000
 129143603.073 6                  24575206.738
        40.250
 114096314.876 8  88906282.26348  21711795.949    21711795.476    21711794.733
        48.000          51.500
 138028376.175 6                  26265900.817
        40.250
 109631556.460 8                  20566549.300
        50.000
 196144136.628 7                  37324983.006
        47.250
 205016696.703 7                  39013175.558
        44.000
 126330202.965 7                  23591282.428
        42.500
 142577208.468 6                  27131540.315
        40.250
 123771566.023 6                  23154030.423
        41.250
 195609059.390 7                  37223408.775
        46.000
 109667695.804 6                  20508394.520
        39.250
 140210404.603 7                  26681127.126
        42.750
 137391265.587 7                  26144651.618
        42.750
 108508215.701 8                  20277356.461
        53.250
 116067783.383 7  90442511.53346  22086936.787    22086936.367    22086937.844
        45.750          36.750
 21 10 12  0 14  0.0000000  0 27G31G16S48G32G25G18E05E09R09G27R22E31
                                E12G29E26R10S36S23R08E04R01S25R20E24
                                E01R21G26
 109234980.931 8  85118188.62649  20786713.587    20786713.301    20786711.338
        50.000          54.250
 128931532.846 6 100466149.71443  24534854.304    24534853.428    24534852.568
        38.250          22.000
  31875265.343 7                   6065769.222
        44.250
 119197246.392 7  92880991.33645  22682471.260    22682471.184    22682473.867
        46.000          35.000
 122118857.149 6  95157676.49046  23238406.557    23238405.744    23238408.490
        41.500          41.000
 118282429.376 7  92168174.77645  22508381.795    22508381.572    22508382.560
        45.500          35.750
 144715248.128 6                  27538396.214
        36.250
 126565228.702 7                  24084553.651
        44.000
 122108122.622 7                  22866895.750
        45.250
 133853554.566 5 104301496.55142  25471477.325    25471477.106    25471486.757
        34.500          16.250
                                  23714671.190
        34.750
 128283757.205 7                  24411541.020
        47.750
 129057211.104 6                  24558766.920
        40.000
 114167125.615 7  88961459.47248  21725270.882    21725270.409    21725269.749
        47.750          51.000
 138070242.291 6                  26273867.208
        39.750
 109631693.928 8                  20566575.066
        50.000
 196144095.241 7                  37324975.078
        47.500
 205016527.171 7                  39013143.818
        44.000
 126427247.051 6                  23609405.051
        40.750
 142657655.238 6                  27146848.952
        40.750
 123824360.871 6                  23163907.187
        41.250
 195606019.662 7                  37222838.635
        46.500
 109723742.574 6                  20518875.753
        39.500
 140169027.463 6                  26673253.325
        41.500
 137424349.939 7                  26150947.412
        42.500
 108425229.004 8                  20261848.189
        53.250
 116024610.079 7  90408870.01246  22078721.135    22078720.720    22078722.249
        46.000          36.750
 21 10 12  0 14 30.0000000  0 27G31G16S48G32G25G18E05E09R09G27R22E31
                                E12G29E26R10S36S23R08E04R01S25R20E24
                                E01R21G26
 109200785.605 8  85091542.91849  20780206.187    20780205.897    20780204.180
        49.500          54.250
 128864447.700 6 100413875.60543  24522088.596    24522087.720    24522087.378
        38.750          23.000
  31875303.677 7                   6065791.052
        44.250
 119284322.389 7  92948842.42646  22699041.494    22699041.410    22699044.189
        45.000          36.000
 122181221.736 6  95206272.24546  23250274.072    23250273.263    23250276.203
        41.750          41.500
 118208959.922 7  92110925.97146  22494400.931    22494400.712    22494401.500
        45.250          36.000
 144693475.742 6                  27534252.977
        36.000
 126607749.262 7                  24092645.087
        44.250
 122168015.838 7                  22878112.680
        46.250
 133746784.575 5 104218298.45743  25451161.571    25451161.388    25451168.808
        35.250          23.000
                                  23689090.179
        34.750
 128274773.630 8                  24409831.473
        48.250
 128970919.427 6                  24542346.187
        40.500
 114238261.065 8  89016889.71848  21738807.306    21738806.837    21738806.223
        48.000          51.250
 138112478.172 6                  26281904.722
        39.750
 109632079.303 8                  20566647.969
        50.500
 196144053.178 7                  37324967.601
        47.500
 205016356.624 7                  39013111.591
        44.000
 126524328.608 6                  23627534.347
        40.500
 142738078.718 6                  27162153.011
        41.250
 123877631.409 6                  23173872.668
        40.750
 195602963.539 7                  37222265.605
        46.000
 109780527.046 6                  20529495.145
        38.750
 140127622.757 7                  26665374.130
        42.000
 137457465.744 7                  26157249.310
        43.500
 108342876.586 8                  20246458.944
        53.500
 115981534.518 7  90375304.64846  22070524.117    22070523.706    22070525.854
        45.500          37.000
 21 10 12  0 15  0.0000000  0 27G31G16S48G32G25G18E05E09R09G27R22E31
                                E12G29E26R10S36S23R08E04R01S25R20E24
                                E01R21G26
 109166970.073 8  85065193.15449  20773771.583    20773771.293    20773769.095
        49.500          54.250
 128797443.011 6 100361664.21643  24509337.925    24509337.036    24509337.557
        37.250          22.000
  31875341.507 7                   6065814.264
        44.250
 119371600.274 7  93016850.80745  22715650.433    22715650.344    22715652.913
        44.750          35.250
 122243621.941 6  95254895.75546  23262149.031    23262148.227    23262150.570
        41.500          41.000
 118135771.178 7  92053895.88745  22480473.449    22480473.235    22480473.827
        45.000          35.750
 144672081.584 6                  27530182.202
        36.000
 126650566.721 7                  24100793.086
        44.000
 122228158.786 7                  22889374.547
        45.750
 133640113.80116 104135189.26754  25430869.218    25430868.990    25430876.545
        40.750          28.000
 126317475.09715                  23663522.212
        34.000
 128265805.980 7                  24408125.009
        47.750
 128884731.284 6                  24525944.988
        40.500
 114309719.421 7  89072571.56048  21752405.476    21752405.007    21752404.440
        47.750          51.000
 138155083.956 6                  26290012.220
        40.000
 109632715.644 8                  20566767.099
        50.250
 196144013.679 7                  37324959.999
        47.250
 205016185.305 7                  39013075.644
        43.750
 126621445.558 6                  23645669.812
        39.500
 142818477.714 6                  27177452.567
        41.250
 123931375.139 6                  23183926.912
        41.250
 195599902.007 7                  37221690.823
        46.250
 109838047.491 6                  20540252.307
        39.250
 140086191.395 6                  26657489.928
        41.750
 137490614.626 7                  26163557.217
        42.500
 108261163.364 8                  20231188.746
        53.000
 115938557.733 7  90341816.25046  22062345.860    22062345.449    22062347.569
        45.250          37.000
 21 10 12  0 15 30.0000000  0 27G31G16S48G32G25G18E05E09R09G27R22E31
                                E12G29E26R10S36S23R08E04R01S25R20E24
                                E01R21G26
 109133536.027 8  85039140.65249  20767409.219    20767408.929    20767406.799
        49.750          54.250
 128730518.271 6 100309515.08543  24496602.560    24496601.706    24496601.348
        38.500          23.000
  31875377.919 7                   6065836.645
        44.250
 119459076.632 7  93085013.82645  22732296.458    22732296.369    22732299.552
        47.500          35.500
 122306057.541 6  95303546.85646  23274030.160    23274029.347    23274031.984
        41.250          40.500
 118062865.845 7  91997086.64345  22466599.765    22466599.551    22466600.090
        45.000          35.500
 144651065.651 6                  27526182.892
        36.250
 126693679.110 7                  24108997.081
        44.000
 122288551.412 7                  22900685.332
        47.000
 133533593.905 7 104052192.68653  25410599.992    25410599.849    25410607.033
        42.250          22.000
 126181064.074 6                  23637965.536
        36.000
 128256854.234 7                  24406421.563
        47.500
 128798648.404 6                  24509563.983
        40.500
 114381498.203 7  89128503.09748  21766064.370    21766063.901    21766063.271
        47.500          50.500
 138198058.146 6                  26298190.089
        39.500
 109633604.355 8                  20566933.440
        50.500
 196143973.927 7                  37324951.687
        47.250
 205016012.356 7                  39013045.335
        43.750
 126718591.198 6                  23663810.785
        39.500
 142898850.670 6                  27192747.056
        41.000
 123985587.777 6                  23194068.859
        41.000
 195596832.752 7                  37221115.441
        46.500
 109896300.427 6                  20551145.114
        39.750
 140044732.804 6                  26649600.649
        41.500
 137523797.037 7                  26169871.517
        42.000
 108180092.384 8                  20216038.661
        53.000
 115895679.236 7  90308404.43746  22054186.118    22054185.703    22054187.896
        45.250          37.000
 21 10 12  0 16  0.0000000  0 28G31G16S48G32G25G18E05E09R09G27R22E31
                                R02E12G29E26R10S36S23R08E04R01S25R20
                                E24E01R21G26
 109100484.844 8  85013386.48149  20761119.757    20761119.471    20761117.305
        50.000          54.500
 128663672.462 6 100257427.48043  24483882.574    24483881.720    24483881.370
        37.750          22.250
  31875412.798 7                   6065858.126
        44.250
 119546748.291 7  93153329.10346  22748980.229    22748980.140    22748983.399
        47.250          37.000
 122368528.617 6  95352225.61046  23285917.741    23285916.928    23285919.743
        41.500          40.000
 117990246.904 7  91940500.55745  22452780.998    22452780.775    22452781.247
        45.500          35.750
 144630428.082 6                  27522255.596
        36.250
 126737084.697 7                  24117256.992
        43.750
 122349194.466 7                  22912041.468
        46.000
 133427202.080 6 103969293.46453  25390354.929    25390354.384    25390362.026
        39.500          22.500
 126044729.74914                  23612422.824
        26.750
 128247918.518 7                  24404721.347
        47.500


 128712672.690 6                  24493203.014
        40.250
 114453594.765 7  89184682.27948  21779784.080    21779783.607    21779782.580
        47.500          50.750
 138241399.612 6                  26306437.201
        39.750
 109634747.414 8                  20567148.156
        50.250
 196143934.051 7                  37324943.937
        47.250
 205015838.523 7                  39013012.245
        43.750
 126815761.544 6                  23681956.676
        41.250
 142979195.799 6                  27208036.365
        40.750
 124040265.943 6                  23204295.827
        41.250
 195593749.339 7                  37220536.871
        46.500
 109955283.080 6                  20562175.567
        39.000
 140003246.628 6                  26641706.041
        41.000
 137557013.387 7                  26176192.432
        42.750
 108099666.867 8                  20201009.013
        52.500
 115852898.817 7  90275069.05546  22046045.511    22046045.100    22046047.347
        46.250          37.500
 21 10 12  0 16 30.0000000  0 28G31G16S48G32G25G18E05E09R09G27R22E31
                                R02E12G29E26R10S36S23R08E04R01S25R20
                                E24E01R21G26
 109067826.306 8  84987938.26749  20754905.105    20754904.815    20754902.720
        50.250          54.750
 128596913.160 6 100205407.26643  24471178.864    24471178.051    24471177.226
        37.500          22.750
  31875453.404 7                   6065881.602
        44.250
 119634619.753 7  93221800.05746  22765701.965    22765701.885    22765705.251
        46.500          37.000
 122431042.912 6  95400938.04546  23297813.812    23297813.003    23297815.010
        41.500          39.500
 117917925.122 7  91884146.03445  22439018.633    22439018.410    22439019.028
        45.500          35.750
 144610176.880 6                  27518401.691
        37.000
 126780789.554 7                  24125573.826
        44.000
 122410096.388 7                  22923445.545
        44.000
 133320949.224 6 103886498.96043  25370135.618    25370135.006    25370143.482
        41.500          21.750
 125908472.99915                  23586901.486
        34.000
 128239006.933 8                  24403025.413
        48.000


 128626813.994 6                  24476864.658
        40.750
 114526014.132 8  89241112.96748  21793564.806    21793564.333    21793563.772
        48.000          51.000
 138285114.964 6                  26314756.522
        40.500
 109636153.913 8                  20567411.861
        50.250
 196143894.326 7                  37324936.492
        47.250
 205015672.832 7                  39012981.727
        43.750
 126912962.846 6                  23700106.726
        38.250
 143059518.888 6                  27223321.259
        40.750
 124095413.531 7                  23214615.351
        42.000
 195590663.646 7                  37219960.694
        46.500
 110015000.448 6                  20573342.680
        39.500
 139961740.394 6                  26633807.618
        41.750
 137590272.023 7                  26182521.237
        42.750
 108019898.242 8                  20186102.250
        52.500
 115810224.090 7  90241816.03046  22037924.823    22037924.412    22037926.178
        46.000          37.750
 21 10 12  0 17  0.0000000  0 28G31G16S48G32G25G18E05E09R09G27R22E31
                                R02E12G29E26R10S36S23R08E04R01S25R20
                                E24E01R21G26
 109035549.909 8  84962787.82549  20748763.139    20748762.853    20748760.839
        50.000          54.500
 128530228.427 6 100153445.16743  24458488.701    24458487.901    24458487.826
        38.250          23.000
  31875488.132 7                   6065903.455
        44.500
 119722676.029 7  93290415.00245  22782458.725    22782458.641    22782462.375
        47.250          35.750
 122493588.658 6  95449674.97046  23309715.971    23309715.162    23309717.092
        41.500          39.500
 117845891.587 7  91828016.11145  22425310.792    22425310.569    22425311.283
        45.500          35.500
 144590300.404 6                  27514619.445
        36.750
 126824780.140 7                  24133944.780
        43.750
 122471245.990 7                  22934898.351
        45.000
 133214821.30217 103803801.62154  25349940.438    25349939.911    25349947.823
        43.000          24.750
 125772316.36915                  23561392.593
        34.500
 128230107.860 7                  24401331.973
        47.500


 128541062.473 6                  24460546.593
        40.000
 114598741.694 7  89297783.80848  21807404.495    21807404.022    21807403.077
        47.500          50.000
 138329191.169 6                  26323143.634
        40.250
 109637813.726 8                  20567723.886
        50.500
 196143853.509 7                  37324928.984
        47.250
 205015502.864 7                  39012948.176
        44.000
 127010175.708 7                  23718260.923
        42.500
 143139805.632 6                  27238599.392
        39.500
 124151014.830 6                  23225015.856
        40.500
 195589169.233 7                  37219379.951
        46.500
 110075437.071 6                  20584644.300
        39.000
 139920201.945 6                  26625903.139
        41.000
 137623561.688 7                  26188856.080
        42.750
 107940777.521 8                  20171316.689
        52.750
 115767643.066 7  90208636.02946  22029822.046    22029821.631    22029823.084
        46.000          37.250
 21 10 12  0 17 30.0000000  0 28G31G16S48G32G25G18E05E09R09G27R22E31
                                R02E12G29E26R10S36S23R08E04R01S25R20
                                E24E01R21G26
 109003660.727 8  84937939.11049  20742694.780    20742694.490    20742692.503
        50.000          54.250
 128463620.729 6 100101543.09343  24445813.200    24445812.378    24445812.243
        38.250          21.750
  31875519.226 7                   6065924.807
        44.250
 119810917.080 7  93359173.99645  22799250.973    22799250.880    22799254.194
        45.250          32.250
 122556169.187 6  95498438.98246  23321624.677    23321623.873    23321626.418
        41.250          39.750
 117774152.423 7  91772115.56845  22411659.223    22411658.995    22411659.531
        45.250          35.250
 144570801.991 6                  27510908.963
        37.000
 126869057.873 7                  24142370.253
        43.750
 122532646.619 7                  22946396.205
        45.000
 133108826.612 6 103721208.62844  25329770.254    25329769.865    25329775.990
        39.750          26.250
 125636204.35115                  23535898.843
        31.750
 128221224.787 7                  24399641.483
        47.500
 130728469.48215                  24498469.173
        30.250
 128455423.242 6                  24444249.783
        40.250
 114671778.256 8  89354695.43748  21821302.791    21821302.318    21821301.466
        48.000          50.000
 138373630.202 6                  26331600.014
        40.500
 109639732.866 8                  20568083.345
        50.500
 196143816.100 7                  37324920.931
        47.500
 205015330.794 7                  39012915.175
        43.750
 127107399.210 7                  23736415.152
        44.750
 143220057.463 6                  27253870.754
        39.250
 124207069.599 6                  23235501.196
        41.250
 195586067.510 7                  37218796.270
        47.000
 110136593.029 6                  20596082.070
        39.250
 139878634.116 7                  26617992.992
        42.000
 137656885.995 7                  26195197.618
        43.000
 107862311.403 8                  20156653.199
        53.750
 115725158.654 7  90175531.29446  22021737.145    22021736.725    22021738.927
        45.750          37.000
 21 10 12  0 18  0.0000000  0 28G31G16S48G32G25G18E05E09R09G27R22E31
                                R02E12G29E26R10S36S23R08E04R01S25R20
                                E24E01R21G26
 108972163.670 8  84913395.94649  20736701.092    20736700.802    20736698.933
        50.000          54.500
 128397092.885 6 100049703.22043  24433154.039    24433153.235    24433152.337
        38.000          22.250
  31875551.096 7                   6065947.787
        44.500
 119899343.135 7  93428077.40545  22816077.405    22816077.307    22816081.084
        45.500          35.750
 122618787.457 6  95547232.42846  23333540.554    23333539.750    23333542.421
        41.250          39.750
 117702713.588 7  91716449.04745  22398064.813    22398064.581    22398064.931
        45.000          35.250
 144551684.773 6                  27507271.005
        36.500
 126913624.022 7                  24150851.029
        43.750
 122594302.191 7                  22957941.663
        42.750
 133002967.136 6 103638720.20343  25309626.202    25309625.858    25309632.403
        38.750          22.750
 125500242.20515                  23510424.076
        30.000
 128212360.879 7                  24397954.783
        47.500
 130692944.989 5                  24491812.278
        33.750
 128369901.333 6                  24427975.488
        40.250
 114745123.945 7  89411847.92948  21835259.878    21835259.405    21835258.795
        47.750          50.500
 138418433.831 6                  26340125.927
        40.250
 109641915.138 8                  20568493.221
        50.750
 196143779.874 7                  37324913.843
        47.500
 205015159.854 7                  39012883.217
        43.250
 127204631.278 6                  23754571.755
        39.750
 143300274.890 6                  27269136.198
        39.250
 124263576.723 6                  23246072.688
        40.500
 195582955.508 7                  37218210.782
        46.750
 110198468.422 6                  20607652.079
        39.250
 139837039.666 6                  26610078.036
        41.750
 137690248.621 7                  26201546.238
        42.500
 107784505.968 8                  20142113.501
        52.750
 115682773.736 7  90142504.09746  22013671.379    22013670.959    22013673.220
        45.750          36.750
 21 10 12  0 18 30.0000000  0 28G31G16S48G32G25G18E05E09R09G27R22E31
                                R02E12G29E26R10S36S23R08E04R01S25R20
                                E24E01R21G26
 108941054.411 8  84889154.96149  20730781.148    20730780.858    20730778.795
        49.500          54.750
 128330638.851 6  99997920.89243  24420507.161    24420506.348    24420506.365
        37.250          22.250
  31875578.807 7                   6065968.160
        44.500
 119987945.093 7  93497117.90945  22832937.824    22832937.722    22832941.118
        45.750          35.750
 122681438.001 6  95596051.01346  23345462.226    23345461.422    23345464.513
        40.000          40.000
 117631572.404 7  91661014.45646  22384527.033    22384526.797    22384527.259
        45.000          36.000
 144532943.286 6                  27503704.729
        36.250
 126958471.229 7                  24159385.274
        44.000
 122656206.949 7                  22969535.622
        43.500
 132897241.879 7 103556337.18044  25289507.020    25289506.609    25289514.010
        45.250          26.500
 125364341.90515                  23484964.595
        31.250
 128203510.820 7                  24396270.649
        47.750
 130658038.739 5                  24485270.869
        30.750
 128284493.139 6                  24411722.884
        40.000
 114818769.967 7  89469234.45648  21849274.543    21849274.070    21849273.120
        47.000          50.250
 138463595.296 6                  26348720.118
        40.000
 109644356.996 8                  20568951.038
        50.250
 196143736.540 7                  37324904.533
        47.750
 205014983.908 7                  39012849.259
        44.000
 127301861.835 6                  23772729.146
        40.750
 143380450.995 6                  27284393.213
        37.750
 124320526.658 6                  23256725.974
        40.750
 195579831.451 7                  37217622.764
        46.750
 110261054.257 6                  20619355.716
        39.500
 139795412.670 6                  26602156.521
        41.250
 137723644.442 7                  26207901.248
        42.500
 107707358.850 8                  20127696.489
        53.500
 115640482.557 7  90109549.94446  22005623.862    22005623.438    22005625.212
        45.500          37.250
 21 10 12  0 19  0.0000000  0 28G31G16S48G32G25G18E05E09R09G27R22E31
                                R02E12G29E26R10S36S23R08E04R01S25R20
                                E24E01R21G26
 108910348.117 8  84865227.97549  20724937.944    20724937.654    20724935.556
        49.750          54.750
 128264271.626 6  99946206.20143  24407879.182    24407878.355    24407876.960
        38.750          22.500
  31875614.911 7                   6065990.165
        44.000
 120076733.150 7  93566303.54545  22849833.581    22849833.474    22849836.576
        44.500          34.250
 122744134.304 6  95644905.23646  23357393.077    23357392.277    23357395.057
        40.500          38.750
 117560745.265 7  91605824.56545  22371048.823    22371048.582    22371049.453
        45.250          35.750
 144514591.157 6                  27500212.508
        36.500
 127003611.169 7                  24167975.233
        44.000
 122718375.295 7                  22981176.820
        42.500
 132791662.494 6 103474067.19444  25269416.564    25269416.243    25269422.312
        36.750          26.500
                                  23459525.091
        26.500
 128194688.271 7                  24394591.819
        47.750
 130623766.430 5                  24478848.404
        32.750
 128199214.074 6                  24395494.757
        40.500
 114892727.226 7  89526863.53148  21863348.183    21863347.714    21863346.402
        47.500          50.000
 138509126.786 6                  26357384.411
        40.000
 109647073.538 8                  20569460.723
        50.250
 196143694.784 7                  37324898.398
        47.250
 205014816.479 7                  39012816.898
        43.500
 127399102.374 7                  23790888.676
        43.500
 143460597.519 6                  27299644.677
        39.000
 124377929.297 6                  23267464.120
        40.250
 195576706.051 7                  37217034.473
        46.250
 110324361.026 6                  20631195.465
        39.250
 139753766.257 7                  26594231.616
        42.000
 137757087.625 7                  26214265.128
        43.750
 107630886.740 8                  20113406.114
        53.250
 115598298.290 7  90076679.10546  21997596.425    21997596.005    21997597.822
        46.000          37.500
 21 10 12  0 19 30.0000000  0 28G31G16S48G32G25G18E05E09R09G27R22E31
                                R02E12G29E26R10S36S23R08E04R01S25R20
                                E24E01R21G26
 108880032.741 8  84841605.61149  20719169.104    20719168.809    20719166.975
        49.750          54.750
 128197977.109 6  99894548.15943  24395263.184    24395262.375    24395260.939
        37.750          21.000
  31875644.609 7                   6066011.646
        44.500
 120165690.393 7  93635621.19045  22866761.325    22866761.214    22866764.239
        42.500          32.750
 122806862.652 6  95693784.43546  23369330.268    23369329.459    23369331.119
        40.500          38.000
 117490221.283 7  91550870.91646  22357628.496    22357628.260    22357628.992
        45.500          36.250
 144496614.583 6                  27496791.328
        36.500
 127049028.208 7                  24176617.719
        44.000
 122780793.380 7                  22992865.018
        42.000
 132686219.309 6 103391903.43944  25249351.652    25249351.295    25249355.986
        36.000          25.250
 125092849.89215                  23434105.966
        32.500
 128185879.763 8                  24392915.597
        48.000
 130590113.757 5                  24472542.903
        34.000
 128114052.291 6                  24379288.740
        40.500
 114966980.067 7  89584722.90348  21877477.853    21877477.380    21877476.359
        47.500          50.250
 138555013.228 6                  26366116.100
        40.250
 109650052.808 8                  20570019.540
        50.250
 196143651.294 7                  37324890.439
        47.250
 205014644.960 7                  39012786.111
        44.000
 127496333.516 7                  23809047.908
        42.750
 143540698.602 6                  27314887.608
        40.000
 124435766.611 6                  23278283.962
        40.250
 195573556.817 7                  37216442.609
        45.750
 110388371.514 6                  20643165.820
        39.250
 139712086.352 7                  26586300.094
        42.000
 137790564.878 7                  26220635.627
        43.250
 107555078.900 8                  20099239.433
        53.000
 115556207.045 7  90043880.73446  21989586.765    21989586.345    21989588.332
        46.000          37.500
 21 10 12  0 20  0.0000000  0 28G31G16S48G32G25G18E05E09R09G27R22E31
                                R02E12G29E26R10S36S23R08E04R01S25R20
                                E24E01R21G26
 108850112.758 8  84818291.33949  20713475.702    20713475.403    20713473.491
        50.000          55.000
 128131757.435 6  99842948.42143  24382662.198    24382661.371    24382659.996
        38.250          22.000
  31875671.635 7                   6066032.703
        44.500
 120254816.323 7  93705070.31445  22883721.296    22883721.180    22883723.824
        44.500          32.250
 122869626.023 6  95742690.91546  23381273.511    23381272.711    23381274.894
        41.250          39.500
 117420006.218 7  91496157.97946  22344266.904    22344266.663    22344267.435
        45.750          36.250
 144479016.575 6                  27493443.114
        36.750
 127094723.468 7                  24185313.188
        43.500
 122843464.915 7                  23004602.755
        42.500
 132580914.012 6 103309846.46743  25229314.750    25229314.335    25229317.993
        41.750          21.000
 124957263.640 5                  23408706.175
        34.250
 128177088.366 8                  24391242.633
        48.000
 130557084.926 5                  24466353.907
        31.750
 128029012.618 6                  24363105.901
        40.250
 115041528.238 7  89642812.38848  21891664.179    21891663.706    21891662.519
        47.250          50.250
 138601256.194 6                  26374915.871
        40.250
 109653299.346 8                  20570628.691
        50.500
 196143609.178 7                  37324882.994
        47.500
 205014471.547 7                  39012752.006
        44.000
 127593553.718 7                  23827201.167
        42.250
 143620754.993 6                  27330121.559
        37.250
 124494037.915 6                  23289184.024
        40.000
 195570406.718 7                  37215849.824
        46.250
 110453085.154 6                  20655266.279
        38.750
 139670375.527 6                  26578362.781
        41.750
 137824079.453 7                  26227013.387
        43.000
 107479941.523 8                  20085197.932
        53.250
 115514211.502 7  90011156.93846  21981595.147    21981594.723    21981596.720
        45.750          37.250
 21 10 12  0 20 30.0000000  0 28G31G16S48G32G25G18E05E09R09G27R22E31
                                R02E12G29E26R10S36S23R08E04R01S25R20
                                E24E01R21G26
 108820594.310 8  84795289.94649  20707858.539    20707858.240    20707856.162
        49.750          55.000
 128065616.670 6  99791410.20543  24370075.586    24370074.750    24370073.845
        38.250          21.000
  31877298.212 7                   6066053.518
        44.750
 120344111.390 7  93774651.05545  22900713.297    22900713.172    22900715.789
        46.500          32.000
 122932428.685 6  95791628.04046  23393224.326    23393223.522    23393226.294
        40.750          39.000
 117350107.249 7  91441691.35446  22330965.671    22330965.435    22330965.914
        45.500          36.250
 144461801.438 6                  27490167.217
        36.500
 127140699.404 7                  24194062.158
        43.750
 122906394.404 6                  23016386.501
        39.500
 132475754.665 6 103227903.07944  25209302.030    25209301.583    25209308.497
        38.500          24.500
 124821790.274 5                  23383327.596
        32.500
 128168318.611 8                  24389573.809
        48.000
 130524684.911 5                  24460282.088
        33.250
 127944101.314 6                  24346947.771
        40.250
 115116373.581 7  89701133.43748  21905906.354    21905905.881    21905905.182
        47.750          50.250
 138647858.698 6                  26383784.122
        40.250
 109656818.920 8                  20571288.840
        50.750
 196143567.189 7                  37324875.410
        47.500
 205014298.685 7                  39012719.833
        44.000
 127690764.558 7                  23845355.287
        43.750
 143700769.220 6                  27345347.643
        41.250
 124552743.591 6                  23300167.338
        41.250
 195567237.750 7                  37215255.559
        46.750
 110518503.313 6                  20667499.693
        39.250
 139628637.767 6                  26570420.551
        41.750
 137857636.316 7                  26233399.105
        43.750
 107405481.551 8                  20071283.340
        53.000
 115472315.749 7  89978510.91046  21973622.643    21973622.223    21973624.264
        46.000          37.500
 21 10 12  0 21  0.0000000  0 28G31G16S48G32G25G18E05E09R09G27R22E31
                                R02E12G29E26R10S36S23R08E04R01S25R20
                                E24E01R21G26
 108791475.417 8  84772599.90249  20702317.230    20702316.931    20702315.066
        50.000          54.750
 127999550.913 6  99739930.41043  24357503.505    24357502.660    24357501.435
        38.250          21.250
  31877321.356 7                   6066075.590
        44.250
 120433569.263 7  93844358.59345  22917736.537    22917736.417    22917739.381
        44.750          32.000
 122995267.348 6  95840593.21746  23405182.160    23405181.356    23405183.873
        40.750          38.750
 117280523.814 7  91387470.59546  22317724.310    22317724.069    22317724.295
        46.250          36.250
 144444965.816 6                  27486963.383
        37.000
 127186950.815 7                  24202863.844
        43.500
 122969578.981 6                  23028219.488
        40.750
 132370741.540 6 103146074.56144  25189319.563    25189319.090    25189325.885
        39.000          27.500
 124686430.731 5                  23357969.165
        35.750
 128159567.350 8                  24387908.415
        48.000
 130492910.597 5                  24454327.217
        34.000
 127859316.910 6                  24330813.891
        40.750
 115191509.500 7  89759680.93348  21920204.541    21920204.068    21920202.699
        47.750          50.000
 138694815.979 6                  26392719.611
        40.000
 109660609.919 8                  20572000.243
        50.750
 196143526.596 7                  37324867.754
        47.500
 205014124.489 7                  39012685.875
        43.750
 127787957.211 6                  23863505.316
        37.250
 143780735.472 6                  27360564.564
        39.250
 124611876.049 6                  23311228.366
        40.250
 195564062.211 7                  37214657.224
        46.000
 110584618.897 6                  20679864.035
        39.000
 139586869.345 7                  26562472.108
        42.000
 137891232.522 7                  26239792.113
        43.500
 107331698.770 8                  20057495.259
        53.500
 115430516.239 7  89945939.87846  21965668.734    21965668.310    21965670.200
        46.500          37.750
 21 10 12  0 21 30.0000000  0 28G31G16S48G32G25G18E05E09R09G27R22E31
                                R02E12G29E26R10S36S23R08E04R01S25R20
                                E24E01R21G26
 108762762.315 8  84750226.05149  20696853.339    20696853.040    20696850.990
        50.000          54.750
 127933564.600 6  99688512.53243  24344947.044    24344946.199    24344945.253
        38.000          20.750
  31877348.030 7                   6066095.422
        44.750
 120523192.553 7  93914195.42645  22934791.050    22934790.939    22934793.877
        47.250          34.250
 123058146.943 6  95889590.27446  23417147.675    23417146.875    23417149.443
        39.500          37.750
 117211263.653 7  91333501.73146  22304544.532    22304544.291    22304544.464
        46.250          36.250
 144428514.699 6                  27483832.685
        37.250
 127233480.719 7                  24211718.146
        43.500
 123033023.605 6                  23040101.150
        41.500
 132265879.826 6 103064364.36844  25169363.965    25169363.505    25169370.164
        37.750          24.250
 124551195.276 6                  23332636.199
        36.000
 128150839.765 8                  24386247.648
        48.000
 130461767.722 5                  24448490.977
        33.250
 127774666.250 6                  24314705.284
        40.750
 115266937.828 7  89818456.27448  21934558.193    21934557.715    21934556.500
        47.250          50.000
 138742131.725 6                  26401723.633
        40.000
 109664679.403 8                  20572763.624
        50.250
 196143492.085 7                  37324859.294
        47.500
 205013953.962 7                  39012652.745
        44.000
 127885133.777 7                  23881656.153
        43.250
 143860656.685 6                  27375773.006
        40.500
 124671436.691 6                  23322370.825
        40.500
 195560891.259 7                  37214061.457
        46.250
 110651433.607 6                  20692359.044
        39.500
 139545074.888 7                  26554519.103
        42.500
 137924873.451 7                  26246193.728
        43.250
 107258601.175 8                  20043835.076
        53.000
 115388817.483 7  89913447.35546  21957733.632    21957733.203    21957735.400
        46.000          38.000
 21 10 12  0 22  0.0000000  0 28G31G16S48G32G25G18E05E09R09G27R22E31
                                R02E12G29E26R10S36S23R08E04R01S25R20
                                E24E01R21G26
 108734450.336 8  84728164.76049  20691465.887    20691465.588    20691463.378
        50.000          54.750
 127867651.220 6  99637151.48243  24332404.184    24332403.317    24332402.527
        39.250          22.250
  31877370.000 7                   6066119.327
        44.750
 120612970.307 7  93984152.35445  22951875.026    22951874.910    22951877.509
        46.000          32.000
 123121061.288 6  95938614.40846  23429120.492    23429119.679    23429121.497
        39.250          37.250
 117142323.375 7  91279782.12346  22291425.876    22291425.644    22291425.582
        46.250          36.000
 144412441.701 6                  27480774.480
        37.500
 127280281.003 7                  24220623.946
        43.750
 123096722.381 6                  23052029.433
        41.250
                                  25149438.220    25149437.697    25149442.920
        35.750          23.250
 124416081.374 5                  23307323.596
        34.500
 128142129.818 8                  24384590.298
        48.000
 130431250.640 5                  24442770.982
        34.750
 127690144.930 6                  24298621.315
        40.500
 115342650.121 7  89877452.88548  21948965.440    21948964.962    21948963.835
        47.750          50.250
 138789798.197 6                  26410793.868
        40.250
 109669022.306 8                  20573578.430
        50.750
 196143451.404 7                  37324850.986
        47.500
 205013781.385 7                  39012619.758
        43.750
 127982281.347 6                  23899796.530
        41.250
 143940524.767 6                  27390971.203
        40.250
 124731414.861 6                  23333590.083
        40.250
 195557703.215 7                  37213461.570
        46.000
 110718937.431 6                  20704982.487
        38.750
 139503247.818 7                  26546559.537
        43.000
 137958553.385 7                  26252602.954
        42.500
 107186185.352 8                  20030302.269
        53.000
 115347213.395 7  89881028.58746  21949816.730    21949816.301    21949818.401
        46.250          37.750
 21 10 12  0 22 30.0000000  0 28G31G16S48G32G25G18E05E09R09G27R22E31
                                R02E12G29E26R10S36S23R08E04R01S25R20
                                E24E01R21G26
 108706542.144 8  84706418.12249  20686155.082    20686154.783    20686152.695
        50.250          54.750
 127801810.803 6  99585847.27243  24319874.907    24319874.062    24319872.964
        38.250          21.500
  31877386.477 7                   6066138.797
        44.500
 120702900.685 7  94054228.17545  22968987.927    22968987.811    22968991.093
        46.250          35.000
 123184011.252 6  95987666.30946  23441098.687    23441097.874    23441100.871
        39.500          38.250
 117073706.637 7  91226314.60546  22278368.368    22278368.132    22278367.881
        46.250          36.000
 144396747.691 6                  27477787.610
        37.250
 127327350.623 7                  24229580.984
        43.750
 123160677.052 7                  23064007.615
        43.000
 132056610.028 6 102901284.17144  25129539.449    25129538.765    25129545.988
        36.750          26.000
 124281091.743 5                  23282035.490
        34.000
 128133438.563 8                  24382936.466
        48.250
 130401361.098 5                  24437168.653
        32.500
 127605755.743 6                  24282562.496
        41.000
 115418644.524 7  89936669.34748  21963426.788    21963426.310    21963424.956
        47.250          49.750
 138837814.947 6                  26419931.588
        40.500
 109673641.176 8                  20574444.554
        50.750
 196143407.363 7                  37324842.472
        47.500
 205013605.622 7                  39012585.617
        44.000
 128079399.688 6                  23917933.604
        36.750
 144020338.391 6                  27406159.089
        38.750
 124791807.291 6                  23344887.939
        39.500
 195554495.528 7                  37212858.921
        46.250
 110787128.069 6                  20717733.636
        39.000
 139461388.610 7                  26538594.201
        43.250
 137992273.836 7                  26259019.745
        42.250
 107114454.941 8                  20016897.700
        53.250
 115305704.457 7  89848683.97246  21941917.788    21941917.355    21941918.989
        46.250          37.250
 21 10 12  0 23  0.0000000  0 28G31G16S48G32G25G18E05E09R09G27R22E31
                                R02E12G29E26R10S36S23R08E04R01S25R20
                                E24E01R21G26
 108679045.942 8  84684992.51449  20680922.619    20680922.320    20680920.513
        50.000          55.000
 127736049.904 6  99534605.03643  24307360.704    24307359.859    24307359.303
        37.500          22.250
  31877407.039 7                   6066159.657
        44.500
 120792987.037 7  94124425.42145  22986130.665    22986130.558    22986133.577
        45.250          34.750
 123247003.714 6  96036751.31146  23453086.349    23453085.531    23453088.070
        39.750          38.000
 117005423.162 7  91173106.78846  22265374.396    22265374.155    22265373.865
        45.750          36.000
 144381439.537 6                  27474875.007
        37.750
 127374694.597 7                  24238590.158
        43.000
 123224895.012 7                  23076032.509
        43.000
 131952196.991 6 102819922.63244  25109670.608    25109669.737    25109676.324
        37.250          26.250
 124146236.916 5                  23256770.620
        34.000
 128124773.186 7                  24381287.474
        47.750
 130372106.080 5                  24431686.146
        34.750
 127521507.512 6                  24266530.369
        40.500
 115494925.347 7  89996108.97048  21977942.243    21977941.756    21977940.907
        47.250          49.750
 138886187.460 6                  26429136.676
        40.250
 109678544.875 8                  20575364.273
        49.750
 196143365.265 7                  37324835.018
        47.250
 205013433.864 7                  39012553.408
        44.000
 128176490.377 6                  23936063.499
        41.250
 144100102.884 6                  27421337.575
        38.750
 124852617.475 6                  23356264.092
        40.250
 195551294.767 7                  37212256.808
        46.000
 110856008.913 6                  20730615.634
        38.500
 139419503.908 7                  26530623.679
        42.750
 138026041.959 7                  26265445.601
        43.500
 107043419.846 8                  20003623.044
        53.250
 115264297.388 7  89816418.72846  21934038.245    21934037.807    21934039.248
        46.000          37.000
 21 10 12  0 23 30.0000000  0 28G31G16S48G32G25G18E05E09R09G27R22E31
                                R02E12G29E26R10S36S23R08E04R01S25R20
                                E24E01R21G26
 108651957.203 8  84663884.41349  20675767.852    20675767.553    20675765.657
        50.000          54.750
 127670361.876 6  99483419.57943  24294861.293    24294860.466    24294859.365
        39.000          22.250
  31877425.832 7                   6066181.393
        44.250
 120883220.074 7  94194736.88645  23003301.765    23003301.667    23003303.946
        45.750          33.750
 123310032.470 6  96085864.60846  23465079.964    23465079.151    23465082.044
        39.750          38.000
 116937469.575 7  91120156.02846  22252443.061    22252442.825    22252442.795
        45.750          36.000
 144366510.963 6                  27472034.303
        38.250
 127422304.825 7                  24247650.172
        43.250
 123289369.689 6                  23088106.274
        41.000
 131847936.072 6 102738679.58143  25089829.845    25089829.000    25089835.225
        36.000          21.000
 124011515.065 5                  23231534.324
        34.000
 128116127.734 7                  24379642.349
        47.750
 130343480.637 6                  24426323.409
        36.500
 127437395.778 6                  24250524.445
        40.250
 115571483.132 7  90055764.42848  21992510.809    21992510.322    21992509.140
        47.000          49.250
 138934908.200 6                  26438407.830
        39.500
 109683728.702 8                  20576336.739
        50.500
 196143323.796 7                  37324828.172
        47.000
 205013260.113 7                  39012521.758
        43.500
 128273540.054 7                  23954187.502
        43.250
 144179809.313 6                  27436505.110
        37.500
 124913834.665 6                  23367715.614
        40.000
 195548078.770 7                  37211651.507
        46.250
 110925570.080 6                  20743623.237
        39.000
 139377587.183 6                  26522647.004
        41.750
 138059852.194 7                  26271879.917
        42.250
 106973076.721 8                  19990477.904
        53.250
 115222985.829 7  89784227.91146  21926176.963    21926176.530    21926177.988
        45.750          37.000
 21 10 12  0 24  0.0000000  0 28G31G16S48G32G25G18E05E09R09G27R22E31
                                R02E12G29E26R10S36S23R08E04R01S25R20
                                E24E01R21G26
 108625282.359 8  84643098.82049  20670691.825    20670691.526    20670689.516
        50.000          54.750
 127604751.300 6  99432294.48943  24282376.042    24282375.220    24282374.622
        37.250          22.000
  31877445.810 7                   6066201.408
        44.250
 120973600.990 7  94265163.30145  23020500.569    23020500.471    23020503.027
        45.000          34.750
 123373102.750 6  96135010.25346  23477082.085    23477081.258    23477083.553
        39.000          36.750
 116869853.528 7  91067468.28046  22239575.850    22239575.618    22239575.992
        46.250          36.500
 144351966.835 6                  27469266.148
        37.250
 127470184.304 7                  24256761.343
        43.250
 123354106.363 7                  23100230.039
        44.250
 131743834.327 5 102657560.84643  25070020.069    25070019.251    25070027.587
        35.500          19.000
 123876936.107 5                  23206321.888
        31.750
 128107507.369 7                  24378001.876
        47.750
 130315489.194 5                  24421079.502
        35.750
 127353427.590 6                  24234545.541
        40.250
 115648320.241 7  90115637.52948  22007132.314    22007131.823    22007130.966
        47.750          49.500
 138983980.660 6                  26447745.728
        40.250
 109689199.464 8                  20577363.252
        50.250
 196143286.331 7                  37324820.310
        47.250
 205013088.963 7                  39012487.192
        44.000
 128370551.651 6                  23972304.741
        40.000
 144259461.076 6                  27451662.332
        38.000
 124975459.917 6                  23379245.170
        40.000
 195544856.067 7                  37211045.682
        46.250
 110995812.964 6                  20756759.777
        39.000
 139335643.044 6                  26514665.115
        41.750
 138093710.026 7                  26278322.466
        43.250
 106903433.118 8                  19977463.327
        53.500
 115181774.492 7  89752115.18946  21918334.549    21918334.125    21918335.951
        46.250          37.500
 21 10 12  0 24 30.0000000  0 28G31G16S48G32G25G18E05E09R09G27R22E31
                                R02E12G29E26R10S36S23R08E04R01S25R20
                                E24E01R21G26
 108599012.340 8  84622628.67249  20665692.799    20665692.500    20665690.421
        50.250          55.000
 127539207.373 6  99381221.32043  24269903.126    24269902.326    24269901.406
        37.750          21.500
  31877456.369 7                   6066221.227
        44.500
 121064116.524 7  94335694.45745  23037725.332    23037725.243    23037727.923
        46.500          34.500
 123436204.133 6  96184180.11646  23489089.715    23489088.897    23489091.639
        39.750          37.000
 116802567.508 7  91015037.68746  22226771.777    22226771.554    22226771.765
        46.500          36.500
 144337796.690 6                  27466569.903
        38.000
 127518320.862 7                  24265921.379
        43.250
 123419095.170 7                  23112400.633
        43.500
 131639884.287 6 102576561.25843  25050238.120    25050237.316    25050246.032
        39.500          22.250
 123742491.967 5                  23181137.067
        34.000
 128098902.053 8                  24376364.279
        48.000
 130288121.828 6                  24415949.454
        36.500
 127269594.344 6                  24218592.457
        40.500
 115725423.802 7  90175718.24948  22021804.695    22021804.208    22021803.249
        47.750          49.250
 139033393.143 6                  26457148.962
        40.000
 109694948.129 8                  20578441.851
        50.250
 196143236.753 7                  37324811.828
        47.500
 205012910.525 7                  39012454.124
        44.000
 128467511.917 6                  23990411.606
        41.750
 144339045.726 6                  27466806.851
        38.750
 125037478.820 6                  23390847.312
        41.000
 195541620.674 7                  37210435.847
        46.250
 111066723.493 6                  20770019.729
        38.750
 139293660.896 6                  26506675.959
        41.500
 138127605.530 7                  26284772.649
        43.250
 106834481.450 8                  19964577.975
        53.250
 115140652.929 7  89720072.41346  21910509.535    21910509.102    21910510.925
        45.750          37.250
 21 10 12  0 25  0.0000000  0 28G31G16S48G32G25G18E05E09R09G27R22E31
                                R02E12G29E26R10S36S23R08E04R01S25R20
                                E24E01R21G26
 108573163.385 8  84602486.63349  20660773.735    20660773.436    20660771.659
        50.250          54.750
 127473744.119 6  99330211.01343  24257445.395    24257444.604    24257444.177
        38.250          22.250
  31877473.884 7                   6066241.429
        44.500
 121154778.196 7  94406339.43145  23054978.045    23054977.961    23054981.093
        45.750          34.500
 123499351.369 6  96233385.75046  23501105.830    23501105.003    23501107.609
        39.000          36.500
 116735628.916 7  90962877.82046  22214033.834    22214033.602    22214033.821
        46.250          36.500
 144324015.123 6                  27463947.670
        38.500
 127566727.183 7                  24275132.899
        43.000
 123484351.148 7                  23124618.799
        42.500
 131536099.900 6 102495690.60243  25030488.856    25030488.083    25030494.567
        36.750          21.500
 123608201.981 5                  23155979.492
        34.250
 128090326.655 8                  24374732.473
        48.000
 130261394.865 6                  24410940.613
        36.750
 127185912.613 6                  24202668.595
        40.500
 115802805.649 7  90236015.81448  22036530.018    22036529.531    22036528.396
        47.250          49.250
 139083158.813 6                  26466619.095
        40.000
 109700991.520 8                  20579575.913
        50.250
 196143200.925 7                  37324804.950
        47.500
 205012739.057 7                  39012422.067
        43.750
 128564430.475 6                  24008510.133
        41.500
 144418575.812 6                  27481940.688
        39.750
 125099901.900 6                  23402525.099
        40.750
 195538378.375 7                  37209826.173
        46.500
 111138312.837 6                  20783407.693
        39.000
 139251655.044 6                  26498682.732
        41.000
 138161553.902 7                  26291232.820
        42.750
 106766239.327 8                  19951825.113
        53.500
 115099635.549 7  89688110.83246  21902703.944    21902703.511    21902705.305
        46.500          37.500
 21 10 12  0 25 30.0000000  0 28G31G16S48G32G25G18E05E09R09G27R22E31
                                R02E12G29E26R10S36S23R08E04R01S25R20
                                E24E01R21G26
 108547726.824 8  84582665.94149  20655933.319    20655933.020    20655931.025
        50.000          54.750
 127408351.131 6  99279255.46843  24245002.560    24245001.782    24245000.894
        37.750          22.250
  31877485.253 7                   6066261.377
        44.250
 121245573.112 7  94477088.44745  23072256.020    23072255.927    23072259.116
        42.750          31.500
 123562534.309 6  96282619.16346  23513129.505    23513128.683    23513131.194
        38.000          36.250
 116669030.423 7  90910982.96946  22201360.495    22201360.272    22201360.464
        46.000          36.500
 144310611.826 6                  27461397.042
        38.250
 127615391.181 7                  24284393.237
        43.000
 123549863.716 7                  23136889.007
        45.000
 131432473.432 6 102414943.31043  25010768.831    25010768.049    25010773.750
        36.500          19.500
 123474059.364 5                  23130849.218
        32.500
 128081771.332 8                  24373104.357
        48.000
 130235296.506 6                  24406048.767
        37.250
 127102374.196 6                  24186771.438
        40.500
 115880452.894 7  90296520.18348  22051305.925    22051305.438    22051304.305
        47.500          49.750
 139133266.102 6                  26476153.928
        40.500
 109707320.640 8                  20580762.508
        50.250
 196143158.205 7                  37324796.884
        47.500
 205012564.167 7                  39012389.102
        43.500
 128661294.519 6                  24026597.646
        38.750
 144498039.186 6                  27497062.103
        38.000
 125162715.165 6                  23414274.978
        41.000
 195535123.847 7                  37209213.766
        46.250
 111210567.218 6                  20796920.048
        39.250
 139209615.085 6                  26490683.125
        41.250
 138195545.463 7                  26297701.090
        42.750
 106698699.128 8                  19939203.657
        53.000
 115058712.085 7  89656222.42746  21894916.555    21894916.122    21894917.948
        46.250          37.500
 21 10 12  0 26  0.0000000  0 28G31G16S48G32G25G18E05E09R09G27R22E31
                                R02E12G29E26R10S36S23R08E04R01S25R20
                                E24E01R21G26
 108522708.845 8  84563171.41349  20651172.549    20651172.245    20651170.410
        50.500          55.000
 127343032.359 6  99228357.74643  24232572.972    24232572.172    24232570.588
        38.500          21.250
  31877496.042 7                   6066283.257
        44.250
 121336502.638 7  94547942.53845  23089559.153    23089559.055    23089562.372
        43.750          33.250
 123625757.679 6  96331884.05346  23525160.599    23525159.781    23525162.962
        39.000          37.000
 116602779.468 7  90859358.92246  22188753.366    22188753.138    22188753.377
        46.250          36.750
 144297591.451 6                  27458919.236
        38.500
 127664315.647 7                  24293703.462
        43.500
 123615638.555 7                  23149206.117
        44.000
 131329011.117 5 102334324.17843  24991080.274    24991079.492    24991084.507
        33.750          20.500
 123340073.316 5                  23105749.087
        33.500
 128073241.048 8                  24371481.222
        48.000
 130209833.156 6                  24401277.154
        37.500
 127018985.814 6                  24170903.345
        40.500
 115958367.248 7  90357232.69248  22066132.215    22066131.737    22066130.922
        47.750          49.250
 139183718.264 6                  26485754.864
        40.500
 109713941.934 8                  20582004.686
        49.750
 196143115.756 7                  37324788.298
        47.250
 205012390.422 7                  39012355.436
        43.750
 128758103.330 7                  24044677.320
        42.000
 144577438.805 6                  27512171.395
        40.000
 125225919.003 6                  23426098.720
        40.500
 195531855.835 7                  37208599.955
        46.500
 111283487.837 6                  20810555.348
        39.000
 139167545.425 7                  26482677.618
        42.000
 138229585.443 7                  26304178.728
        43.250
 106631868.168 8                  19926714.285
        53.000
 115017887.108 7  89624410.76746  21887147.799    21887147.370    21887149.639
        46.750          38.000
 21 10 12  0 26 30.0000000  0 28G31G16S48G32G25G18E05E09R09G27R22E31
                                R02E12G29E26R10S36S23R08E04R01S25R20
                                E24E01R21G26
 108498110.642 8  84544003.98949  20646491.802    20646491.503    20646489.601
        50.500          54.750
 127277787.279 6  99177517.44343  24220157.040    24220156.240    24220155.303
        38.250          22.250
  31877505.857 7                   6066302.257
        44.250
 121427562.673 7  94618898.16545  23106887.704    23106887.606    23106890.603
        44.250          32.250
 123689021.431 6  96381180.46246  23537199.927    23537199.105    23537200.771
        39.750          36.250
 116536878.601 7  90808007.66946  22176212.868    22176212.649    22176212.774
        46.750          36.750
 144284953.638 6                  27456514.234
        38.500
 127713498.430 7                  24303062.809
        43.500
 123681675.190 7                  23161573.315
        42.500
 131225711.992 5 102253831.40243  24971423.480    24971422.577    24971427.845
        35.500          18.500
 123206246.262 5                  23080679.263
        33.500
 128064735.952 7                  24369862.755
        47.500
 130185005.512 6                  24396624.042
        38.000
 126935749.017 6                  24155064.023
        40.500
 116036546.214 7  90418151.39248  22081009.421    22081008.939    22081007.720
        47.250          49.250
 139234513.723 6                  26495420.733
        40.000
 109720857.174 8                  20583302.373
        50.250
 196143077.633 7                  37324782.163
        47.250
 205012217.041 7                  39012321.760
        43.750
 128854851.762 6                  24062742.068
        38.500
 144656772.815 6                  27527268.082
        37.750
 125289509.103 6                  23437995.517
        39.500
 195528587.838 7                  37207985.000
        46.750
 111357070.646 6                  20824316.697
        38.500
 139125445.627 7                  26474666.275
        42.500
 138263674.371 7                  26310665.736
        43.000
 106565749.011 8                  19914358.630
        53.000
 114977160.286 7  89592675.58846  21879397.805    21879397.372    21879399.481
        46.500          37.750
 21 10 12  0 27  0.0000000  0 28G31G16S48G32G25G18E05E09R09G27R22E31
                                R02E12G29E26R10S36S23R08E04R01S25R20
                                E24E01R21G26
 108473929.963 8  84525161.90249  20641890.397    20641890.098    20641888.042
        50.500          55.000
 127212611.812 6  99126731.39843  24207755.245    24207754.445    24207752.466
        38.250          22.250
  31877512.529 7                   6066322.218
        44.500
 121518746.635 7  94689950.40345  23124239.803    23124239.692    23124242.470
        45.500          33.250
 123752321.998 6  96430505.54446  23549244.854    23549244.041    23549246.437
        39.250          36.250
 116471326.849 7  90756928.44146  22163738.686    22163738.472    22163738.513
        46.750          37.000
 144272694.480 6                  27454181.898
        39.000
 127762933.892 7                  24312469.819
        43.250
 123747970.825 7                  23173987.942
        43.250
 131122577.759 6 102173467.96843  24951795.251    24951794.326    24951802.256
        38.250          20.500
 123072579.293 5                  23055638.728
        34.500
 128056252.571 8                  24368248.455
        48.000
 130160808.377 6                  24392089.683
        38.000
 126852662.083 6                  24139252.762
        41.500
 116114983.080 7  90479271.04148  22095935.377    22095934.899    22095933.987
        47.250          49.500
 139285647.253 6                  26505151.093
        40.250
 109728063.880 8                  20584654.418
        50.750
 196143036.566 7                  37324773.041
        47.750
 205012040.734 7                  39012287.695
        44.000
 128951532.302 6                  24080795.309
        36.250
 144736035.071 6                  27542351.099
        37.500
 125353477.670 6                  23449961.801
        40.500
 195525301.321 7                  37207366.472
        46.500
 111431308.094 6                  20838199.295
        38.750
 139083311.654 7                  26466648.439
        43.250
 138297808.933 7                  26317161.258
        43.000
 106500340.502 8                  19902135.480
        53.250
 114936527.730 7  89561013.86346  21871665.821    21871665.388    21871667.093
        46.500          38.000
 21 10 12  0 27 30.0000000  0 28G31G16S48G32G25G18E05E09R09G27R22E31
                                R02E12G29E26R10S36S23R08E04R01S25R20
                                E24E01R21G26
 108450171.326 8  84506648.67349  20637369.223    20637368.924    20637366.704
        50.250          55.000
 127147508.394 6  99076001.47543  24195365.190    24195364.377    24195364.028
        38.750          22.750
  31877518.489 7                   6066341.424
        44.500
 121610054.031 7  94761098.71945  23141615.108    23141615.006    23141617.997
        44.750          33.250
 123815662.392 6  96479861.68746  23561298.356    23561297.529    23561299.798
        39.000          36.750
 116406129.955 7  90706125.73346  22151331.941    22151331.727    22151331.924
        46.250          36.500
 144260816.838 6                  27451921.315
        39.250
 127812623.082 7                  24321925.448
        43.500
 123814528.620 7                  23186451.231
        42.500
 131019609.390 6 102093233.24243  24932202.463    24932201.484    24932205.468
        40.500          19.750
 122939080.361 5                  23030628.790
        35.250
 128047794.201 8                  24366638.796
        48.000
 130137245.671 6                  24387674.306
        37.500
 126769729.705 6                  24123471.022
        40.500
 116193677.977 7  90540591.75048  22110910.298    22110909.816    22110909.102
        47.000          49.000
 139337120.419 6                  26514946.124
        40.500
 109735566.938 8                  20586061.561
        49.750
 196142992.225 7                  37324765.064
        47.250
 205011865.192 7                  39012255.164
        43.750
 129048142.905 5                  24098836.626
        35.250
 144815226.868 6                  27557420.619
        38.750
 125417823.470 6                  23461998.451
        39.500
 195521998.081 7                  37206745.976
        46.750
 111506199.494 6                  20852203.678
        38.500
 139041146.277 7                  26458624.567
        43.000
 138331992.419 7                  26323666.167
        44.000
 106435648.335 8                  19890046.109
        53.250
 114895992.338 7  89529427.85346  21863952.005    21863951.572    21863953.526
        46.250          38.000
 21 10 12  0 28  0.0000000  0 28G31G16S48G32G25G18E05E09R09G27R22E31
                                R02E12G29E26R10S36S23R08E04R01S25R20
                                E24E01R21G26
 108426838.489 8  84488467.23749  20632929.185    20632928.886    20632926.642
        50.500          55.500
 127082479.137 6  99025329.32543  24182990.852    24182990.021    24182988.535
        39.500          23.250
  31877524.432 7                   6066361.613
        44.250
 121701484.077 7  94832342.47445  23159014.326    23159014.228    23159016.924
        45.500          32.250
 123879045.182 6  96529250.84146  23573359.621    23573358.808    23573361.647
        39.500          38.500
 116341293.144 7  90655603.62046  22138993.972    22138993.762    22138993.712
        46.250          36.750
 144249323.052 6                  27449734.450
        39.750
 127862566.539 7                  24331429.521
        43.250
 123881350.995 7                  23198965.008
        42.250
 130916811.903 6 102013131.64743  24912641.231    24912640.225    24912644.029
        38.500          20.750
 122805754.063 5                  23005652.741
        34.500
 128039363.690 8                  24365034.560
        48.000
 130114320.332 6                  24383378.544
        36.250
 126686956.332 6                  24107719.859
        40.500
 116272630.779 7  90602113.42748  22125934.531    22125934.049    22125933.338
        46.500          49.000
 139388934.260 6                  26524805.952
        40.250
 109743370.900 8                  20587525.561
        50.000
 196142958.103 7                  37324757.287
        47.250
 205011691.324 7                  39012220.969
        43.500
 129144682.381 7                  24116864.365
        42.000
 144894348.693 6                  27572477.208
        38.500
 125482545.184 6                  23474105.496
        39.750
 195518691.117 7                  37206124.420
        46.000
 111581743.886 6                  20866331.839
        39.250
 138998951.767 7                  26450595.168
        43.500
 138366228.027 7                  26330180.834
        43.000
 106371677.457 8                  19878091.819
        53.500
 114855556.492 7  89497919.41446  21856257.714    21856257.281    21856258.535
        46.250          38.250
 21 10 12  0 28 30.0000000  0 28G31G16S48G32G25G18E05E09R09G27R22E31
                                R02E12G29E26R10S36S23R08E04R01S25R20
                                E24E01R21G26
 108403929.676 8  84470616.21249  20628569.726    20628569.427    20628567.306
        50.500          55.500
 127017520.114 6  98974711.94343  24170628.992    24170628.165    24170627.772
        39.750          23.750
  31877528.701 7                   6066382.031
        44.000
 121793030.951 7  94903677.56745  23176434.818    23176434.716    23176437.928
        42.000          30.500
 123942467.142 6  96578670.52246  23585428.915    23585428.102    23585430.713
        38.250          37.250
 116276815.779 7  90605361.58846  22126724.074    22126723.869    22126723.758
        46.500          36.750
 144238209.524 6                  27447618.990
        39.000
 127912758.941 7                  24340980.808
        43.000
 123948434.919 7                  23211528.189
        46.250
 130814184.783 6 101933163.07043  24893110.267    24893109.369    24893115.662
        39.750          21.250
 122672600.849 5                  22980708.231
        34.500
 128030957.953 7                  24363435.021
        47.500
 130092029.339 6                  24379201.676
        39.500
 126604340.546 6                  24091998.644
        41.000
 116351835.847 7  90663831.67248  22141006.833    22141006.351    22141005.577
        46.500          48.750
 139441083.922 6                  26534729.627
        39.250
 109751473.579 8                  20589046.054
        49.750
 196142916.213 7                  37324749.283
        47.250
 205011515.724 7                  39012188.528
        43.750
 129241145.586 5                  24134879.614
        34.500
 144973394.499 6                  27587519.258
        36.500
 125547635.033 6                  23486282.659
        39.750
 195515371.764 7                  37205501.778
        46.000
 111657933.794 6                  20880579.761
        39.250
 138956724.468 7                  26442559.512
        42.500
 138400512.888 6                  26336705.157
        41.750
 106308426.780 8                  19866271.839
        53.250
 114815216.699 7  89466485.81746  21848580.765    21848580.336    21848582.011
        46.750          38.250
 21 10 12  0 29  0.0000000  0 28G31G16S48G32G25G18E05E09R09G27R22E31
                                R02E12G29E26R10S36S23R08E04R01S25R20
                                E24E01R21G26
 108381448.587 8  84453098.48249  20624291.745    20624291.446    20624289.484
        50.250          55.250
 126952633.321 6  98924150.83643  24158282.073    24158281.219    24158280.115
        39.000          22.500
  31879133.054 7                   6066400.932
        44.250
 121884693.881 7  94975103.46045  23193877.682    23193877.580    23193880.721
        45.750          34.250
 124005930.584 6  96628122.54846  23597505.259    23597504.437    23597507.246
        39.500          37.250
 116212702.812 7  90555403.50346  22114523.892    22114523.696    22114523.437
        46.500          36.750
 144227478.349 6                  27445577.198
        38.750
 127963200.568 7                  24350579.321
        42.750
 124015782.496 7                  23224139.174
        44.000
 130711731.788 6 101853330.72343  24873613.565    24873612.707    24873619.052
        39.750          23.500
 122539627.557 5                  22955798.920
        35.750
 128022579.622 7                  24361840.582
        47.750
 130070374.415 6                  24375143.424
        38.750
 126521886.537 6                  24076308.105
        41.250
 116431292.695 7  90725746.11848  22156127.103    22156126.630    22156125.792
        46.500          48.750
 139493570.177 6                  26544717.155
        39.000
 109759878.933 8                  20590622.842
        50.250
 196142867.780 7                  37324741.829
        47.250
 205011341.151 7                  39012154.624
        43.750
 129337530.221 6                  24152879.687
        38.750
 145052365.737 6                  27602547.306
        38.000
 125613091.042 6                  23498528.249
        40.500
 195512048.377 7                  37204877.321
        46.000
 111734767.739 6                  20894947.708
        39.250
 138914466.400 7                  26434517.989
        42.500
 138434849.931 7                  26343239.487
        42.250
 106245901.234 8                  19854587.304
        53.250
 114774975.129 7  89435128.75746  21840923.061    21840922.632    21840924.335
        46.250          38.000
 21 10 12  0 29 30.0000000  0 28G31G16S48G32G25G18E05E09R09G27R22E31
                                R02E12G29E26R10S36S23R08E04R01S25R20
                                E24E01R21G26
 108359392.860 8  84435912.19949  20620094.577    20620094.273    20620092.352
        50.250          55.500
 126887814.540 6  98873642.69843  24145947.240    24145946.404    24145945.484
        38.250          22.000
  31879131.709 7                   6066421.019
        44.250
 121976465.031 7  95046613.54345  23211341.239    23211341.163    23211343.856
        45.000          33.500
 124069432.202 6  96677604.33346  23609589.311    23609588.484    23609590.791
        38.750          37.500
 116148953.516 7  90505728.80346  22102392.624    22102392.432    22102392.489
        46.750          37.250
 144217125.852 6                  27443607.162
        39.250
 128013886.016 7                  24360224.690
        42.250
 124083389.972 7                  23236799.745
        45.750
 130609449.814 6 101773631.55944  24854149.515    24854148.733    24854153.167
        40.250          24.750
 122406834.543 5                  22930923.556
        34.750
 128014225.523 7                  24360251.018
        47.250
 130049352.864 6                  24371202.617
        39.000
 126439592.699 6                  24060648.105
        41.250
 116510994.444 7  90787851.40148  22171293.845    22171293.367    22171292.369
        46.500          49.000
 139546388.090 6                  26554768.832
        39.000
 109768585.463 8                  20592256.032
        49.500
 196142824.048 7                  37324733.015
        47.250
 205011163.693 7                  39012121.261
        43.500
                                  24170860.113
        47.500
 145131256.638 6                  27617559.604
        36.250
 125678905.881 6                  23510839.762
        38.750
 195508712.209 7                  37204249.992
        46.250
 111812238.702 6                  20909434.980
        39.250
 138872173.874 7                  26426469.902
        42.750
 138469236.062 7                  26349782.949
        42.500
 106184099.710 8                  19843038.247
        53.250
 114734828.232 7  89403845.47146  21833283.585    21833283.152    21833284.532
        46.500          38.250
 21 10 12  0 30  0.0000000  0 28G31G16S48G32G25G18E05E09R09G27R22E31
                                R02E12G29E26R10S36S23R08E04R01S25R20
                                E24E01R21G26
 108337768.466 8  84419062.01849  20615979.738    20615979.434    20615977.404
        50.250          55.000
 126823068.279 6  98823191.09943  24133626.198    24133625.349    24133623.616
        39.500          22.000
  31879132.492 7                   6066440.551
        44.500
 122068345.967 7  95118209.11745  23228825.643    23228825.581    23228828.177
        44.750          31.250
 124132976.525 6  96727119.36846  23621681.367    23621680.545    23621683.521
        40.000          38.000
 116085575.024 7  90456343.02346  22090332.162    22090331.970    22090332.026
        46.750          37.250
 144207156.259 6                  27441710.051
        38.500
 128064817.751 7                  24369916.658
        42.500
 124151261.745 7                  23249510.966
        46.500
 130507343.248 6 101694068.30943  24834719.310    24834718.582    24834722.375
        38.000          23.500
 122274229.816 5                  22906080.470
        33.750
 128005900.447 7                  24358666.828
        47.500
 130028968.703 6                  24367383.523
        39.000
 126357465.414 6                  24045019.850
        41.250
 116590943.351 7  90850149.27748  22186507.502    22186507.024    22186505.996
        46.500          48.500
 139599540.593 6                  26564882.916
        39.750
 109777598.547 8                  20593946.766
        50.000
 196142783.035 7                  37324725.736
        47.500
 205010988.138 7                  39012086.910
        44.000
 129530036.337 6                  24188828.870
        39.250
 145210069.689 5                  27632557.454
        35.000
 125745079.901 6                  23523218.266
        39.500
 195505366.744 7                  37203622.167
        46.250
 111890346.995 6                  20924042.069
        39.250
 138829851.128 7                  26418416.237
        42.500
 138503676.419 7                  26356336.847
        42.500
 106123029.221 8                  19831625.704
        53.250
 114694780.380 7  89372639.36246  21825662.467    21825662.034    21825663.841
        46.500          38.000
 21 10 12  0 30 30.0000000  0 28G31G16S48G32G25G18E05E09R09G27R22E31
                                R02E12G29E26R10S36S23R08E04R01S25R20
                                E24E01R21G26
 108316578.387 8  84402550.27049  20611947.507    20611947.203    20611944.998
        50.000          55.000
 126758395.011 6  98772796.37443  24121319.498    24121318.676    24121317.853
        39.000          22.500
  31879133.895 7                   6066459.363
        44.250
 122160334.964 7  95189888.86945  23246330.412    23246330.345    23246332.983
        43.000          30.000
 124196565.137 6  96776668.92846  23633782.022    23633781.191    23633783.298
        39.250          36.500
 116022571.448 7  90407249.39446  22078342.988    22078342.796    22078342.792
        46.500          37.250
 144197570.774 6                  27439885.943
        39.000
 128115995.267 7                  24379655.151
        42.500
 124219400.042 7                  23262270.923
        45.750
 130405415.296 6 101614643.41844  24815323.049    24815322.370    24815327.387
        36.750          24.750
 122141819.165 5                  22881272.789
        34.750
 127997606.189 8                  24357088.486
        48.000
 130009223.501 6                  24363682.326
        40.500
 126275507.973 6                  24029423.916
        40.000
 116671138.068 7  90912638.68848  22201768.100    22201767.622    22201766.808
        46.250          48.750
 139653027.642 6                  26575061.070
        39.500
 109786921.710 8                  20595695.919
        50.000
 196142743.587 7                  37324718.044
        47.500
 205010815.353 7                  39012054.840
        43.500
                                  24206776.854
        42.250
 145288804.590 6                  27647539.847
        39.000
 125811610.307 6                  23535664.521
        39.000
 195502011.459 7                  37202993.377
        46.750
 111969090.632 6                  20938766.864
        38.750
 138787499.396 7                  26410357.262
        42.750
 138538172.863 7                  26362901.085
        42.250
 106062693.305 8                  19820350.448
        53.500
 114654832.890 7  89341511.45646  21818060.857    21818060.428    21818062.507
        46.250          38.000
 21 10 12  0 31  0.0000000  0 28G31G16S48G32G25G18E05E09R09G27R22E31
                                R02E12G29E26R10S36S23R08E04R01S25R20
                                E24E01R21G26
 108295816.382 8  84386372.07849  20607996.361    20607996.057    20607994.261
        50.500          55.500
 126693786.865 6  98722452.40143  24109024.543    24109023.694    24109023.261
        39.000          22.500
  31879128.825 7                   6066478.671
        44.250
 122252420.986 7  95261644.13845  23263853.780    23263853.718    23263856.360
        44.500          30.750
 124260190.572 6  96826247.17346  23645889.776    23645888.949    23645890.672
        39.750          37.500
 115959937.906 7  90358444.10246  22066423.853    22066423.657    22066423.830
        46.750          37.250
 144188361.633 6                  27438133.495
        38.750
 128167408.981 7                  24389439.055
        42.750
 124287797.819 7                  23275079.917
        46.250
 130303663.677 6 101535356.99544  24795960.965    24795960.263    24795965.369
        40.000          26.250
 122009599.499 5                  22856506.175
        35.000
 127989335.523 8                  24355514.614
        48.000
 129990109.489 6                  24360100.708
        40.000
 126193714.778 6                  24013859.082
        41.250
 116751568.143 7  90975311.50748  22217073.456    22217072.978    22217071.955
        46.750          48.750
 139706840.109 6                  26585301.275
        39.500
 109796549.087 8                  20597501.775
        50.000
 196142704.139 7                  37324710.778
        47.250
 205010638.551 7                  39012020.296
        43.750
 129722173.062 7                  24224705.972
        44.250
 145367450.728 6                  27662506.060
        38.000
 125878484.866 6                  23548175.140
        40.500
 195498641.370 7                  37202361.411
        46.750
 112048457.770 6                  20953608.268
        38.250
 138745110.890 7                  26402290.940
        43.000
 138572718.395 7                  26369474.997
        42.500
 106003086.898 8                  19809211.174
        53.000
 114614978.163 7  89310455.83446  21810476.677    21810476.248    21810478.448
        46.250          38.250
 21 10 12  0 31 30.0000000  0 28G31G16S48G32G25G18E05E09R09G27R22E31
                                R02E12G29E26R10S36S23R08E04R01S25R20
                                E24E01R21G26
 108275487.688 8  84370531.53349  20604128.256    20604127.952    20604126.017
        50.500          55.750
 126629247.481 6  98672161.98543  24096743.886    24096743.032    24096741.816
        38.500          22.500
  31879121.422 7                   6066496.473
        44.000
 122344604.315 7  95333474.90345  23281395.826    23281395.746    23281398.915
        43.250          30.250
 124323856.804 6  96875857.21046  23658004.807    23658003.985    23658006.766
        40.000          38.750
 115897680.972 7  90309932.26846  22054576.868    22054576.667    22054576.691
        47.000          37.250
 144179532.428 6                  27436453.323
        39.000
 128219060.774 7                  24399268.155
        42.750
 124356458.575 7                  23287938.211
        46.000
 130202091.394 6 101456210.50144  24776630.067    24776629.361    24776635.783
        39.000          26.250
 121877576.417 5                  22831772.129
        35.500
 127981092.676 8                  24353945.899
        48.000
 129971630.837 6                  24356637.773
        41.000
 126112091.506 6                  23998326.549
        41.250
 116832235.133 7  91038168.92248  22232423.635    22232423.157    22232422.374
        46.500          48.250
 139760980.437 6                  26595603.931
        39.250
 109806486.609 8                  20599365.867
        50.000
 196142659.244 7                  37324702.532
        47.250
 205010460.163 7                  39011987.555
        43.500
                                  24242620.454
        44.250
 145446011.023 6                  27677456.026
        39.750
 125945703.703 6                  23560749.700
        39.750
 195495264.453 7                  37201728.713
        46.000
 112128448.282 6                  20968567.555
        39.250
 138702689.270 7                  26394218.342
        42.750
 138607317.328 7                  26376059.080
        42.000
 105944216.067 8                  19798209.918
        53.500
 114575220.012 7  89279475.45846  21802911.166    21802910.737    21802912.547
        46.500          38.500
 21 10 12  0 32  0.0000000  0 28G31G16S48G32G25G18E05E09R09G27R22E31
                                R02E12G29E26R10S36S23R08E04R01S25R20
                                E24E01R21G26
 108255594.586 8  84355030.40949  20600342.555    20600342.251    20600340.422
        50.500          55.500
 126564777.400 6  98621925.58743  24084475.524    24084474.644    24084473.338
        38.250          21.750
  31879114.497 7                   6066515.701
        44.000
 122436883.183 7  95405379.89444  23298956.434    23298956.345    23298960.010
        43.250          29.750
 124387565.182 6  96925500.09746  23670128.635    23670127.813    23670129.723
        39.750          38.250
 115835804.477 7  90261716.88546  22042802.231    22042802.030    22042801.777
        47.000          37.000
 144171084.076 6                  27434845.496
        38.750
 128270949.894 7                  24409142.201
        42.750
 124425384.402 7                  23300845.660
        46.500
 130100700.185 6 101377204.56644  24757336.828    24757336.162    24757340.938
        38.750          27.750
 121745755.937 5                  22807077.932
        34.750
 127972879.255 7                  24352383.045
        47.750
 129953788.840 6                  24353294.516
        41.250
 126030641.273 6                  23982827.076
        41.750
 116913137.466 7  91101209.72248  22247818.963    22247818.485    22247817.634
        46.500          48.250
 139815448.243 6                  26605968.535
        38.500
 109816736.481 8                  20601289.063
        50.000
 196142614.803 7                  37324693.303
        47.250
 205010281.513 7                  39011952.699
        43.750
                                  24260511.406
        37.750
 145524484.872 6                  27692389.479
        37.000
 126013263.760 6                  23573387.627
        39.250
 195491873.600 7                  37201091.408
        46.250
 112209059.675 6                  20983642.175
        38.500
 138660235.538 7                  26386139.674
        42.500
 138641971.627 7                  26382653.305
        42.000
 105886084.338 8                  19787346.689
        53.500
 114535559.566 7  89248571.22146  21795363.646    21795363.222    21795365.396
        46.750          38.250
 21 10 12  0 32 30.0000000  0 28G31G16S48G32G25G18E05E09R09G27R22E31
                                R02E12G29E26R10S36S23R08E04R01S25R20
                                E24E01R21G26
 108236140.353 8  84339871.26449  20596640.519    20596640.215    20596638.406
        50.500          55.750
 126500378.041 6  98571744.28143  24072220.838    24072219.971    24072218.472
        38.250          22.250
  31879107.424 7                   6066536.431
        44.250
 122529256.907 7  95477358.85545  23316534.838    23316534.745    23316538.643
        43.750          31.250
 124451317.786 6  96975177.43546  23682260.193    23682259.371    23682261.942
        39.250          39.000
 115774312.979 7  90213801.48346  22031100.471    22031100.275    22031100.140
        46.500          37.000
 144163018.214 6                  27433310.633
        39.000
 128323076.282 7                  24419061.790
        43.500
 124494576.996 7                  23313801.968
        44.750
 129999493.294 6 101298341.67744  24738078.195    24738077.538    24738083.059
        41.000          27.250
 121614144.743 5                  22782421.714
        34.750
 127964697.616 8                  24350826.047
        48.250
 129936584.894 6                  24350070.443
        40.750
 125949367.897 6                  23967361.153
        41.750
 116994274.305 7  91164433.26448  22263258.767    22263258.289    22263257.239
        46.500          48.250
 139870243.969 6                  26616396.157
        39.500
 109827302.374 8                  20603271.311
        50.750
 196142574.560 7                  37324684.516
        47.250
 205010105.203 7                  39011918.929
        43.750
 130009611.564 6                  24278384.469
        40.250
 145602872.272 5                  27707306.199
        35.750
 126081162.852 6                  23586089.921
        39.250
 195488479.006 7                  37200455.829
        46.250
 112290289.732 6                  20998832.942
        39.000
 138617751.431 7                  26378055.012
        42.500
 138676683.624 7                  26389258.950
        43.000
 105828695.681 8                  19776622.337
        53.250
 114495998.758 7  89217744.62446  21787835.754    21787835.330    21787837.232
        46.250          38.500
 21 10 12  0 33  0.0000000  0 28G31G16S48G32G25G18E05E09R09G27R22E31
                                R02E12G29E26R10S36S23R08E04R01S25R20
                                E24E01R21G26
 108217124.801 8  84325053.95249  20593021.944    20593021.640    20593019.674
        50.500          55.750
 126436047.436 6  98521616.56143  24059978.464    24059977.566    24059976.564
        38.750          21.750
  31879097.865 7                   6066553.401
        44.250
 122621720.645 7  95549408.12645  23334130.215    23334130.099    23334135.032
        43.750          32.750
 124515113.000 6  97024887.95646  23694399.376    23694398.549    23694401.619
        38.500          37.750
 115713207.397 7  90166186.79646  22019472.711    22019472.515    22019472.308
        46.500          37.250
 144155332.785 6                  27431848.426
        39.000
 128375436.148 7                  24429025.364
        43.000
 124564034.275 7                  23326810.100
        45.250
 129898471.096 6 101219622.52644  24718854.761    24718854.135    24718859.719
        36.750          28.000
 121482743.561 5                  22757806.616
        35.750
 127956546.299 8                  24349275.012
        48.250
 129920017.375 6                  24346965.678
        40.750
 125868271.458 6                  23951928.990
        41.750
 117075641.382 7  91227836.21248  22278742.345    22278741.867    22278740.675
        46.250          48.000
 139925364.280 6                  26626885.333
        39.750
 109838184.113 8                  20605312.701
        50.500
 196142532.486 7                  37324678.260
        47.250
 205009928.828 7                  39011885.437
        43.750
 130105204.128 7                  24296237.630
        46.500
 145681169.871 6                  27722205.836
        37.500
 126149394.669 6                  23598854.578
        40.500
 195485071.288 7                  37199816.177
        46.250
 112372133.100 6                  21014137.962
        39.000
 138575235.037 7                  26369964.168
        42.250
 138711452.023 7                  26395875.183
        42.500
 105772050.693 8                  19766036.684
        53.250
 114456535.713 7  89186994.20846  21780326.340    21780325.916    21780327.647
        46.500          38.500
 21 10 12  0 33 30.0000000  0 28G31G16S48G32G25G18E05E09R09G27R22E31
                                R02E12G29E26R10S36S23R08E04R01S25R20
                                E24E01R21G26
 108198550.909 8  84310580.78849  20589487.479    20589487.175    20589485.085
        50.500          56.000
 126371787.118 6  98471543.60543  24047750.552    24047749.658    24047748.313
        38.000          22.250
  31879089.273 7                   6066572.696
        44.250
 122714272.651 7  95621526.14745  23351742.608    23351742.479    23351747.309
        44.000          32.500
 124578952.682 6  97074633.15646  23706548.507    23706547.685    23706549.645
        39.750          38.250
 115652492.145 7  90118876.26446  22007918.985    22007918.789    22007918.368
        46.750          37.250
 144148029.335 6                  27430458.342
        38.000
 128428029.292 7                  24439033.660
        42.500
 124633758.279 7                  23339867.470
        47.000
 129797636.138 5 101141048.70843  24699666.936    24699666.328    24699671.893
        32.250          20.750
 121351558.744 6                  22733230.372
        36.250
 127948427.463 7                  24347730.019
        47.750
 129904087.705 6                  24343980.690
        40.000
 125787355.601 6                  23936531.396
        41.750
 117157237.863 7  91291417.92547  22294269.409    22294268.927    22294267.861
        46.000          47.750
 139980809.424 6                  26637435.708
        39.000
 109849385.245 8                  20607413.848
        50.250
 196142489.167 7                  37324669.339
        47.250
 205009754.025 7                  39011852.351
        43.500
 130200683.453 6                  24314066.605
        41.000
 145759377.662 6                  27737088.333
        38.250
 126217956.976 6                  23611680.321
        39.750
 195481663.813 7                  37199175.903
        46.500
 112454587.184 6                  21029557.587
        39.250
 138532687.890 6                  26361867.622
        41.750
 138746279.262 7                  26402502.485
        42.000
 105716153.405 8                  19755590.793
        53.250
 114417172.226 7  89156321.36646  21772835.503    21772835.079    21772836.946
        46.500          38.750
 21 10 12  0 34  0.0000000  0 28G31G16S48G32G25G18E05E09R09G27R22E31
                                R02E12G29E26R10S36S23R08E04R01S25R20
                                E24E01R21G26
 108180413.668 8  84296447.86749  20586036.002    20586035.698    20586033.734
        50.500          56.000
 126307590.151 6  98421520.00643  24035534.104    24035533.188    24035532.104
        39.250          22.500
  31879076.653 7                   6066591.321
        44.250
 122806903.439 7  95693705.58745  23369370.068    23369369.934    23369374.526
        43.500          32.500
 124642830.631 6  97124408.18846  23718703.693    23718702.875    23718705.245
        39.000          38.250
 115592163.396 7  90071866.89946  21996438.757    21996438.561    21996437.862
        47.000          37.250
 144141101.044 6                  27429140.209
        38.500
 128480847.289 7                  24449084.689
        42.750
 124703742.781 7                  23352972.591
        45.250
 129696984.715 6 101062618.03243  24680514.024    24680513.421    24680520.667
        36.000          23.000
 121220587.798 6                  22708696.773
        36.000
 127940335.179 7                  24346190.134
        47.750
 129888789.342 6                  24341114.034
        39.500
 125706615.864 6                  23921166.805
        41.750
 117239053.871 7  91355170.68448  22309838.653    22309838.175    22309836.977
        46.750          48.000
 140036571.455 6                  26648047.238
        39.500
 109860900.775 8                  20609574.662
        50.250
 196142451.155 7                  37324661.554
        47.250
 205009574.727 7                  39011818.582
        43.750
 130296036.61716                  24331873.327
        41.750
 145837487.037 6                  27751951.834
        40.750
 126286839.236 6                  23624565.531
        39.500
 195478244.396 7                  37198533.340
        46.250
 112537641.916 6                  21045088.265
        38.750
 138490103.476 6                  26353764.129
        41.250
 138781159.548 7                  26409140.164
        42.250
 105660999.244 8                  19745284.129
        53.250
 114377901.845 7  89125721.07946  21765362.540    21765362.116    21765363.988
        47.000          38.750
 21 10 12  0 34 30.0000000  0 28G31G16S48G32G25G18E05E09R09G27R22E31
                                R02E12G29E26R10S36S23R08E04R01S25R20
                                E24E01R21G26
 108162720.599 8  84282661.05949  20582669.415    20582669.107    20582666.898
        50.500          55.750
 126243462.123 6  98371550.15043  24023331.100    24023330.215    24023329.181
        39.750          22.500
  31879063.526 7                   6066607.427
        44.250
 122899615.948 7  95765948.71545  23387013.375    23387013.232    23387017.773
        44.250          32.750
 124706753.181 6  97174217.95946  23730867.635    23730866.813    23730869.959
        39.250          39.250
 115532230.024 7  90025165.62846  21985033.694    21985033.498    21985033.110
        46.750          37.500
 144134553.858 6                  27427894.281
        38.000
 128533894.319 7                  24459179.011
        43.000
 124773992.940 7                  23366127.992
        46.500
 129596525.748 6 100984337.94444  24661397.814    24661397.256    24661404.377
        38.000          26.000
 121089840.822 5                  22684201.636
        35.750
 127932276.016 8                  24344656.506
        48.000
 129874128.022 6                  24338366.533
        40.000
 125626060.268 7                  23905837.593
        42.500
 117321093.917 7  91419098.01648  22325450.280    22325449.798    22325448.744
        46.750          48.500
 140092654.985 6                  26658719.824
        40.000
 109872739.005 8                  20611795.026
        50.500
 196142406.590 7                  37324653.881
        47.250
 205009395.895 7                  39011784.128
        43.500
 130391272.265 6                  24349655.626
        41.500
 145915502.638 6                  27766797.629
        39.500
 126356043.400 6                  23637512.889
        41.000
 195474812.900 7                  37197888.725
        46.250
 112621299.477 6                  21060733.121
        38.000
 138447487.814 7                  26345654.602
        42.000
 138816099.582 7                  26415789.095
        42.500
 105606596.484 8                  19735117.652
        53.250
 114338730.783 7  89095198.17346  21757908.624    21757908.195    21757910.147
        46.000          38.500
 21 10 12  0 35  0.0000000  0 28G31G16S48G32G25G18E05E09R09G27R22E31
                                R02E12G29E26R10S36S23R08E04R01S25R20
                                E24E01R21G26
 108145470.219 8  84269219.20549  20579386.514    20579386.206    20579384.137
        50.500          55.500
 126179400.432 6  98321631.95543  24011140.410    24011139.534    24011138.317
        39.250          22.500
  31879047.245 7                   6066628.431
        44.250
 122992404.896 7  95838251.38645  23404670.709    23404670.557    23404675.397
        45.500          34.000
 124770718.354 6  97224060.91446  23743040.105    23743039.287    23743041.416
        40.000          38.750
 115472692.443 7  89978772.76746  21973704.264    21973704.068    21973703.596
        46.750          37.500
 144128385.265 6                  27426720.325
        38.750
 128587166.252 7                  24469316.712
        43.000
 124844507.966 7                  23379333.595
        45.250
 129496257.774 6 100906207.06644  24642318.118    24642317.573    24642324.219
        37.250          24.500
 120959320.241 5                  22659747.789
        34.250
 127924248.229 8                  24343128.878
        48.000
 129860101.626 6                  24335738.841
        40.250
 125545688.612 7                  23890543.413
        42.500
 117403352.957 7  91483195.98747  22341103.547    22341103.065    22341101.816
        45.750          47.000
 140149056.320 6                  26669452.437
        39.250
 109884898.808 8                  20614076.178
        50.500
 196142363.217 7                  37324645.412
        47.250
 205009216.978 7                  39011751.476
        43.250
 130486382.379 6                  24367417.151
        39.000
 145993419.346 6                  27781624.155
        40.500
 126425563.046 6                  23650517.191
        40.000
 195471365.067 7                  37197242.450
        46.000
 112705553.875 6                  21076489.029
        38.000
 138404838.633 7                  26337539.115
        42.750
 138851097.694 7                  26422448.933
        42.250
 105552945.049 8                  19725091.669
        53.250
 114299656.882 7  89064750.98546  21750473.172    21750472.739    21750474.559
        46.250          38.250
 21 10 12  0 35 30.0000000  0 28G31G16S48G32G25G18E05E09R09G27R22E31
                                R02E12G29E26R10S36S23R08E04R01S25R20
                                E24E01R21G26
 108128670.736 8  84256128.70049  20576189.828    20576189.520    20576187.387
        51.000          56.000
 126115411.182 6  98271770.20843  23998963.660    23998962.789    23998961.462
        40.000          23.000
  31879036.521 7                   6066644.542
        43.750
 123085273.472 7  95910616.11245  23422343.521    23422343.369    23422347.978
        43.750          32.750
 124834732.615 6  97273942.16446  23755221.780    23755220.962    23755222.689
        39.750          38.500
 115413559.579 7  89932695.27746  21962451.308    21962451.112    21962451.183
        47.250          38.000
 144122601.276 6                  27425619.943
        38.500
 128640667.412 7                  24479497.573
        42.500
 124915293.581 6                  23392590.363
        40.000
 129396188.555 5 100828231.44543  24623275.010    24623274.443    24623280.956
        32.750          23.750
 120829035.255 5                  22635341.927
        35.000
 127916258.569 7                  24341608.446
        47.750
 129846716.117 6                  24333228.630
        39.250
 125465509.000 6                  23875285.627
        41.500
 117485834.666 7  91547467.47047  22356799.343    22356798.861    22356797.421
        45.750          47.250
 140205780.262 6                  26680246.524
        39.750
 109897388.457 8                  20616419.168
        50.250
 196142318.423 7                  37324636.929
        47.500
 205009043.227 7                  39011716.248
        43.750
 130581367.475 6                  24385155.903
        41.750
 146071241.862 6                  27796433.474
        39.750
 126495400.333 6                  23663581.225
        39.750
 195467913.637 7                  37196596.542
        46.250
 112790407.062 6                  21092357.283
        39.000
 138362162.097 7                  26329417.981
        42.750
 138886160.919 7                  26429121.291
        42.500
 105500053.506 8                  19715207.483
        53.500
 114260686.484 7  89034384.45246  21743057.446    21743057.008    21743058.435
        47.000          38.750
 21 10 12  0 36  0.0000000  0 28G31G16S48G32G25G18E05E09R09G27R22E31
                                R02E12G29E26R10S36S23R08E04R01S25R20
                                E24E01R21G26
 108112313.949 8  84243383.14849  20573077.129    20573076.821    20573074.861
        50.750          56.000
 126051484.686 6  98221957.36643  23986798.753    23986797.882    23986796.986
        39.250          23.250
  31879021.533 7                   6066663.618
        44.250
 123178209.115 7  95983033.07045  23440028.753    23440028.610    23440033.437
        44.750          32.500
 124898786.702 6  97323854.43146  23767411.075    23767410.262    23767411.934
        40.000          39.000
 115354824.665 7  89886927.86546  21951274.242    21951274.046    21951274.215
        46.750          37.750
 144117192.151 6                  27424590.619
        39.000
 128694386.451 7                  24489719.908
        42.000
 124986340.638 5                  23405895.142
        32.250
 129296308.507 6 100750402.68144  24604268.786    24604268.236    24604273.644
        38.000          24.500
 120698979.964 5                  22610979.363
        35.000
 127908298.055 7                  24340093.652
        47.000
 129833962.104 6                  24330838.547
        39.750
 125385513.993 6                  23860062.731
        41.000
 117568526.690 7  91611902.83547  22372535.148    22372534.666    22372533.226
        46.250          47.500
 140262815.864 6                  26691099.868
        38.750
 109910200.024 8                  20618822.465
        50.250
 196142277.971 7                  37324629.792
        47.250
 205008864.697 7                  39011684.039
        43.750
 130676212.525 6                  24402866.054
        40.000
 146148958.435 6                  27811222.779
        38.500
 126565541.542 6                  23676705.042
        41.000
 195464452.068 7                  37195946.279
        46.250
 112875845.865 6                  21108334.842
        38.750
 138319448.733 7                  26321290.246
        42.500
 138921280.412 6                  26435804.243
        41.750
 105447914.237 8                  19705463.920
        53.750
 114221810.220 7  89004091.26546  21735659.283    21735658.845    21735660.941
        46.750          39.000
 21 10 12  0 36 30.0000000  0 28G31G16S48G32G25G18E05E09R09G27R22E31
                                R02E12G29E26R10S36S23R08E04R01S25R20
                                E24E01R21G26
 108096405.939 8  84230987.29249  20570049.986    20570049.678    20570047.720
        51.000          56.000
 125987625.354 6  98172196.85343  23974647.125    23974646.262    23974644.385
        40.000          23.500
  31880605.164 7                   6066680.775
        44.250
 123271213.913 7  96055504.02345  23457727.253    23457727.115    23457732.558
        43.250          31.250
 124962886.018 6  97373801.91846  23779608.656    23779607.847    23779610.793
        39.250          39.750
 115296495.218 7  89841476.41446  21940174.682    21940174.495    21940174.360
        47.000          38.000
 144112162.498 6                  27423633.142
        38.750
 128748326.267 7                  24499984.347
        42.250
 125057655.484 4                  23419248.174
        28.250
 129196625.157 6 100672727.22643  24585298.851    24585298.346    24585305.022
        36.000          21.500
 120569163.977 6                  22586660.455
        36.750
 127900372.184 7                  24338585.515
        47.750
 129821843.595 6                  24328567.472
        40.000
 125305710.464 6                  23844876.787
        41.750
 117651431.485 7  91676503.98548  22388311.295    22388310.817    22388309.732
        46.750          48.000
 140320166.494 6                  26702013.573
        39.250
 109923340.299 8                  20621287.935
        51.000
 196142237.410 7                  37324621.095
        47.250
 205008687.271 7                  39011650.292
        43.500
 130770919.272 7                  24420554.013
        42.250
 146226573.245 6                  27825993.034
        38.750
 126635987.428 6                  23689883.258
        40.000
 195462582.693 7                  37195295.394
        46.500
 112961871.099 6                  21124422.011
        39.000
 138276703.359 7                  26313155.790
        43.000
 138956461.671 6                  26442499.144
        41.750
 105396534.204 8                  19695862.108
        53.500
 114183033.132 7  88973875.35546  21728280.338    21728279.900    21728281.780
        46.750          38.750
 21 10 12  0 37  0.0000000  0 29G31G16S48G32G25G18E05E09R09G27R22E31
                                R02E12G29G04E26R10S36S23R08E04R01S25
                                R20E24E01R21G26
 108080947.618 8  84218941.84949  20567108.315    20567108.002    20567106.157
        50.500          56.000
 125923832.421 6  98122488.09343  23962507.760    23962506.906    23962505.544
        39.250          22.750
  31880587.864 7                   6066700.446
        44.250
 123364284.155 7  96128026.03745  23475438.045    23475437.920    23475442.490
        42.000          30.000
 125027030.097 6  97423784.29446  23791814.669    23791813.856    23791816.292
        39.000          38.500
 115238573.356 7  89796342.55646  21929152.179    21929151.996    21929152.320
        46.750          37.750
 144107511.450 6                  27422748.183
        39.500
 128802484.394 7                  24510290.208
        42.500
                                  23432656.724
        19.750
 129097140.405 6 100595207.07944  24566367.658    24566367.135    24566373.616
        38.750          25.000
 120439590.932 6                  22562386.448
        37.000
 127892480.922 8                  24337083.846
        48.000
 129810359.761 6                  24326415.405
        39.500
 125226099.768 7                  23829727.441
        42.500
 117734546.269 7  91741268.75647  22404127.725    22404127.247    22404126.152
        45.250          47.750
 134981276.76515 105180208.93751  25686081.100    25686080.984    25686081.146
        30.000           9.500
 140377830.154 6                  26712986.526
        39.500
 109936810.209 8                  20623814.750
        50.250
 196142196.139 7                  37324612.930
        47.250
 205008510.078 7                  39011616.402
        43.500
 130865489.427 6                  24438212.677
        40.250
 146304084.191 6                  27840742.961
        39.000
 126706733.346 6                  23703113.789
        38.500
 195459101.556 7                  37194643.427
        46.250
 113048477.974 6                  21140617.835
        38.000
 138233925.387 7                  26305015.279
        43.250
 138991704.868 7                  26449205.458
        42.250
 105345914.685 8                  19686402.809
        53.500
 114144354.751 7  88943736.36546  21720920.009    21720919.571    21720921.279
        46.250          38.750
 21 10 12  0 37 30.0000000  0 28G31G16S48G32G25G18E05E09G27R22E31R02
                                E12G29G04E26R10S36S23R08E04R01S25R20
                                E24E01R21G26
 108065937.589 8  84207245.72349  20564251.947    20564251.639    20564249.729
        50.750          56.000
 125860102.796 6  98072828.67443  23950380.252    23950379.389    23950377.923
        39.500          23.000
  31880567.233 7                   6066717.952
        44.250
 123457414.213 7  96200594.85144  23493160.376    23493160.251    23493164.237
        42.500          27.750
 125091216.457 6  97473799.62146  23804028.277    23804027.459    23804029.921
        38.500          37.750
 115181058.908 7  89751526.16746  21918207.459    21918207.272    21918207.519
        46.750          37.500
 144103235.946 6                  27421934.547
        39.500
 128856856.129 7                  24520636.886
        43.000
 128997852.168 6 100517840.17844  24547473.270    24547472.725    24547479.942
        38.250          24.500
 120310262.295 6                  22538159.023
        36.750
 127884622.049 8                  24335588.245
        48.250
 129799507.953 6                  24324383.451
        41.750
 125146681.132 7                  23814614.406
        42.500
 117817865.781 7  91806193.06547  22419982.744    22419982.262    22419981.014
        46.750          47.500
 134913809.323 5 105127636.92341  25673244.524    25673244.586    25673243.257
        32.500          10.750
 140435802.530 6                  26724018.333
        39.500
 109950608.789 8                  20626402.859
        50.250
 196142150.551 7                  37324603.897
        47.000
 205008329.648 7                  39011581.711
        43.500
                                  24455840.865
        42.250
 146381487.263 6                  27855472.373
        38.000
 126777772.342 6                  23716406.706
        40.000
 195455607.912 7                  37193988.768
        46.000
 113135660.178 6                  21156919.817
        38.500
 138191112.058 7                  26296868.094
        43.500
 139027007.832 7                  26455923.527
        42.500
 105296054.922 8                  19677085.490
        53.500
 114105772.450 7  88913672.24446  21713578.111    21713577.673    21713579.724
        46.750          39.250
 21 10 12  0 38  0.0000000  0 29G31G16S48G32G25G18E05E09G27R22E31R02
                                E12G29G04E26R10S36S23R08E04R01S25R20
                                R12E24E01R21G26
 108051381.967 8  84195903.67649  20561482.177    20561481.869    20561479.613
        51.000          55.750
 125796441.082 6  98023222.15843  23938265.761    23938264.890    23938263.161
        39.000          22.500
  31880547.738 7                   6066735.419
        44.000
 123550606.125 7  96273212.00444  23510893.540    23510893.424    23510898.352
        42.500          28.000
 125155450.273 6  97523851.94046  23816251.910    23816251.097    23816253.495
        40.000          38.500
 115123959.446 7  89707033.13146  21907341.961    21907341.769    21907341.570
        47.000          37.000
 144099340.584 6                  27421193.435
        39.000
 128911444.410 7                  24531024.651
        42.000
 128898767.328 6 100440632.17844  24528617.504    24528616.910    24528623.593
        39.250          25.750
 120181186.829 6                  22513977.457
        37.750
 127876801.042 7                  24334099.985
        47.500
 129789292.349 6                  24322468.305
        41.500
 125067461.430 7                  23799539.070
        42.000
 117901391.945 7  91871278.40247  22435877.405    22435876.927    22435875.312
        47.250          47.750
 134846728.953 5 105075366.54141  25660478.805    25660478.600    25660479.127
        32.000          11.500
 140494087.075 6                  26735109.443
        39.000
 109964742.362 8                  20629054.740
        50.750
 196142106.273 7                  37324596.564
        47.000
 205008151.660 7                  39011547.382
        43.250
 131054157.09215                  24473444.577
        32.750
 146458785.263 6                  27870181.415
        38.500
 126849105.280 6                  23729750.304
        37.750
 195452106.435 7                  37193332.740
        45.750
 113223418.566 6                  21173332.778
        37.750


 138148268.231 7                  26288715.468
        43.000
 139062376.226 7                  26462654.232
        42.000
 105246961.916 8                  19667911.051
        53.250
 114067291.305 7  88883686.94446  21706255.344    21706254.906    21706257.049
        47.250          39.000
 21 10 12  0 38 30.0000000  0 30G31G16S48G32G25G18E05E09R09G27R22E31
                                R02E12G29G04E26R10S36S23R08E04R01S25
                                R20R12E24E01R21G26
 108037280.554 8  84184915.56249  20558798.857    20558798.544    20558796.259
        51.000          56.000
 125732845.411 6  97973667.09743  23926163.596    23926162.738    23926161.131
        40.000          22.250
  31880528.581 7                   6066754.061
        44.000
 123643855.075 7  96345873.72444  23528638.194    23528638.069    23528642.435
        42.000          29.000
 125219730.325 6  97573940.28246  23828484.195    23828483.382    23828486.253
        40.000          39.500
 115067276.086 7  89662864.32846  21896555.190    21896555.003    21896554.711
        47.250          37.500
 144095823.541 6                  27420524.261
        39.000
 128966245.846 7                  24541453.079
        42.500
                                  23473168.972
        20.250
 128799885.192 6 100363582.21144  24509799.661    24509799.071    24509806.030
        38.750          26.500
 120052366.310 6                  22489843.329
        37.000
 127869016.931 7                  24332618.809
        47.500
 129779710.900 7                  24320674.014
        43.250
 124988441.092 7                  23784502.121
        42.500
 117985121.152 7  91936521.95647  22451810.541    22451810.059    22451808.754
        46.000          47.000
 134780035.992 5 105023398.01442  25647786.903    25647786.635    25647787.790
        33.750          14.250
 140552680.723 6                  26746259.603
        39.000
 109979211.548 8                  20631769.300
        50.250
 196142062.568 7                  37324588.341
        47.000
 205007974.514 7                  39011514.668
        43.500
 131148277.363 6                  24491017.335
        38.500
 146535974.311 6                  27884869.921
        39.250
 126920726.381 6                  23743148.610
        39.250
 195448600.205 7                  37192677.464
        45.750
 113311747.446 6                  21189849.812
        38.250


 138105392.430 7                  26280556.434
        43.500
 139097809.055 7                  26469396.844
        42.000
 105198635.919 8                  19658880.135
        53.250
 114028909.908 7  88853779.37246  21698951.524    21698951.095    21698952.716
        47.000          38.750
 21 10 12  0 39  0.0000000  0 28G31G16S48G32G25G18E05E09G27R22E31R02
                                E12G29G04E26R10S36S23R08E04R01S25R20
                                E24E01R21G26
 108023632.478 8  84174280.69749  20556201.696    20556201.383    20556199.190
        50.750          56.000
 125669313.389 6  97924161.63643  23914074.461    23914073.585    23914071.777
        38.000          22.000
  31880506.570 7                   6066771.728
        44.500
 123737155.778 6  96418575.80944  23546392.264    23546392.135    23546396.458
        41.250          27.500
 125284054.803 6  97624063.24746  23840724.888    23840724.070    23840726.497
        39.250          38.500
 115011009.331 7  89619020.14646  21885848.354    21885848.176    21885847.527
        46.750          37.500
 144092682.415 6                  27419926.532
        39.250
 129021256.390 7                  24551921.210
        42.250
 128701204.250 6 100286688.54244  24491021.569    24491020.988    24491026.619
        38.000          26.250
 119923801.783 5                  22465759.465
        35.000
 127861268.228 7                  24331144.287
        47.750
 129770761.894 7                  24318995.644
        42.250
 124909620.002 7                  23769502.901
        42.250
 118069048.990 7  92001920.26447  22467781.367    22467780.880    22467779.896
        45.500          47.250
 134713730.136 5 104971731.15942  25635170.422    25635170.203    25635170.736
        34.000          16.750
 140611579.943 6                  26757467.750
        38.750
 109994015.884 8                  20634546.014
        50.250
 196142024.236 7                  37324580.144
        47.500
 205007796.171 7                  39011481.350
        43.500
 131242238.172 6                  24508568.379
        38.250
 146613050.282 6                  27899537.091
        39.000
 126992629.349 6                  23756600.411
        38.750
 195445084.955 7                  37192018.253
        46.000
 113400640.526 6                  21206473.763
        38.750
 138062482.547 7                  26272390.925
        43.750
 139133305.039 7                  26476151.431
        42.500
 105151076.481 8                  19649992.393
        53.000
 113990626.364 7  88823948.04646  21691666.622    21691666.193    21691667.651
        46.250          38.750
 21 10 12  0 39 30.0000000  0 28G31G16S48G32G25G18E05E09G27R22E31R02
                                E12G29G04E26R10S36S23R08E04R01S25R20
                                E24E01R21G26
 108010437.312 8  84163998.75049  20553690.672    20553690.359    20553688.414
        51.000          56.250
 125605843.157 6  97874704.32943  23901996.000    23901995.115    23901994.086
        39.000          22.250
  31880480.877 7                   6066786.274
        44.250
 123830503.244 7  96491314.13944  23564155.753    23564155.633    23564160.949
        42.500          29.750
 125348422.410 6  97674219.81246  23852973.429    23852972.616    23852974.446
        39.000          37.250
 114955160.118 7  89575501.32846  21875220.420    21875220.237    21875220.233
        46.750          38.000
 144089915.127 6                  27419399.892
        39.000
 129076472.445 7                  24562428.491
        42.250
 128602724.972 6 100209951.91644  24472280.896    24472280.302    24472285.799
        39.250          27.750
 119795496.383 5                  22441722.537
        35.500
 127853553.819 8                  24329676.237
        48.000
 129762442.424 7                  24317436.892
        42.250
 124830998.437 7                  23754541.694
        42.000
 118153171.242 7  92067470.07047  22483789.088    22483788.606    22483787.670
        46.500          47.250
 134647811.480 5 104920365.98542  25622626.230    25622626.056    25622626.010
        32.250          14.000
 140670781.485 6                  26768733.269
        38.500
 110009154.842 8                  20637386.427
        50.250
 196141985.402 7                  37324571.889
        47.000
 205007615.210 7                  39011446.815
        43.500
 131336044.70616                  24526088.230
        40.250
 146690010.379 6                  27914182.193
        38.250
 127064808.343 6                  23770102.592
        40.000
 195441557.962 7                  37191357.571
        46.000
 113490092.258 6                  21223201.638
        37.750
 138019536.924 7                  26264218.595
        43.500
 139168863.150 7                  26482917.744
        42.000
 105104283.764 8                  19641248.139
        53.000
 113952439.169 7  88794191.79046  21684399.746    21684399.313    21684401.291
        46.750          39.250
 21 10 12  0 40  0.0000000  0 29G31G16S48G32G25G18E05E09G27R22E31R02
                                E12G29G04E26R10S36R12S23R08E04R01S25
                                R20E24E01R21G26
 107997700.529 8  84154073.98349  20551266.898    20551266.585    20551264.652
        51.250          56.000
 125542438.744 6  97825298.30943  23889930.025    23889929.149    23889928.101
        38.250          22.000
  31880454.827 7                   6066804.045
        44.000
 123923899.075 7  96564090.21144  23581928.746    23581928.630    23581933.149
        42.750          29.500
 125412837.594 6  97724413.46246  23865231.250    23865230.423    23865232.344
        39.250          37.500
 114899735.246 7  89532313.16446  21864673.371    21864673.193    21864673.115
        47.000          37.750
 144087525.617 6                  27418945.038
        38.750
 129131896.265 7                  24572975.485
        42.500
 128504453.459 6 100133377.22844  24453580.197    24453579.580    24453584.879
        40.500          28.250
 119667458.789 6                  22417737.756
        36.000
 127845878.508 7                  24328215.740
        47.750
 129754756.348 6                  24315995.701
        41.500
 124752582.591 7                  23739619.416
        42.500
 118237489.220 7  92133172.39447  22499834.212    22499833.725    22499832.549
        46.000          46.750
 134582286.205 5 104869307.30343  25610157.191    25610156.990    25610156.622
        35.500          18.250
 140730288.108 6                  26780056.961
        39.000
 110024634.882 8                  20640290.432
        50.250
 196141941.314 7                  37324563.295
        47.000
                                  24750343.839
        24.750
 205007435.066 7                  39011410.416
        43.250
 131429678.983 7                  24543574.421
        43.250
 146766856.269 6                  27928805.826
        37.000
 127137263.496 6                  23783656.355
        38.250
 195438015.292 7                  37190695.713
        46.250
 113580102.884 6                  21240034.066
        37.500
 137976559.834 7                  26256040.167
        43.250
 139204488.249 7                  26489696.890
        42.250
 105058263.805 8                  19632648.236
        53.250
 113914352.732 7  88764514.04846  21677151.993    21677151.560    21677153.569
        47.000          39.000
 21 10 12  0 40 30.0000000  0 29G31G16S48G32G25G18E05E09G27R22E31R02
                                E12G29G04E26R10S36R12S23R08E04R01S25
                                R20E24E01R21G26
 107985423.694 8  84144507.61549  20548930.724    20548930.411    20548928.252
        50.750          56.000
 125479100.182 6  97775943.60443  23877877.275    23877876.377    23877875.227
        38.250          22.000
  31880428.737 7                   6066820.688
        44.250
 124017340.635 7  96636901.90745  23599710.169    23599710.080    23599714.212
        43.500          31.750
 125477301.071 6  97774644.73646  23877498.286    23877497.464    23877499.945
        39.500          37.750
 114844737.682 7  89489457.95446  21854207.970    21854207.787    21854207.287
        47.000          38.000
 144085513.855 6                  27418562.155
        38.000
 129187526.305 7                  24583561.546
        42.250
 128406391.030 6 100056965.34944  24434918.382    24434917.752    24434923.993
        38.000          27.750
 119539693.144 5                  22393802.053
        35.750
 127838243.284 7                  24326762.860
        47.500
 129747703.081 6                  24314674.296
        41.750
 124674374.751 7                  23724736.883
        42.000
 118322000.653 7  92199025.45847  22515916.288    22515915.792    22515914.601
        46.000          46.500
 134517156.460 5 104818556.87542  25597764.294    25597764.058    25597762.948
        34.250          16.000
 140790098.571 6                  26791438.821
        39.000
 110040457.764 8                  20643258.910
        50.250
 196141894.958 7                  37324555.872
        47.000
                                  24733766.247
        33.250
 205007256.078 7                  39011377.952
        43.500
 131523141.742 6                  24561031.000
        40.500
 146843588.088 6                  27943407.744
        37.500
 127209991.036 6                  23797262.388
        38.500
 195434467.587 7                  37190033.219
        46.250
 113670668.730 6                  21256969.699
        38.500
 137933551.662 7                  26247855.974
        42.750
 139240181.398 6                  26496489.212
        41.500
 105013018.812 8                  19624193.146
        53.250
 113876367.613 7  88734915.26546  21669923.854    21669923.416    21669925.044
        47.000          38.750
 21 10 12  0 41  0.0000000  0 29G31G16S48G32G25G18E05E09G27R22E31R02
                                E12G29G04E26R10S36R12S23R08E04R01S25
                                R20E24E01R21G26
 107973604.982 8  84135298.22949  20546681.733    20546681.420    20546679.289
        50.750          56.250
 125415823.937 6  97726637.45343  23865835.760    23865834.844    23865835.249
        39.000          23.000
  31880399.650 7                   6066837.434
        44.000
 124110821.737 7  96709744.47144  23617498.587    23617498.489    23617503.417
        44.000          29.750
 125541809.903 6  97824911.37346  23889773.567    23889772.740    23889775.707
        39.750          38.000
 114790166.742 7  89446935.19146  21843823.297    21843823.114    21843822.847
        46.750          38.000
 144083876.230 6                  27418250.509
        38.250
 129243357.369 7                  24594185.976
        42.250
 128308535.910 6  99980714.83744  24416297.424    24416296.781    24416302.113
        36.750          27.750
 119412201.320 6                  22369919.407
        37.250
 127830645.468 7                  24325316.929
        47.750
 129741279.423 6                  24313470.558
        41.500
 124596373.614 7                  23709894.036
        42.250
 118406700.506 7  92265025.34147  22532034.427    22532033.940    22532032.659
        45.250          46.500
 134452420.835 5 104768113.55543  25585444.003    25585443.793    25585444.969
        34.750          19.750
 140850208.211 6                  26802877.429
        39.750
 110056621.839 8                  20646290.938
        50.000
 196141849.136 7                  37324546.714
        47.000
 132034559.85915                  24717143.838
        32.750
 205007075.760 7                  39011344.818
        43.000
 131616436.808 6                  24578453.784
        41.750
 146920200.620 6                  27957986.653
        38.500
 127282983.240 6                  23810916.699
        38.250
 195430909.587 7                  37189368.209
        46.250
 113761782.315 6                  21274009.527
        37.750
 137890509.211 7                  26239665.455
        42.750
 139275939.992 6                  26503293.578
        41.500
 104968547.013 8                  19615882.491
        53.250
 113838480.797 7  88705393.07546  21662714.071    21662713.638    21662715.527
        47.000          39.000
 21 10 12  0 41 30.0000000  0 29G31G16S48G32G25G18E05E09G27R22E31R02
                                E12G29G04E26R10S36R12S23R08E04R01S25
                                R20E24E01R21G26
 107962242.737 8  84126444.53449  20544519.450    20544519.137    20544517.246
        50.750          56.250
 125352607.193 6  97677377.68443  23853806.485    23853805.564    23853804.009
        38.250          22.750
  31880366.480 7                   6066853.402
        44.250
 124204336.974 7  96782613.82145  23635293.766    23635293.655    23635298.011
        44.750          31.000
 125606361.700 6  97875211.45246  23902057.422    23902056.600    23902059.210
        39.750          37.750
 114736022.300 7  89404744.76046  21833519.840    21833519.653    21833519.361
        46.750          38.000
 144082609.679 6                  27418009.391
        38.000
 129299384.817 7                  24604847.531
        42.000
 128210886.887 6  99904624.75044  24397716.108    24397715.465    24397720.259
        37.750          26.750
 119284982.892 6                  22346085.853
        36.000
 127823083.027 8                  24323877.966
        48.250
 129735481.987 6                  24312384.022
        41.000
 124518578.499 7                  23695089.904
        42.250
 118491583.363 7  92331167.81947  22548186.936    22548186.449    22548185.255
        45.250          46.500
 134388078.378 6 104717976.56343  25573200.453    25573200.230    25573200.393
        36.750          18.000
 140910612.785 6                  26814371.587
        38.500
 110073126.059 8                  20649386.904
        50.000
 196141798.445 7                  37324537.275
        47.000
 131945608.120 5                  24700492.846
        34.250
 205006891.119 7                  39011309.416
        43.000
                                  24595839.165
        29.250
 146996688.849 6                  27972541.936
        38.250
 127356233.612 6                  23824620.345
        38.500
 195427340.038 7                  37188700.358
        46.500
 113853436.644 6                  21291148.334
        38.250
 137847429.843 7                  26231467.502
        42.750
 139311762.101 6                  26510110.640
        41.250
 104924847.203 8                  19607716.114
        53.250
 113800689.790 7  88675945.54346  21655522.674    21655522.241    21655524.125
        47.000          39.250
 21 10 12  0 42  0.0000000  0 29G31G16S48G32G25G18E05E09G27R22E31R02
                                E12G29G04E26R10S36R12S23R08E04R01S25
                                R20E24E01R21G26
 107951352.302 8  84117958.48249  20542447.069    20542446.756    20542445.003
        51.250          56.500
 125289463.378 6  97628174.74243  23841790.391    23841789.475    23841788.084
        39.500          23.000
  31880342.479 7                   6066871.293
        44.250
 124297896.582 7  96855517.61445  23653097.530    23653097.414    23653101.016
        43.250          30.500
 125670970.635 6  97925556.08446  23914352.395    23914351.568    23914353.444
        39.750          37.000
 114682320.752 7  89362899.43846  21823300.518    21823300.331    21823300.126
        47.000          38.000
 144081727.685 6                  27417841.900
        38.000
 129355620.569 6                  24615548.742
        41.750
 128113459.878 6  99828707.76344  24379175.628    24379175.016    24379180.670
        38.250          27.250
 119158055.273 6                  22322309.995
        37.250
 127815570.403 8                  24322448.324
        48.000
 129730324.026 6                  24311416.864
        41.000
 124441005.177 7                  23680328.079
        42.250
 118576660.602 7  92397461.76647  22564376.854    22564376.372    22564374.809
        46.250          47.000
 134324144.859 6 104668158.24643  25561034.735    25561034.512    25561034.749
        36.500          21.500
 140971324.605 6                  26825924.676
        37.750
 110089985.895 8                  20652549.981
        49.750
 196141761.516 7                  37324531.216
        47.250
 131856484.520 5                  24683811.051
        30.500
 205006716.149 7                  39011275.798
        43.500
 131802563.16515                  24613202.551
        34.500
 147073066.427 6                  27987075.759
        36.500
 127429751.998 6                  23838372.159
        37.250
 195423767.184 7                  37188033.729
        46.250
 113945642.347 6                  21308391.725
        38.500
 137804327.477 7                  26223265.465
        43.000
 139347662.348 7                  26516942.271
        42.500
 104881935.326 8                  19599697.203
        53.250
 113763008.677 7  88646583.64446  21648352.039    21648351.610    21648353.727
        47.250          39.500
 21 10 12  0 42 30.0000000  0 29G31G16S48G32G25G18E05E09G27R22E31R02
                                E12G29G04E26R10S36R12S23R08E04R01S25
                                R20E24E01R21G26
 107940924.260 8  84109832.73449  20540462.579    20540462.266    20540460.586
        50.750          56.500
 125226382.184 6  97579020.57143  23829787.024    23829786.135    23829784.840
        39.000          23.500
  31880315.004 7                   6066889.600
        44.250
 124391486.938 7  96928445.10045  23670907.073    23670906.957    23670910.948
        43.000          31.000
 125735626.599 6  97975937.35846  23926656.326    23926655.499    23926656.881
        40.000          37.250
 114629054.176 7  89321393.05646  21813164.537    21813164.350    21813163.941
        46.500          38.000
 144081219.333 6                  27417744.407
        37.750
 129412052.212 6                  24626287.412
        41.750
 128016246.035 6  99752957.09544  24360676.206    24360675.589    24360681.049
        38.750          27.000
 119031413.203 6                  22298584.414
        38.250
 127808097.775 8                  24321026.275
        48.000
 129725794.910 6                  24310569.428
        41.750
 124363645.191 7                  23665606.773
        42.000
 118661919.566 7  92463897.32447  22580600.918    22580600.436    22580598.799
        45.750          46.500
 134260611.457 6 104618651.71543  25548944.522    25548944.317    25548944.635
        36.500          21.000
 141032331.657 6                  26837533.847
        38.000
 110107192.949 8                  20655778.133
        50.000
 196141724.954 7                  37324523.515
        47.250
 131767179.486 6                  24667090.919
        37.750
 205006540.821 7                  39011241.854
        44.000
 131895336.097 6                  24630525.608
        39.250
 147149319.941 6                  28001586.160
        38.750
 127503523.471 6                  23852173.855
        39.000
 195420187.670 7                  37187364.582
        47.000
 114038384.248 6                  21325735.094
        38.250
 137761191.746 7                  26215056.908
        42.750
 139383630.858 6                  26523786.942
        41.500
 104839801.924 8                  19591823.218
        53.250
 113725427.224 7  88617299.40046  21641200.661    21641200.228    21641202.390
        47.000          39.500
 21 10 12  0 43  0.0000000  0 29G31G16S48G32G25G18E05E09G27R22E31R02
                                E12G29G04E26R10S36R12S23R08E04R01S25
                                R20E24E01R21G26
 107930955.873 8  84102065.15849  20538565.894    20538565.577    20538563.652
        50.750          56.500
 125163359.073 6  97529911.69944  23817794.150    23817793.261    23817791.756
        39.750          24.000
  31880282.390 7                   6066904.580
        44.000
 124485101.414 7  97001391.07344  23688721.628    23688721.508    23688725.664
        42.250          29.250
 125800326.248 6  98026352.65246  23938967.598    23938966.762    23938969.235
        39.500          37.750
 114576221.386 7  89280224.68146  21803110.531    21803110.344    21803109.927
        46.750          38.000
 144081080.564 6                  27417717.611
        37.250
 129468674.125 7                  24637062.067
        42.000
 127919242.563 6  99677370.29744  24342217.040    24342216.401    24342221.865
        37.000          26.250
 118905056.612 6                  22274914.004
        37.500
 127800662.140 8                  24319611.349
        48.000
 129721889.335 6                  24309836.730
        40.750
 124286496.706 7                  23650925.995
        42.250
 118747353.753 7  92530469.42447  22596858.392    22596857.910    22596856.313
        45.500          46.250
 134197476.287 6 104569455.49943  25536930.220    25536930.051    25536930.266
        36.250          20.500
 141093628.783 6                  26849198.289
        38.500
 110124744.595 8                  20659070.508
        50.250
 196141680.936 7                  37324513.512
        47.250
 131677689.431 5                  24650338.252
        35.500
 205006360.756 7                  39011209.175
        43.750
 131987920.711 6                  24647814.652
        41.250
 147225444.254 6                  28016071.789
        40.500
 127577540.050 6                  23866019.755
        39.000
 195416594.975 7                  37186693.619
        45.750
 114131654.450 6                  21343176.271
        37.750
 137718019.024 7                  26206841.575
        42.750
 139419664.706 6                  26530643.834
        41.500
 104798445.075 8                  19584094.638
        53.250
 113687941.997 7  88588090.12946  21634067.554    21634067.121    21634069.048
        46.500          39.000
 21 10 12  0 43 30.0000000  0 29G31G16S48G32G25G18E05E09G27R22E31R02
                                E12G29G04E26R10S36R12S23R08E04R01S25
                                R20E24E01R21G26
 107921447.550 8  84094656.07249  20536756.423    20536756.110    20536754.380
        50.750          56.500
 125100393.188 6  97480847.39444  23805812.111    23805811.266    23805809.686
        40.250          24.250
  31881843.463 7                   6066920.669
        44.250
 124578737.056 7  97074353.73845  23706540.314    23706540.203    23706544.378
        42.500          31.000
 125865068.989 6  98076801.54646  23951288.113    23951287.282    23951289.878
        39.250          38.000
 114523824.017 7  89239395.60546  21793139.493    21793139.306    21793139.063
        47.000          38.250
 144081310.029 6                  27417761.950
        38.250
 129525483.416 7                  24647872.874
        42.250
 127822450.301 6  99601948.11644  24323798.292    24323797.698    24323802.151
        37.500          27.000
 118778988.815 6                  22251297.706
        38.250
 127793263.203 8                  24318203.463
        48.250
 129718605.421 6                  24309221.068
        41.250
 124209560.838 7                  23636285.698
        43.000
 118832960.122 7  92597175.68347  22613148.981    22613148.499    22613146.940
        45.250          46.750
 134134740.279 5 104520570.30443  25524991.726    25524991.579    25524990.694
        34.250          18.000
 141155213.474 6                  26860917.411
        37.500
 110142641.906 8                  20662428.076
        50.250
 196141632.116 7                  37324505.754
        47.250
 131588014.085 5                  24633550.668
        35.750
 205006175.463 7                  39011172.472
        43.500
                                  24665064.854
        37.750
 147301437.368 6                  28030532.637
        36.250
 127651796.625 6                  23879911.498
        38.500
 195413000.118 7                  37186018.834
        46.500
 114225448.277 6                  21360716.561
        38.250
 137674808.483 7                  26198618.601
        43.500
 139455763.636 7                  26537513.337
        42.250
 104757865.301 8                  19576511.685
        53.000
 113650552.323 7  88558955.32446  21626952.486    21626952.048    21626953.856
        46.750          39.250
 21 10 12  0 44  0.0000000  0 29G31G16S48G32G25G18E05E09G27R22E31R02
                                E12G29G04E26R10S36R12S23R08E04R01S25
                                R20E24E01R21G26
 107912411.437 8  84087614.94749  20535037.044    20535036.731    20535034.818
        50.750          56.250
 125037495.152 6  97431835.94344  23793842.500    23793841.646    23793841.178
        39.750          24.250
  31881807.378 7                   6066936.373
        44.250
 124672401.778 7  97147339.20344  23724363.877    23724363.743    23724368.659
        42.000          29.250
 125929865.971 6  98127292.69146  23963618.423    23963617.587    23963620.624
        39.750          38.750
 114471875.387 7  89198916.19146  21783254.193    21783254.006    21783253.464
        47.000          37.750
 144081918.173 6                  27417877.932
        38.000
 129582489.050 6                  24658720.449
        41.500
 127725881.382 6  99526699.97944  24305421.016    24305420.395    24305425.133
        38.750          27.000
 118653225.209 6                  22227736.209
        38.250
 127785912.483 7                  24316804.644
        47.750
 129715954.722 6                  24308724.786
        40.750
 124132850.433 7                  23621688.152
        42.500
 118918747.138 7  92664022.70747  22629473.570    22629473.088    22629471.957
        45.750          46.500
 134072416.059 6 104472005.98143  25513131.416    25513131.256    25513132.564
        36.500          22.000
 141217095.111 6                  26872693.254
        37.750
 110160897.174 8                  20665852.932
        50.250
 196141584.822 7                  37324498.760
        47.000
 131498165.273 6                  24616731.528
        37.500
 205005996.036 7                  39011139.297
        43.250
                                  24682287.559
        22.750
 147377308.042 6                  28044969.695
        40.750
 127726300.107 6                  23893849.898
        38.750
 195409403.135 7                  37185341.615
        45.750
 114319772.403 6                  21378356.046
        38.750
 137631571.105 7                  26190390.934
        43.000
 139491939.291 6                  26544397.095
        41.750
 104718074.983 8                  19569075.779
        53.250
 113613269.355 7  88529903.66746  21619858.058    21619857.625    21619859.081
        47.000          39.250
 21 10 12  0 44 30.0000000  0 29G31G16S48G32G25G18E05E09G27R22E31R02
                                E12G29G04E26R10S36R12S23R08E04R01S25
                                R20E24E01R21G26
 107903845.194 8  84080939.95149  20533406.785    20533406.472    20533404.438
        51.000          56.500
 124974661.457 6  97382874.65544  23781886.146    23781885.306    23781884.149
        40.500          25.000
  31881773.512 7                   6066953.920
        44.250
 124766089.073 7  97220342.42345  23742191.791    23742191.657    23742196.481
        42.250          31.250
 125994714.099 6  98177823.64946  23975958.605    23975957.769    23975960.880
        39.000          37.250
 114420374.454 7  89158785.63146  21773454.006    21773453.814    21773453.102
        47.000          38.000
 144082901.077 6                  27418065.385
        38.250
 129639685.532 6                  24669604.920
        41.750
 127629533.230 6  99451623.59344  24287086.156    24287085.535    24287091.051
        40.500          27.250
 118527765.786 6                  22204234.670
        37.750
 127778607.143 8                  24315414.480
        48.250
 129713931.810 6                  24308343.772
        40.000
 124056363.887 7                  23607133.005
        42.750
 119004708.681 7  92731005.72747  22645831.717    22645831.244    22645829.846
        45.500          46.250
 134010501.728 5 104423761.06943  25501350.170    25501350.018    25501350.151
        34.750          18.750
 141279268.605 6                  26884524.676
        38.000
 110179508.466 8                  20669344.071
        50.000
 196141542.788 7                  37324489.312
        47.250
 131408139.658 6                  24599879.096
        38.750
 205005817.918 7                  39011107.535
        43.250
 132264517.17416                  24699466.278
        37.500
 147453050.827 6                  28059382.053
        38.000
 127801042.828 6                  23907831.446
        36.500
 195405788.565 7                  37184665.206
        47.000
 114414618.901 6                  21396093.623
        38.750
 137588303.483 7                  26182157.412
        43.250
 139528188.804 6                  26551295.061
        41.500
 104679072.004 8                  19561787.074
        53.250
 113576089.850 7  88500932.63246  21612782.876    21612782.438    21612784.308
        47.500          40.000
 21 10 12  0 45  0.0000000  0 29G31G16S48G32G25G18E05E09G27R22E31R02
                                E12G29G04E26R10S36R12S23R08E04R01S25
                                R20E24E01R21G26
 107895743.241 8  84074626.73449  20531865.026    20531864.709    20531862.730
        51.000          56.750
 124911885.104 6  97333958.04344  23769939.502    23769938.666    23769937.650
        40.000          25.000
  31881733.865 7                   6066970.219
        44.250
 124859789.032 6  97293355.47744  23760022.265    23760022.127    23760026.965
        41.250          27.750
 126059607.073 6  98228389.59246  23988307.434    23988306.598    23988309.118
        39.250          36.750
 114369317.070 7  89119000.68746  21763737.820    21763737.624    21763737.152
        47.000          38.500
 144084251.579 6                  27418322.064
        38.500
 129697064.288 6                  24680523.524
        41.750
 127533400.974 6  99376715.30344  24268793.462    24268792.877    24268797.004
        39.500          27.250
 118402607.572 6                  22180785.878
        36.000
 127771341.198 8                  24314031.816
        48.000
 129712529.478 6                  24308082.537
        40.250
 123980096.483 7                  23592619.798
        42.500
 119090835.550 7  92798117.57747  22662220.850    22662220.368    22662218.964
        45.000          45.750
 133948992.435 5 104375831.74943  25489645.341    25489645.176    25489645.125
        35.750          20.750
 141341725.732 6                  26896409.913
        37.250
 110198470.910 8                  20672901.557
        50.000
 196141501.636 7                  37324481.437
        47.250
 131317930.995 6                  24582991.125
        40.250
 205005634.966 7                  39011071.485
        43.250
 132356346.76517                  24716609.684
        43.500
 147528657.874 6                  28073769.213
        38.250
 127876014.163 6                  23921856.245
        39.750
 195402158.389 7                  37183985.520
        46.250
 114509977.269 6                  21413924.937
        38.500
 137544999.094 7                  26173916.846
        43.000
 139564506.207 6                  26558206.116
        40.500
 104640850.900 8                  19554644.785
        53.250
 113539007.448 7  88472037.25346  21605726.283    21605725.845    21605728.137
        47.000          40.000
 21 10 12  0 45 30.0000000  0 29G31G16S48G32G25G18E05E09G27R22E31R02
                                E12G29G04E26R10S36R12S23R08E04R01S25
                                R20E24E01R21G26
 107888113.169 8  84068681.21949  20530413.116    20530412.799    20530411.044
        51.000          56.750
 124849172.733 6  97285091.27944  23758006.403    23758005.563    23758003.940
        40.000          25.000
  31881696.036 7                   6066986.178
        44.000
 124953505.091 6  97366380.81944  23777855.709    23777855.589    23777860.766
        41.500          28.250
 126124551.963 6  98278995.97146  24000666.277    24000665.446    24000667.502
        39.750          37.000
 114318712.380 7  89079568.49846  21754108.117    21754107.925    21754107.517
        47.000          38.500
 144085975.925 6                  27418650.168
        39.000
 129754630.046 6                  24691477.699
        41.500
 127437492.920 6  99301981.74944  24250543.061    24250542.498    24250547.034
        40.000          26.750
 118277760.922 6                  22157399.707
        36.750
 127764122.006 8                  24312658.047
        48.000
 129711754.139 6                  24307938.793
        41.000
 123904056.825 7                  23578149.809
        42.250
 119177132.232 7  92865361.75247  22678642.386    22678641.904    22678640.501
        45.250          45.500
 133887896.493 5 104328224.57443  25478018.830    25478018.647    25478019.501
        33.250          18.250
 141404471.671 6                  26908349.935
        36.500
 110217792.914 8                  20676525.958
        50.000
 196141459.388 7                  37324472.543
        47.250
 131227546.958 6                  24566069.220
        40.500
 205005454.547 7                  39011037.733
        43.500
 132447955.110 7                  24733716.266
        43.500
 147604132.301 5                  28088131.744
        33.500
 127951216.318 6                  23935924.574
        38.750
 195398531.529 7                  37183305.154
        46.750
 114605850.089 6                  21431853.032
        38.000
 137501664.709 7                  26165670.576
        43.000
 139600898.932 6                  26565131.647
        40.500
 104603419.834 8                  19547649.766
        53.250
 113502029.100 7  88443222.95646  21598689.489    21598689.047    21598691.001
        47.000          39.750
 21 10 12  0 46  0.0000000  0 29G31G16S48G32G25G18E05E09G27R22E31R02
                                E12G29G04E26R10S36R12S23R08E04R01S25
                                R20E24E01R21G26
 107880952.782 8  84063101.69549  20529050.591    20529050.274    20529048.505
        51.250          56.500
 124786520.290 6  97236271.22844  23746083.686    23746082.846    23746081.866
        40.000          24.250
  31881656.074 7                   6067001.753
        44.500
 125047231.499 6  97439414.33444  23795691.311    23795691.191    23795696.069
        41.250          27.250
 126189545.657 6  98329640.38646  24013033.831    24013033.000    24013035.818
        39.500          37.500
 114268559.398 7  89040488.28446  21744564.233    21744564.046    21744563.742
        47.250          38.250
 144088070.248 6                  27419048.671
        38.250
 129812377.452 6                  24702466.577
        41.250
 127341807.118 6  99227421.36944  24232333.937    24232333.347    24232337.943
        41.000          26.750
 118153226.765 6                  22134069.958
        36.750
 127756946.832 7                  24311292.719
        47.500
 129711600.778 6                  24307909.902
        41.000
 123828243.505 7                  23563723.118
        42.500
 119263593.386 7  92932734.08147  22695095.663    22695095.181    22695094.047
        45.500          46.250
 133827212.333 6 104280938.21243  25466470.617    25466470.430    25466471.531
        36.000          20.000
 141467501.446 6                  26920344.098
        36.750
 110237472.381 8                  20680218.061
        50.250
 196141416.028 7                  37324465.094
        47.250
 131136984.656 6                  24549117.537
        41.750
 205005272.834 7                  39011004.169
        43.750
 132539356.974 6                  24750784.158
        37.000
 147679470.886 5                  28102468.732
        32.500
 128026641.754 6                  23950032.979
        38.000
 195394892.870 7                  37182622.534
        46.750
 114702229.739 6                  21449876.855
        37.750
 137458297.092 7                  26157418.222
        43.000
 139637364.311 6                  26572070.819
        40.750
 104566776.637 8                  19540801.711
        53.500
 113465151.730 7  88414487.34646  21591671.779    21591671.332    21591673.205
        47.500          39.500
 21 10 12  0 46 30.0000000  0 30G31G16S48G32G25G18E05E09G27R22E31R02
                                E12G29G04E26R10S36R12E11S23R08E04R01
                                S25R20E24E01R21G26
 107874266.991 8  84057891.98549  20527778.303    20527777.986    20527775.899
        51.000          56.250
 124723931.447 6  97187500.71343  23734173.450    23734172.637    23734171.466
        39.500          23.500
  31881616.927 7                   6067018.141
        44.000
 125140968.754 6  97512456.20044  23813528.838    23813528.718    23813533.278
        39.750          27.000
 126254592.229 6  98380326.02946  24025412.121    24025411.290    24025413.985
        39.750          38.000
 114218864.253 7  89001764.82846  21735107.557    21735107.374    21735107.016
        47.250          38.500
 144090537.684 6                  27419518.208
        39.000
 129870308.200 6                  24713490.661
        41.250
 127246348.837 6  99153038.38244  24214168.805    24214168.188    24214172.866
        40.250          27.250
 118029013.563 6                  22110799.862
        37.500
 127749820.102 7                  24309936.527
        47.750
 129712071.863 6                  24307997.478
        41.250
 123752662.055 7                  23549340.327
        42.500
 119350219.951 7  93000235.29147  22711579.969    22711579.487    22711578.970
        45.000          46.250
 133766945.252 5 104233976.86743  25455002.042    25455001.846    25455002.535
        34.250          18.750
 141530817.108 6                  26932392.552
        37.250
 110257514.501 8                  20683977.944
        50.000
 196141371.439 7                  37324456.924
        47.250
 131046248.199 6                  24532132.833
        40.250


 205005093.481 7                  39010968.709
        43.500
 132630552.289 5                  24767812.122
        31.750
 147754676.031 5                  28116778.928
        31.500
 128102289.915 6                  23964187.679
        39.500
 195391245.633 7                  37181937.937
        46.500
 114799115.674 6                  21467995.333
        38.000
 137414900.042 7                  26149159.946
        43.750
 139673906.672 6                  26579024.263
        41.500
 104530926.165 8                  19534102.496
        53.500
 113428379.311 7  88385833.51746  21584674.448    21584674.010    21584675.782
        47.250          39.750
 21 10 12  0 47  0.0000000  0 30G31G16S48G32G25G18E05E09G27R22E31R02
                                E12G29G04E26R10S36R12E11S23R08E04R01
                                S25R20E24E01R21G26
 107868050.212 8  84053047.73849  20526595.324    20526595.007    20526592.842
        51.000          56.500
 124661399.210 6  97138774.30944  23722274.467    23722273.640    23722271.446
        39.750          24.000
  31881571.540 7                   6067031.400
        44.000
 125234708.122 7  97585500.09344  23831366.853    23831366.737    23831371.837
        42.500          28.750
 126319685.224 6  98431047.83646  24037798.456    24037797.620    24037800.849
        38.500          37.000
 114169622.533 7  88963394.69046  21725737.099    21725736.921    21725736.611
        47.250          38.500
 144093370.896 6                  27420057.340
        38.500
 129928413.526 6                  24724547.818
        41.250
 127151112.606 6  99078828.52044  24196046.086    24196045.469    24196049.541
        40.250          27.250
 117905116.807 6                  22087591.589
        37.000
 127742735.633 7                  24308588.371
        47.250
 129713160.720 6                  24308200.831
        40.000
 123677307.591 7                  23535000.940
        42.500
 119437002.846 7  93067858.32547  22728094.288    22728093.810    22728092.900
        45.250          45.500
 133707090.035 5 104187336.44743  25443611.487    25443611.295    25443611.976
        34.000          18.000
 141594410.331 6                  26944494.119
        36.750
 110277914.263 8                  20687804.736
        50.750
 196141324.920 7                  37324448.048
        47.000
 130955331.801 6                  24515111.617
        40.750


 205004910.427 7                  39010931.255
        43.500
 132721531.105 6                  24784804.608
        38.250
                                  28131063.935
        35.750
 128178149.737 6                  23978377.951
        39.500
 195387593.257 7                  37181252.187
        46.250
 114896496.836 6                  21486206.336
        38.250
 137371466.881 7                  26140894.892
        44.000
 139710519.893 6                  26585991.784
        40.500
 104495862.718 8                  19527549.906
        53.500
 113391705.337 7  88357256.39746  21577695.378    21577694.936    21577697.055
        47.250          39.750
 21 10 12  0 47 30.0000000  0 29G31G16S48G32G25G18E05E09G27R22E31R02
                                E12G29G04E26R10S36R12E11S23E04R01S25
                                R20E24E01R21G26
 107862310.686 8  84048575.37449  20525503.127    20525502.810    20525500.800
        50.750          56.500
 124598930.963 6  97090097.76844  23710386.235    23710385.417    23710384.550
        39.750          24.250
  31881528.458 7                   6067048.155
        44.000
 125328453.873 6  97658549.21944  23849205.930    23849205.792    23849210.199
        39.500          27.250
 126384832.577 6  98481812.00445  24050195.946    24050195.106    24050197.675
        37.250          35.500
 114120844.196 7  88925385.63646  21716455.044    21716454.866    21716454.305
        46.750          38.500
 144096577.039 6                  27420667.462
        38.500
 129986699.067 6                  24735639.466
        41.250
 127056107.348 6  99004798.70244  24177966.313    24177965.696    24177970.198
        40.000          27.250
 117781548.888 6                  22064442.168
        37.750
 127735701.734 7                  24307249.897
        47.500
 129714873.117 6                  24308521.474
        39.500
 123602189.672 7                  23520706.221
        42.500
 119523947.192 7  93135607.17847  22744639.219    22744638.746    22744637.232
        44.750          45.250
 133647655.992 5 104141024.22043  25432303.127    25432302.958    25432302.509
        34.750          19.000
 141658287.113 6                  26956649.314
        36.750
 110298680.850 8                  20691700.573
        50.000
 196141284.739 7                  37324439.203
        47.000
 130864243.436 7                  24498060.324
        42.000


 205004731.423 7                  39010899.256
        43.250
 147904664.91216                  28145321.076
        41.000
 128254224.970 6                  23992609.001
        38.000
 195383922.006 7                  37180566.580
        46.250
 114994376.804 6                  21504510.637
        38.250
 137328005.343 7                  26132624.455
        43.500
 139747212.254 6                  26592974.054
        40.000
 104461595.040 8                  19521146.193
        53.250
 113355137.738 7  88328762.16546  21570737.026    21570736.588    21570738.468
        47.000          39.750
 21 10 12  0 48  0.0000000  0 28G31G16S48G32G25G18E05E09G27R22E31R02
                                E12G29G04E26R10S36R12S23E04R01S25R20
                                E24E01R21G26
 107857043.988 8  84044471.44949  20524500.806    20524500.489    20524498.674
        51.250          56.750
 124536521.068 6  97041466.69844  23698510.890    23698510.077    23698508.725
        40.000          24.000
  31881482.152 7                   6067064.244
        44.500
 125422197.593 7  97731596.82644  23867044.551    23867044.377    23867048.601
        44.250          29.250
 126450029.011 6  98532614.39046  24062602.679    24062601.839    24062604.045
        40.000          37.500
 114072525.979 7  88887735.11546  21707260.329    21707260.160    21707259.665
        47.500          38.500
 144100149.930 6                  27421347.535
        38.000
 130045157.201 6                  24746763.517
        41.000
 126961328.470 6  98930945.19544  24159930.662    24159930.036    24159934.222
        40.500          27.250
 117658309.089 6                  22041356.075
        38.000
 127728713.523 7                  24305920.090
        47.500
 129717202.591 6                  24308958.960
        40.000
 123527304.524 7                  23506456.120
        42.500
 119611045.032 7  93203475.62847  22761213.463    22761212.985    22761211.476
        45.500          45.500
 133588639.118 5 104095037.06043  25421072.504    25421072.326    25421071.939
        35.000          19.000
 141722440.247 6                  26968857.309
        37.000
 110319810.185 8                  20695664.551
        49.750
 196141245.743 7                  37324430.470
        47.500
 130772978.148 6                  24480974.141
        41.500
 205004549.961 7                  39010865.706
        43.500
 147979447.967 7                  28159551.536
        43.750
 128330505.735 6                  24006880.232
        38.750
 195380243.908 7                  37179877.306
        46.250
 115092745.707 6                  21522905.346
        38.000
 137284509.956 7                  26124347.462
        43.000
 139783978.892 6                  26599970.446
        40.750
 104428118.772 8                  19514890.490
        53.500
 113318671.204 7  88300346.68246  21563797.550    21563797.112    21563799.123
        47.250          40.000
 21 10 12  0 48 30.0000000  0 29G31G16S48G32G25G18E05E09G27R22E31R02
                                E12G29G04E26R10S36R12E11S23E04R01S25
                                R20E24E01R21G26
 107852252.928 8  84040738.15149  20523589.096    20523588.779    20523586.919
        51.250          56.500
 124474171.068 6  96992882.28843  23686645.558    23686644.758    23686644.061
        40.250          23.750
  31881435.920 7                   6067077.851
        44.250
 125515936.928 6  97804640.76344  23884882.224    23884882.037    23884886.181
        41.250          27.750
 126515276.563 6  98583456.61346  24075018.491    24075017.651    24075020.332
        39.750          38.000
 114024671.890 7  88850446.24746  21698153.909    21698153.744    21698153.264
        47.500          38.500
 144104090.679 6                  27422097.398
        38.000
 130103787.651 6                  24757920.743
        41.000
 126866779.405 6  98857270.79344  24141938.240    24141937.619    24141942.121
        40.250          27.500
 117535401.938 6                  22018330.565
        36.250
 127721773.303 7                  24304599.323
        47.500
 129720149.782 6                  24309510.741
        39.750
 123452655.761 7                  23492250.747
        42.750
 119698295.500 7  93271463.00547  22777816.675    22777816.193    22777814.910
        45.000          46.000
 133530042.783 5 104049377.56343  25409921.165    25409921.005    25409921.864
        35.750          19.500
 141786869.836 6                  26981117.927
        37.250
 110341305.114 8                  20699696.612
        50.000
 196141198.076 7                  37324422.081
        47.250
 130681538.501 6                  24463857.318
        41.250


 205004367.041 7                  39010830.845
        43.500
 148054082.10417                  28173754.771
        42.000
 128406989.235 6                  24021186.282
        39.250
 195376562.325 7                  37179188.001
        46.000
 115191600.708 6                  21541392.374
        37.500
 137240982.586 7                  26116064.367
        43.250
 139820822.114 6                  26606981.188
        40.250
 104395436.243 8                  19508782.985
        53.250
 113282307.786 7  88272011.55846  21556877.901    21556877.463    21556879.716
        47.250          40.000
 21 10 12  0 49  0.0000000  0 29G31G16S48G32G25G18E05E09G27R22E31R02
                                E12G29G04E26R10S36R12E11S23E04R01S25
                                R20E24E01R21G26
 107847940.712 8  84037377.97849  20522768.614    20522768.297    20522766.350
        51.500          56.750
 124411882.744 6  96944345.93544  23674792.195    23674791.391    23674791.158
        40.000          24.500
  31881391.099 7                   6067094.830
        44.250
 125609671.734 6  97877681.03444  23902719.184    23902719.006    23902723.389
        40.500          28.500
 126580577.861 6  98634340.71846  24087445.289    24087444.444    24087447.083
        39.750          38.250
 113977286.554 8  88813522.64246  21689136.816    21689136.651    21689136.050
        48.000          38.500
 144108400.994 6                  27422918.050
        39.500
 130162590.671 6                  24769110.438
        41.000
 126772463.464 6  98783778.01344  24123990.088    24123989.489    24123993.564
        39.750          27.000
 117412834.922 6                  21995371.109
        36.250
 127714884.087 7                  24303288.348
        47.750
 129723715.895 6                  24310178.775
        40.500
 123378247.527 7                  23478091.342
        42.750
 119785699.019 7  93339569.63447  22794448.825    22794448.347    22794447.544
        45.250          46.000
 133471870.675 5 104004048.66543  25398851.998    25398851.833    25398851.526
        34.750          19.000
 141851576.494 6                  26993431.108
        38.250
 110363169.930 8                  20703798.547
        50.000
 196141150.632 7                  37324415.217
        47.250
 130589927.430 6                  24446706.284
        40.500
 143616531.82916                  27329314.735
        37.500
 205004186.089 7                  39010797.039
        43.250
 148128580.151 5                  28187930.805
        32.500
 128483673.602 6                  24035533.836
        40.250
 195372867.391 7                  37178497.108
        46.500
 115290940.365 6                  21559968.220
        37.500
 137197425.612 7                  26107775.783
        43.000
 139857745.028 6                  26614007.812
        40.250
 104363550.970 8                  19502824.214
        53.500
 113246050.000 7  88243758.74046  21549978.301    21549977.872    21549980.378
        47.250          40.250
 21 10 12  0 49 30.0000000  0 29G31G16S48G32G25G18E05E09G27R22E31R02
                                E12G29G04E26R10S36R12E11S23E04R01S25
                                R20E24E01R21G26
 107844106.612 8  84034390.36649  20522038.955    20522038.638    20522036.760
        51.000          56.500
 124349654.654 6  96895856.54044  23662950.893    23662950.080    23662948.160
        40.250          24.250
  31881345.313 7                   6067109.479
        44.250
 125703398.052 7  97950714.68044  23920554.686    23920554.521    23920558.563
        42.500          29.000
 126645931.865 6  98685265.88246  24099881.050    24099880.228    24099883.224
        38.750          37.000
 113930370.940 7  88776965.05346  21680209.115    21680208.941    21680208.317
        47.250          38.250
 144113078.935 6                  27423807.853
        38.500
 130221562.925 6                  24780332.586
        41.500
 126678380.727 6  98710466.94944  24106086.854    24106086.269    24106090.730
        39.750          27.000
 117290610.599 6                  21972472.134
        38.000
 127708045.184 8                  24301986.912
        48.000
 129727898.943 6                  24310962.486
        40.500
 123304080.350 7                  23463977.854
        43.250
 119873251.410 7  93407792.27647  22811109.447    22811108.969    22811108.023
        44.250          44.750
 133414123.099 5 103959050.56243  25387862.409    25387862.262    25387862.657
        35.000          18.000
 141916557.251 6                  27005796.660
        39.250
 110385404.254 8                  20707969.848
        50.250
 196141109.426 7                  37324407.571
        47.250
 130498144.390 7                  24429525.684
        42.250
 143525455.45815                  27311986.008
        32.250
 205004006.193 7                  39010762.053
        43.500
 148202925.88216                  28202079.318
        40.750
 128560553.797 6                  24049914.628
        37.000
 195369163.033 7                  37177803.175
        46.250
 115390758.766 6                  21578635.103
        37.750
 137153837.811 7                  26099481.267
        43.250
 139894746.870 6                  26621049.001
        40.750
 104332462.600 8                  19497014.797
        53.250
 113209896.876 7  88215587.48046  21543098.533    21543098.100    21543100.474
        47.000          39.750
 21 10 12  0 50  0.0000000  0 29G31G16S48G32G25G18E05E09G27R22E31R02
                                E12G29G04E26R10S36R12E11S23E04R01S25
                                R20E24E01R21G26
 107840746.037 8  84031771.73149  20521399.524    20521399.207    20521397.264
        51.250          56.750
 124287480.558 6  96847409.21144  23651119.406    23651118.611    23651117.941
        40.500          25.250
  31882892.515 7                   6067125.272
        44.250
 125797106.092 7  98023733.55944  23938386.588    23938386.414    23938390.509
        42.750          28.000
 126711333.061 6  98736227.84446  24112326.649    24112325.818    24112328.778
        38.750          37.000
 113883921.423 7  88740770.66546  21671369.838    21671369.664    21671369.211
        47.500          38.750
 144118118.030 6                  27424766.375
        38.750
 130280696.546 6                  24791585.378
        41.750
 126584526.811 6  98637334.22844  24088227.379    24088226.798    24088230.703
        39.750          27.500
 117168724.913 6                  21949638.372
        36.750
 127701251.512 7                  24300694.183
        47.500
 129732690.644 6                  24311862.178
        40.500
 123230150.227 7                  23449909.455
        43.250
 119960944.640 7  93476124.67547  22827797.072    22827796.603    22827795.143
        45.000          44.250
 133356795.759 5 103914379.93942  25376954.130    25376953.925    25376954.071
        34.000          17.000
 141981804.657 6                  27018212.944
        38.500
 110408004.354 8                  20712209.687
        50.000
 196141061.210 7                  37324398.292
        47.000
 130406183.938 6                  24412308.875
        38.250
                                  27294637.530
        28.500
 205003820.681 7                  39010728.212
        43.500


 128637619.666 6                  24064331.855
        39.250
 195365446.301 7                  37177108.245
        46.000
 115491045.931 6                  21597390.640
        37.750
 137110213.527 7                  26091179.849
        43.000
 139931822.451 6                  26628104.288
        40.500
 104302165.816 8                  19491353.002
        53.250
 113173842.870 7  88187493.46046  21536237.642    21536237.209    21536239.194
        47.500          40.000
 21 10 12  0 50 30.0000000  0 29G31G16S48G32G25G18E05E09G27R22E31R02
                                E12G29G04E26R10S36R12E11S23E04R01S25
                                R20E24E01R21G26
 107837871.754 8  84029532.02549  20520852.611    20520852.294    20520850.340
        51.250          56.750
 124225372.098 6  96799013.03844  23639300.537    23639299.719    23639299.577
        40.000          25.750
  31882845.575 7                   6067139.631
        44.250
 125890806.316 7  98096746.54344  23956217.817    23956217.648    23956221.412
        42.750          28.000
 126776793.612 6  98787236.04746  24124783.557    24124782.744    24124785.189
        39.500          37.250
 113837952.101 7  88704950.44646  21662622.072    21662621.894    21662621.577
        47.750          39.000
 144123529.410 6                  27425796.576
        38.000
 130340001.298 6                  24802870.862
        41.250
 126490914.833 6  98564390.09144  24070412.764    24070412.206    24070416.600
        39.750          28.000
 117047194.881 6                  21926872.328
        36.750
 127694515.473 7                  24299412.402
        47.250
 129738102.902 6                  24312875.116
        41.500
 123156470.756 7                  23435888.330
        43.250
 120048787.991 7  93544574.05447  22844513.093    22844512.628    22844511.249
        44.500          45.000
 133299901.991 5 103870047.11042  25366128.122    25366127.872    25366127.061
        35.000          17.250
 142047328.889 6                  27030681.712
        38.250
 110430983.194 8                  20716520.102
        49.750
 196141018.429 7                  37324390.230
        47.250
 130314059.028 6                  24395064.150
        39.750
 143343073.46014                  27277279.067
        27.250
 205003641.135 7                  39010691.657
        43.500
 148351182.45016                  28230290.679
        37.000
 128714878.807 6                  24078784.639
        38.500
 195363331.404 7                  37176413.207
        46.500
 115591809.359 6                  21616232.249
        36.750
 137066564.701 7                  26082873.603
        42.500
 139968984.212 6                  26635175.948
        40.250
 104272673.762 8                  19485841.901
        53.250
 113137900.097 7  88159486.10746  21529398.016    21529397.578    21529399.310
        47.250          40.000
 21 10 12  0 51  0.0000000  0 29G31G16S48G32G25G18E05E09G27R22E31R02
                                E12G29G04E26R10S36R12E11S23E04R01S25
                                R20E24E01R21G26
 107835474.771 8  84027664.23949  20520396.414    20520396.093    20520394.083
        51.500          56.750
 124163319.563 6  96750660.42444  23627492.466    23627491.626    23627490.572
        41.000          26.000
  31882793.915 7                   6067153.591
        44.250
 125984485.041 7  98169742.52044  23974044.495    23974044.343    23974048.564
        42.000          28.750
 126842304.104 6  98838283.17446  24137249.427    24137248.618    24137251.125
        39.000          36.500
 113792455.408 7  88669498.52246  21653964.633    21653964.459    21653963.792
        47.500          38.750
 144129302.720 6                  27426895.101
        38.750
 130399465.441 7                  24814186.824
        42.000
 126397535.895 6  98491627.40744  24052643.878    24052643.328    24052646.501
        40.500          27.500
 116926014.309 6                  21904170.389
        36.750
 127687828.060 7                  24298139.937
        47.750
 129744123.823 7                  24314004.591
        43.000
 123083034.134 7                  23421914.090
        44.000
 120136769.862 7  93613131.35847  22861255.544    22861255.079    22861253.974
        44.500          45.000
 133243433.533 6 103826045.73643  25355381.506    25355381.274    25355381.595
        36.000          19.000
 142113118.462 6                  27043201.222
        38.500
 110454331.827 8                  20720900.459
        50.000
 196140976.601 7                  37324382.266
        47.500
 130221760.452 6                  24377785.751
        38.750
 143251752.87916                  27259902.201
        37.250
 205003458.823 7                  39010657.757
        43.250
 148425087.127 4                  28244352.475
        25.000
 128792316.875 6                  24093270.383
        39.000
 195359599.422 7                  37175717.020
        47.000
 115693035.137 6                  21635163.184
        37.750
 137022881.752 7                  26074561.072
        42.750
 140006223.142 6                  26642262.112
        41.250
 104243977.082 8                  19480479.095
        53.250
 113102059.163 7  88131558.10946  21522577.720    21522577.282    21522579.236
        47.750          40.000
 21 10 12  0 51 30.0000000  0 29G31G16S48G32G25G18E05E09G27R22E31R02
                                E12G29G04E26R10S36R12E11S23E04R01S25
                                R20E24E01R21G26
 107833559.718 8  84026171.98549  20520031.975    20520031.658    20520029.798
        51.250          57.000
 124101326.007 6  96702353.78244  23615695.439    23615694.612    23615693.466
        41.250          27.250
  31882740.133 7                   6067169.287
        44.000
 126078143.385 7  98242722.57945  23991867.721    23991867.574    23991871.776
        43.750          30.000
 126907868.182 6  98889372.03246  24149726.609    24149725.796    24149728.016
        38.750          37.500
 113747436.872 7  88634419.17846  21645397.635    21645397.452    21645397.120
        47.250          39.000
 144135440.627 6                  27428063.219
        38.250
 130459090.276 6                  24825533.012
        41.500
 126304394.927 6  98419050.13744  24034919.769    24034919.219    24034922.452
        39.250          27.750
 116805190.588 6                  21881535.783
        38.000
 127681193.292 8                  24296877.212
        48.000
 129750756.106 7                  24315247.969
        42.750
 123009845.451 7                  23407986.557
        43.500
 120224891.103 7  93681797.25247  22878024.201    22878023.728    22878023.010
        44.750          45.500
 133187395.190 6 103782379.51643  25344718.801    25344718.533    25344718.435
        36.750          19.000
 142179175.106 6                  27055771.013
        38.250
 110478055.847 8                  20725351.117
        50.500
 196140936.608 7                  37324373.193
        47.000
 130129292.292 6                  24360474.293
        38.750
 143160352.92915                  27242510.293
        34.500
 205003277.371 7                  39010623.303
        43.000
 148498836.093 5                  28258386.031
        32.500
 128869933.153 6                  24107793.650
        40.750
 195355857.367 7                  37175017.265
        46.000
 115794722.203 6                  21654177.630
        37.000
 136979168.106 7                  26066242.563
        42.750
 140043543.226 6                  26649363.932
        40.500
 104216080.129 8                  19475265.664
        53.250
 113066323.706 7  88103712.30646  21515777.554    21515777.112    21515778.784
        47.250          40.000
 21 10 12  0 52  0.0000000  0 29G31G16S48G32G25G18E05E09G27R22E31R02
                                E12G29G04E26R10S36R12E11S23E04R01S25
                                R20E24E01R21G26
 107832124.722 8  84025053.80449  20519758.900    20519758.583    20519756.872
        51.250          56.750
 124039389.060 6  96654091.24644  23603909.228    23603908.419    23603907.901
        41.750          27.750
  31882683.249 7                   6067183.386
        44.000
 126171776.337 6  98315682.80544  24009685.548    24009685.396    24009690.249
        41.750          29.500
 126973484.151 6  98940501.34346  24162212.990    24162212.177    24162214.463
        39.000          37.000
 113702896.652 7  88599712.54446  21636922.112    21636921.925    21636921.235
        47.250          38.750
 144141940.412 6                  27429299.723
        38.250
 130518871.726 7                  24836908.961
        42.000
 126211491.414 6  98346658.00444  24017240.426    24017239.908    24017243.315
        40.000          28.000
 116684724.833 6                  21858967.845
        38.000
 127674609.822 8                  24295624.560
        48.000
 129757995.595 6                  24316602.620
        41.000
 122936904.483 7                  23394106.318
        43.500
 120313146.938 7  93750568.02847  22894818.997    22894818.524    22894817.624
        44.250          45.000
 133131786.352 6 103739047.94443  25334136.013    25334135.736    25334135.969
        36.000          18.750
 142245495.098 6                  27068391.548
        38.000
 110502154.224 8                  20729872.097
        50.250
 196140890.172 7                  37324364.415
        46.750
 130036653.308 6                  24343135.193
        40.000
                                  27225099.055
        23.500
 205003093.422 7                  39010588.148
        42.750
 148572432.183 6                  28272389.947
        39.000
 128947721.429 6                  24122345.003
        37.750
 195352109.079 7                  37174317.286
        46.500
 115896864.366 6                  21673280.233
        37.250
 136935421.939 7                  26057918.106
        43.000
 140080943.000 6                  26656480.993
        40.500
 104188981.129 8                  19470201.656
        53.250
 113030692.074 7  88075947.40046  21508997.015    21508996.577    21508998.185
        47.250          40.000
 21 10 12  0 52 30.0000000  0 29G31G16S48G32G25G18E05E09G27R22E31R02
                                E12G29G04E26R10S36R12E11S23E04R01S25
                                R20E24E01R21G26
 107831173.103 8  84024312.27749  20519577.884    20519577.563    20519575.579
        51.500          56.750
 123977510.819 6  96605874.46944  23592134.267    23592133.463    23592132.209
        41.250          27.250
  31882625.272 7                   6067199.314
        44.000
 126265382.664 7  98388621.92744  24027499.072    24027498.929    24027503.977
        42.250          29.000
 127039154.525 6  98991673.04046  24174709.308    24174708.499    24174711.048
        38.750          36.250
 113658839.173 7  88565382.06846  21628537.853    21628537.670    21628537.422
        47.750          38.750
 144148803.615 6                  27430605.781
        37.750
 130578809.962 7                  24848315.099
        42.000
 126118828.645 6  98274453.49644  23999607.231    23999606.744    23999609.713
        40.750          28.500
 116564623.945 6                  21836469.294
        37.750
 127668080.616 8                  24294382.074
        48.000
 129765843.688 6                  24318074.183
        41.250
 122864215.315 7                  23380273.945
        43.250
 120401537.578 7  93819443.85747  22911639.136    22911638.654    22911637.753
        44.500          44.500
 133076610.794 6 103696053.97343  25323636.501    25323636.206    25323636.009
        37.250          19.000
 142312079.008 6                  27081061.918
        38.750
 110526630.895 8                  20734463.606
        50.000
 196140842.110 7                  37324356.406
        47.250
 129943846.732 6                  24325759.516
        40.250
                                  27207675.950
        19.750
 205002909.283 7                  39010553.287
        43.000
 148645869.637 5                  28286363.803
        31.750
 129025679.669 5                  24136925.295
        34.750
 195348362.062 7                  37173615.818
        46.750
 115999459.664 6                  21692466.635
        37.250
 136891645.632 7                  26049587.816
        43.250
 140118425.331 6                  26663613.534
        40.250
 104162683.241 8                  19465287.097
        53.250
 112995166.820 7  88048265.39446  21502236.851    21502236.413    21502238.152
        47.750          40.000
 21 10 12  0 53  0.0000000  0 29G31G16S48G32G25G18E05E09G27R22E31R02
                                E12G29G04E26R10S36R12E11S23E04R01S25
                                R20E24E01R21G26
 107830705.849 8  84023948.17849  20519488.947    20519488.630    20519486.666
        51.250          56.500
 123915691.202 6  96557703.35844  23580370.137    23580369.342    23580368.068
        41.250          26.750
  31882567.846 7                   6067211.253
        44.250
 126358961.021 6  98461539.60044  24045306.589    24045306.460    24045312.155
        40.250          25.750
 127104879.721 6  99042887.46645  24187216.643    24187215.830    24187217.358
        38.750          34.750
 113615266.690 7  88531429.51046  21620246.466    21620246.279    21620245.763
        47.500          38.500
 144156029.632 6                  27431981.210
        37.500
 130638903.076 7                  24859750.210
        42.000
 126026407.847 6  98202437.52144  23982019.760    23982019.282    23982022.312
        41.250          28.500
 116444891.310 6                  21814040.410
        38.750
 127661606.464 8                  24293150.073
        48.000
 129774298.929 7                  24319658.267
        42.250
 122791779.843 7                  23366490.013
        43.250
 120490060.793 7  93888422.99147  22928484.434    22928483.952    22928483.026
        45.000          44.250
 133021870.019 6 103653398.83543  25313220.281    25313219.991    25313220.205
        37.000          20.500
 142378925.256 6                  27093782.233
        39.000
 110551487.284 8                  20739126.645
        49.250
 196140792.496 7                  37324346.940
        47.250
 129850873.624 6                  24308354.011
        40.500
                                  27190242.565
        23.000
 205002725.190 7                  39010516.995
        43.500
 148719125.92416                  28300308.499
        37.750
 129103803.739 6                  24151540.089
        36.500
 195344606.159 7                  37172911.332
        46.750
 116102503.435 6                  21711735.452
        37.750
 136847839.503 7                  26041251.922
        43.500
 140155991.085 6                  26670762.277
        41.250
 104137187.039 8                  19460522.564
        53.250
 112959748.423 7  88020666.65546  21495497.038    21495496.600    21495498.397
        47.500          40.000
 21 10 12  0 53 30.0000000  0 29G31G16S48G32G25G18E05E09G27R22E31R02
                                E12G29G04E26R10S36R12E11S23E04R01S25
                                R20E24E01R21G26
 107830724.294 8  84023962.54849  20519492.354    20519492.033    20519490.163
        51.000          56.750
 123853930.311 6  96509578.01744  23568617.750    23568616.932    23568616.009
        39.500          26.000
  31882508.901 7                   6067227.981
        44.000
 126452508.985 7  98534433.92644  24063108.253    24063108.128    24063113.569
        42.500          28.250
 127170660.495 6  99094145.18245  24199734.352    24199733.548    24199735.401
        37.750          35.500
 113572181.689 7  88497856.81346  21612047.644    21612047.452    21612046.909
        47.500          39.000
 144163618.142 6                  27433424.850
        37.500
 130699149.375 6                  24871214.899
        41.500
 125934230.662 6  98130611.33444  23964478.741    23964478.250    23964481.894
        41.250          28.750
 116325531.345 6                  21791678.934
        38.000
 127655188.456 8                  24291928.702
        48.000
 129783360.069 6                  24321356.403
        38.250
 122719600.251 7                  23352754.568
        43.750
 120578714.433 7  93957503.74947  22945354.913    22945354.431    22945353.229
        44.500          44.500
 132967565.795 6 103611083.85943  25302885.945    25302885.632    25302884.863
        37.000          19.000
 142446032.562 6                  27106552.480
        39.250
 110576725.025 8                  20743861.277
        50.000
 196140752.338 7                  37324339.195
        47.000
 129757734.792 7                  24290919.787
        42.000
 142793991.84814                  27172793.037
        28.250
 205002542.357 7                  39010484.155
        43.250
 148792248.542 5                  28314222.548
        30.000
 129182089.739 6                  24166188.676
        40.750
 195340842.327 7                  37172205.925
        46.000
 116205992.116 6                  21731087.432
        36.500
 136804004.051 7                  26032910.023
        44.000
 140193641.200 6                  26677926.744
        41.000
 104112493.584 8                  19455908.309
        53.500
 112924437.614 7  87993151.74646  21488777.285    21488776.852    21488778.912
        47.000          40.000
 21 10 12  0 54  0.0000000  0 29G31G16S48G32G25G18E05E09G27R22E31R02
                                E12G29G04E26R10S36R12E11S23E04R01S25
                                R20E24E01R21G26
 107831228.226 8  84024355.21749  20519588.316    20519587.995    20519586.146
        51.250          56.500
 123792227.581 6  96461497.98444  23556875.610    23556874.774    23556874.494
        40.250          25.750
  31882448.712 7                   6067239.478
        44.000
 126546021.857 7  98607300.80144  24080903.642    24080903.513    24080908.382
        42.000          28.750
 127236496.339 6  99145445.81945  24212262.276    24212261.463    24212264.051
        37.750          34.500
 113529585.448 7  88464664.95546  21603941.652    21603941.465    21603940.944
        47.500          38.750
 144171567.563 6                  27434937.950
        37.250
 130759545.990 6                  24882708.013
        41.750
 125842297.398 6  98058975.18144  23946984.456    23946983.960    23946987.319
        41.000          28.500
 116206547.133 6                  21769390.304
        38.750
 127648826.430 8                  24290718.113
        48.000
 129793025.455 6                  24323166.354
        38.750
 122647677.474 7                  23339067.936
        43.250
 120667495.434 7  94026683.75847  22962249.251    22962248.764    22962247.515
        43.750          44.250
 132913698.681 6 103569109.48743  25292635.959    25292635.682    25292634.809
        36.750          19.500
 142513398.330 6                  27119371.742
        38.000
 110602344.543 8                  20748667.093
        49.750
 196140714.139 7                  37324330.122
        47.000
 129664430.341 6                  24273452.097
        41.000
 142702226.40116                  27155329.829
        37.500
 205002359.852 7                  39010447.439
        43.000
 148865209.505 6                  28328106.643
        38.750
 129260532.479 6                  24180863.295
        36.000
 195337066.684 7                  37171499.404
        45.750
 116309920.869 6                  21750524.319
        37.500
 136760138.630 7                  26024562.925
        44.000
 140231375.540 6                  26685107.506
        41.000
 104088602.569 8                  19451443.377
        53.250
 112889233.918 7  87965720.29746  21482078.271    21482077.833    21482079.943
        47.500          40.000
 21 10 12  0 54 30.0000000  0 29G31G16S48G32G25G18E05E09G27R22E31R02
                                E12G29G04E26R10S36R12E11S23E04R01S25
                                R20E24E01R21G26
 107832217.726 8  84025126.25349  20519776.538    20519776.217    20519774.375
        51.000          57.000
 123730581.394 6  96413462.02044  23545144.682    23545143.833    23545142.888
        39.000          24.500
  31882387.534 7                   6067253.617
        44.000
 126639495.966 7  98680137.27144  24098691.569    24098691.444    24098696.671
        42.250          27.250
 127302386.720 6  99196788.95246  24224800.768    24224799.959    24224802.928
        38.750          36.500
 113487479.220 7  88431854.93346  21595929.261    21595929.083    21595928.356
        47.500          39.250
 144179876.342 6                  27436519.018
        37.250
 130820090.085 6                  24894229.211
        41.500
 125750608.581 6  97987529.51944  23929536.851    23929536.351    23929539.495
        40.750          28.750
 116087941.468 5                  21747171.438
        35.750
 127642520.357 7                  24289518.155
        47.750
 129803292.236 6                  24325090.684
        39.500
 122576012.489 7                  23325430.521
        43.250
 120756400.759 7  94095960.63447  22979167.310    22979166.823    22979165.608
        43.500          44.500
 132860269.269 5 103527476.19743  25282467.458    25282467.190    25282468.414
        35.750          18.500
 142581020.131 6                  27132239.924
        37.750
 110628346.412 8                  20753545.092
        50.000
 196140666.811 7                  37324321.774
        47.000
 129570960.358 6                  24255955.537
        41.750
 142610380.872 5                  27137852.412
        35.000
 205002176.739 7                  39010413.607
        42.750
 148938008.185 5                  28341959.339
        34.250
 129339127.173 5                  24195564.095
        35.750
 195333286.162 7                  37170790.562
        46.000
 116414284.150 6                  21770040.684
        36.500
 136716242.633 7                  26016209.758
        43.500
 140269193.918 6                  26692304.337
        41.000
 104065513.407 8                  19447128.691
        53.250
 112854136.900 7  87938371.97546  21475399.677    21475399.239    21475401.199
        47.500          40.500
 21 10 12  0 55  0.0000000  0 29G31G16S48G32G25G18E05E09G27R22E31R02
                                E12G29G04E26R10S36R12E11S23E04R01S25
                                R20E24E01R21G26
 107833696.318 8  84026278.39749  20520058.117    20520057.796    20520055.685
        51.000          56.500
 123668994.765 6  96365472.45943  23533425.164    23533424.293    23533423.087
        38.750          23.000
  31882326.729 7                   6067267.103
        44.000
 126732930.798 6  98752942.64444  24116472.036    24116471.880    24116476.830
        39.750          25.250
 127368335.066 6  99248177.20445  24237349.912    24237349.108    24237352.018
        38.250          34.000
 113445868.132 7  88399430.72746  21588010.749    21588010.575    21588010.186
        47.500          39.000
 144188546.794 6                  27438168.859
        37.750
 130880782.613 6                  24905778.932
        41.250
 125659168.499 6  97916277.67544  23912136.184    23912135.684    23912138.860
        41.000          28.250
 115969721.951 6                  21725025.430
        37.000
 127636273.984 7                  24288329.482
        47.750
 129814162.477 6                  24327128.956
        39.250
 122504610.163 7                  23311843.064
        43.750
 120845430.861 7  94165334.73047  22996109.406    22996108.924    22996107.768
        44.000          44.500
 132807281.932 5 103486187.34443  25272384.155    25272383.892    25272384.315
        35.000          18.250
 142648899.263 6                  27145156.500
        37.500
 110654735.159 8                  20758495.577
        49.750
 196140622.355 7                  37324313.769
        47.000
 129477328.976 6                  24238425.556
        41.250
                                  27120358.997
        31.250
 205001994.746 7                  39010378.826
        43.250
 149010642.259 6                  28355782.001
        40.500
 129417872.393 6                  24210295.932
        37.000
 195329496.875 7                  37170081.009
        46.500
 116519081.019 6                  21789637.722
        37.000
 136672319.317 7                  26007851.701
        43.500
 140307100.030 6                  26699517.580
        41.000
 104043229.635 8                  19442964.366
        53.000
 112819150.005 7  87911109.46646  21468741.730    21468741.292    21468743.155
        47.750          40.250
 21 10 12  0 55 30.0000000  0 29G31G16S48G32G25G18E05E09G27R22E31R02
                                E12G29G04E26R10S36R12E11S23E04R01S25
                                R20E24E01R21G26
 107835659.167 8  84027807.88149  20520431.508    20520431.187    20520429.137
        50.750          56.500
 123607461.720 6  96317524.65143  23521715.779    23521714.899    23521714.001
        38.750          23.000
  31882259.393 7                   6067282.222
        44.000
 126826318.665 6  98825711.26144  24134244.311    24134244.195    24134249.754
        41.250          26.750
 127434335.865 6  99299606.40545  24249910.288    24249909.475    24249911.138
        37.500          33.500
 113404748.534 7  88367389.50746  21580186.192    21580186.027    21580185.539
        47.500          39.250
 144197572.355 6                  27439886.802
        37.250
 130941615.809 6                  24917355.243
        41.750
 125567972.423 6  97845215.94544  23894782.080    23894781.584    23894784.734
        40.750          28.250
 115851886.648 6                  21702950.489
        37.000
 127630082.301 8                  24287151.306
        48.000
 129825628.368 6                  24329277.018
        41.500
 122433466.468 7                  23298304.602
        43.250
 120934578.391 7  94234800.33947  23013073.638    23013073.156    23013071.910
        43.750          44.250
 132754732.241 5 103445239.55242  25262384.239    25262384.016    25262384.573
        35.000          17.250
 142717028.350 6                  27158121.362
        37.250
 110681506.035 8                  20763517.491
        49.500
 196140572.853 7                  37324305.895
        47.000
 129383531.056 6                  24220867.162
        41.500
                                  27102854.835
        19.250
 205001808.693 7                  39010345.562
        43.250
 149083109.936 3                  28369572.613
        23.500
 129496758.521 6                  24225054.309
        39.750
 195325695.760 7                  37169369.217
        46.750
 116624300.906 6                  21809313.671
        37.000
 136628363.104 7                  25999486.917
        43.750
 140345088.764 6                  26706746.387
        40.750
 104021745.903 8                  19438949.623
        53.000
 112784267.871 7  87883928.59146  21462103.907    21462103.469    21462105.237
        47.000          40.000
 21 10 12  0 56  0.0000000  0 29G31G16S48G32G25G18E05E09G27R22E31R02
                                E12G29G04E26R10S36R12E11S23E04R01S25
                                R20E24E01R21G26
 107838113.169 8  84029720.09049  20520898.524    20520898.207    20520896.158
        51.250          56.750
 123545988.494 6  96269623.43843  23510018.311    23510017.457    23510016.200
        40.250          23.750
  31883795.109 7                   6067294.890
        43.750
 126919664.242 6  98898447.53244  24152007.216    24152007.078    24152013.467
        39.750          26.500
 127500395.578 6  99351081.46145  24262480.795    24262479.977    24262482.206
        38.000          33.500
 113364128.454 8  88335737.52146  21572456.343    21572456.178    21572455.723
        48.000          39.500
 144206958.352 6                  27441672.245
        37.750
 131002593.674 6                  24928958.725
        41.500
 125477027.854 6  97774350.23544  23877475.505    23877475.023    23877478.406
        41.250          28.250
 115734445.186 6                  21680949.276
        37.000
 127623952.079 8                  24285984.738
        48.250
 129837694.080 7                  24331538.385
        42.250
 122362589.217 7                  23284817.445
        43.250
 121023846.916 7  94304360.23447  23030060.488    23030060.010    23030058.924
        44.000          44.000
 132702627.636 5 103404638.54142  25252470.131    25252469.939    25252469.331
        33.750          16.750
 142785411.675 6                  27171134.272
        38.000
 110708666.761 8                  20768613.390
        50.000
 196140525.849 7                  37324297.318
        47.000
 129289573.977 6                  24203277.846
        40.500
 142334416.14715                  27085339.445
        31.750
 205001625.241 7                  39010308.036
        43.750
                                  28383330.239
        22.000
 129575787.583 6                  24239840.156
        37.750
 195321887.632 7                  37168655.000
        47.000
 116729945.862 6                  21829070.358
        36.750
 136584380.282 7                  25991117.195
        44.000
 140383166.849 6                  26713992.591
        41.250
 104001068.680 8                  19435085.452
        52.750
 112749496.952 7  87856834.37746  21455487.419    21455486.977    21455488.630
        47.500          40.250
 21 10 12  0 56 30.0000000  0 29G31G16S48G32G25G18E05E09G27R22E31R02
                                E12G29G04E26R10S36R12E11S23E04R01S25
                                R20E24E01R21G26
 107841057.569 8  84032014.42749  20521458.792    20521458.471    20521456.506
        51.250          56.500
 123484573.433 6  96221767.56144  23498331.333    23498330.470    23498328.367
        40.750          24.750
  31883731.088 7                   6067308.430
        43.750
 127012963.387 6  98971148.17244  24169762.334    24169762.178    24169767.785
        40.500          26.250
 127566513.221 6  99402601.66845  24275062.755    24275061.960    24275063.993
        38.500          34.500
 113324008.608 7  88304475.32346  21564821.783    21564821.614    21564821.196
        47.750          39.500
 144216702.650 6                  27443526.839
        38.000
 131063712.806 6                  24940589.584
        41.500
 125386334.542 6  97703680.31444  23860216.819    23860216.332    23860219.732
        41.000          28.000
 115617400.124 6                  21659022.340
        38.000
 127617882.723 7                  24284829.797
        47.750
 129850357.159 6                  24333911.695
        40.500
 122291978.904 7                  23271380.488
        43.250
 121113232.670 7  94374011.46047  23047069.974    23047069.501    23047068.462
        44.250          43.750
 132650968.073 5 103364384.35942  25242639.139    25242638.916    25242639.136
        34.500          17.750
 142854046.223 6                  27184194.981
        37.750
 110736217.256 8                  20773781.068
        49.500
 196140487.288 7                  37324288.746
        47.250
 129195456.943 6                  24185659.229
        40.750
 142242304.470 5                  27067810.978
        31.000
 205001443.068 7                  39010274.253
        43.750
 149227544.52415                  28397057.373
        35.250
 129654953.929 5                  24254646.106
        34.250
 195318078.282 7                  37167941.347
        46.750
 116836010.457 6                  21848904.808
        37.000
 136540369.747 7                  25982741.986
        43.750
 140421333.624 6                  26721255.243
        41.000
 103981196.736 8                  19431372.101
        53.000
 112714836.346 7  87829826.11546  21448891.655    21448891.213    21448893.130
        47.500          40.250
 21 10 12  0 57  0.0000000  0 29G31G16S48G32G25G18E05E09G27R22E31R02
                                E12G29G04E26R10S36R12E11S23E04R01S25
                                R20E24E01R21G26
 107844488.132 8  84034687.58749  20522111.535    20522111.214    20522109.336
        51.000          56.750
 123423211.271 6  96173952.89044  23486654.935    23486654.077    23486652.303
        41.750          26.250
  31883661.378 7                   6067321.308
        44.000
 127106208.340 7  99043807.04444  24187505.367    24187505.207    24187511.644
        42.000          28.250
 127632684.300 6  99454163.53945  24287654.910    24287654.101    24287656.314
        38.250          35.000
 113284386.124 7  88273600.68746  21557281.798    21557281.633    21557281.026
        47.250          39.250
 144226799.653 6                  27445448.381
        38.000
 131124966.398 6                  24952245.651
        41.500
 125295888.926 6  97633203.45544  23843005.347    23843004.851    23843008.000
        40.750          28.000
 115500749.535 6                  21637168.842
        38.250
 127611870.267 7                  24283685.601
        47.250
 129863611.436 6                  24336396.072
        41.500
 122221632.467 7                  23257994.033
        43.250
 121202728.627 7  94443748.57147  23064100.366    23064099.893    23064098.963
        43.500          43.500
 132599750.097 5 103324474.26843  25232892.415    25232892.156    25232893.252
        34.750          18.250
 142922925.494 6                  27197302.046
        38.000
 110764154.281 8                  20779022.286
        49.500
 196140440.990 7                  37324280.085
        47.250
 129101176.243 7                  24168009.737
        42.750
 142150125.101 5                  27050270.021
        33.250
 205001257.232 7                  39010238.771
        43.750
 149299510.358 6                  28410750.867
        38.250
 129734248.096 6                  24269481.413
        38.000
 195314251.788 7                  37167223.647
        46.750
 116942484.778 6                  21868815.875
        37.500
 136496326.938 7                  25974361.023
        43.500
 140459584.841 6                  26728534.122
        39.750
 103962125.791 8                  19427808.310
        53.000
 112680281.660 7  87802900.38946  21442315.996    21442315.549    21442317.645
        47.500          40.750
 21 10 12  0 57 30.0000000  0 29G31G16S48G32G25G18E05E09G27R22E31R02
                                E12G29G04E26R10S36R12E11S23E04R01S25
                                R20E24E01R21G26
 107848409.525 8  84037743.21249  20522857.878    20522857.557    20522855.533
        51.250          57.000
 123361905.856 7  96126182.44344  23474988.748    23474987.885    23474985.862
        42.750          27.500
  31883590.659 7                   6067334.862
        44.000
 127199399.149 6  99116423.92944  24205238.081    24205237.921    24205244.060
        40.500          27.000
 127698912.832 6  99505770.16145  24300257.619    24300256.810    24300260.088
        36.750          35.000
 113245266.815 7  88243118.12746  21549837.691    21549837.531    21549836.718
        47.250          39.500
 144237252.216 6                  27447437.477
        38.250
 131186356.004 6                  24963927.869
        41.500
 125205695.741 6  97562923.30344  23825841.831    23825841.322    23825844.406
        40.250          28.000
 115384501.352 6                  21615393.540
        38.250
 127605919.022 7                  24282553.087
        47.250
 129877458.147 6                  24338990.830
        41.000
 122151555.316 7                  23244658.623
        43.750
 121292336.250 7  94513572.68347  23081152.369    23081151.900    23081150.910
        43.750          43.750
 132548978.632 5 103284912.08443  25223231.667    25223231.413    25223230.429
        35.500          19.000
 142992051.474 6                  27210456.178
        36.250
 110792482.610 8                  20784337.015
        50.000
 196140397.704 7                  37324270.484
        47.000
 129006736.452 6                  24150330.282
        41.250
 142057887.13014                  27032717.724
        27.250
 205001071.549 7                  39010205.010
        43.000
 149371304.413 6                  28424412.383
        38.500
 129813669.624 6                  24284342.495
        37.750
 195310423.043 7                  37166505.715
        46.500
 117049369.166 6                  21888804.826
        37.000
 136452255.725 7                  25965974.525
        43.250
 140497924.871 6                  26735829.864
        41.250
 103943859.447 8                  19424394.896
        53.000
 112645836.986 7  87776060.38546  21435761.241    21435760.799    21435762.890
        47.250          40.500
 21 10 12  0 58  0.0000000  0 29G31G16S48G32G25G18E05E09G27R22E31R02
                                E12G29G04E26R10S36R12E11S23E04R01S25
                                R20E24E01R21G26
 107852825.767 8  84041184.43549  20523698.247    20523697.926    20523695.970
        51.000          57.000
 123300660.682 7  96078458.94044  23463334.205    23463333.356    23463330.699
        42.250          28.250
  31883522.308 7                   6067348.420
        44.000
 127292535.679 6  99188997.87044  24222961.940    24222961.788    24222966.992
        41.750          26.500
 127765202.987 6  99557424.79545  24312871.881    24312871.068    24312874.392
        36.250          34.500
 113206656.392 7  88213032.09646  21542490.354    21542490.207    21542489.426
        47.500          39.500
 144248063.355 6                  27449494.467
        38.000
 131247883.493 6                  24975636.277
        41.500
 125115759.918 6  97492843.63344  23808727.779    23808727.274    23808730.013
        40.000          28.750
 115268662.946 6                  21593691.526
        38.500
 127600033.632 7                  24281433.180
        47.750
 129891899.984 6                  24341696.627
        38.750
 122081753.041 7                  23231375.710
        43.750
 121382056.964 7  94583484.93147  23098225.290    23098224.817    23098224.155
        44.250          44.250
 132498658.756 5 103245701.80543  25213655.344    25213655.125    25213656.551
        35.000          20.500
 143061426.280 6                  27223657.871
        36.000
 110821207.048 8                  20789725.703
        50.500
 196140357.526 7                  37324263.406
        47.000
 128912142.553 6                  24132621.772
        41.750
 141965590.393 5                  27015154.526
        32.750
 205000889.414 7                  39010169.756
        43.250
 149442926.898 6                  28438041.695
        36.750
 129893219.249 6                  24299222.984
        38.250
 195306594.356 7                  37165787.948
        46.250
 117156662.949 6                  21908867.688
        37.000
 136408160.207 7                  25957583.397
        43.500
 140536358.175 6                  26743144.116
        40.750
 103926401.949 8                  19421132.194
        53.000
 112611506.598 7  87749309.43946  21429228.644    21429228.197    21429230.306
        47.250          41.000
 21 10 12  0 58 30.0000000  0 29G31G16S48G32G25G18E05E09G27R22E31R02
                                E12G29G04E26R10S36R12E11S23E04R01S25
                                R20E24E01R21G26
 107857730.404 8  84045006.22349  20524631.555    20524631.234    20524629.355
        51.250          57.000
 123239468.272 7  96030776.55044  23451689.719    23451688.879    23451686.759
        42.750          28.750
  31883449.788 7                   6067362.054
        44.250
 127385609.422 7  99261523.00044  24240673.475    24240673.315    24240677.949
        44.750          26.750
 127831547.692 6  99609121.91345  24325496.855    24325496.046    24325499.084
        36.000          34.750
 113168549.383 7  88183338.34046  21535238.741    21535238.594    21535238.042
        47.250          39.250
 144259224.871 6                  27451618.388
        38.250
 131309539.388 7                  24987369.162
        42.000
 125026075.325 6  97422959.73744  23791661.290    23791660.758    23791663.498
        40.250          29.000
 115153230.987 6                  21572067.002
        38.250
 127594207.504 8                  24280324.573
        48.000
 129906927.663 6                  24344512.824
        40.000
 122012220.023 7                  23218143.909
        44.000
 121471881.448 7  94653478.03847  23115318.772    23115318.307    23115316.946
        43.000          43.250
 132448784.391 5 103206838.65743  25204164.736    25204164.535    25204164.866
        35.750          19.500
 143131040.813 6                  27236905.054
        36.250
 110850321.647 8                  20795186.936
        50.000
 196140306.905 7                  37324253.505
        47.250
 128817388.074 6                  24114883.245
        40.500
 141873231.774 5                  26997579.203
        32.000
 205000703.647 7                  39010132.409
        43.750
 149514372.427 6                  28451637.208
        36.000
 129972884.702 5                  24314123.400
        32.750
 195302752.498 7                  37165067.118
        46.000
 117264354.182 6                  21929006.602
        37.250
 136364033.268 7                  25949186.253
        43.750
 140574878.070 6                  26750473.795
        41.500
 103909745.764 8                  19418019.688
        52.750
 112577283.614 7  87722642.19146  21422715.918    21422715.471    21422718.175
        47.500          41.000
 21 10 12  0 59  0.0000000  0 29G31G16S48G32G25G18E05E09G27R22E31R02
                                E12G29G04E26R10S36R12E11S23E04R01S25
                                R20E24E01R21G26
 107863128.276 8  84049212.35349  20525658.677    20525658.356    20525656.518
        51.250          57.250
 123178332.970 6  95983138.67044  23440055.826    23440054.986    23440053.373
        41.500          28.750
  31883376.318 7                   6067374.436
        44.250
                                  24258372.008    24258371.789    24258377.749
        37.500          25.000
 127897951.575 6  99660865.15845  24338133.856    24338133.029    24338134.928
        36.750          35.250
 113130951.964 7  88154041.66846  21528084.255    21528084.108    21528083.397
        47.250          39.750
 144270740.121 6                  27453809.988
        38.000
 131371325.790 6                  24999126.822
        41.750
 124936647.388 6  97353275.89444  23774643.292    23774642.774    23774646.090
        40.750          29.750
 115038213.326 6                  21550521.071
        38.000
 127588445.562 7                  24279228.095
        47.500
 129922543.642 6                  24347437.969
        38.750
 121942962.174 7                  23204964.574
        43.750
 121561811.866 7  94723553.68447  23132432.051    23132431.595    23132430.065
        44.250          44.000
 132399360.899 6 103168326.84743  25194760.926    25194760.734    25194759.626
        36.500          21.250
 143200897.536 5                  27250198.130
        35.250
 110879831.669 8                  20800723.305
        49.750
 196140255.196 7                  37324245.000
        47.000
 128722478.303 6                  24097117.019
        40.750
 141780816.699 4                  26979992.851
        29.750
 205000518.512 7                  39010098.268
        43.750
 149585643.308 6                  28465199.392
        36.500
 130052666.186 5                  24329050.341
        34.500
 195298899.715 7                  37164346.417
        45.750
 117372442.868 6                  21949220.855
        37.000
 136319879.360 7                  25940784.077
        43.750
 140613489.362 6                  26757821.469
        40.500
 103893895.183 8                  19415057.686
        52.750
 112543172.605 7  87696062.18846  21416225.035    21416224.593    21416226.550
        47.500          41.000
 21 10 12  0 59 30.0000000  0 29G31G16S48G32G25G18E05E09G27R22E31R02
                                E12G29G04E26R10S36R12E11S23E04R01S25
                                R20E24E01R21G26
 107869022.623 8  84053805.34549  20526780.371    20526780.050    20526778.104
        51.250          57.000
 123117257.058 6  95935547.07944  23428432.929    23428432.084    23428431.545
        41.750          28.250
  31883304.539 7                   6067388.123
        44.500
 127571575.733 6  99406435.82444  24276058.847    24276058.687    24276064.138
        39.750          26.500
 127964417.472 5  99712656.74745  24350780.937    24350780.124    24350783.185
        35.500          34.250
 113093868.624 7  88125145.57546  21521027.562    21521027.410    21521026.698
        47.500          39.500
 144282610.823 6                  27456068.565
        37.000
 131433243.292 6                  25010909.336
        41.750
 124847479.638 6  97283794.76645  23757675.360    23757674.851    23757677.816
        40.750          30.250
 114923616.008 6                  21529053.495
        37.750
 127582751.185 7                  24278144.615
        47.250
 129938748.674 6                  24350475.670
        40.750
 121873983.850 7                  23191838.421
        43.750
 121651848.092 7  94793711.79447  23149565.142    23149564.691    23149563.471
        44.000          44.000
 132350392.101 5 103130169.34143  25185441.829    25185441.669    25185440.966
        35.750          20.250
 143270997.257 6                  27263537.987
        36.000
 110909741.520 8                  20806333.989
        50.000
 196140217.911 7                  37324236.732
        47.250
 128627417.038 6                  24079322.155
        41.500
 141688357.82415                  26962399.239
        33.500
 205000337.889 7                  39010063.742
        43.500
 149656740.271 6                  28478728.278
        38.250
 130132562.281 6                  24343998.091
        40.000
 195295048.855 7                  37163624.027
        46.250
 117480927.097 6                  21969506.320
        36.000
 136275701.301 7                  25932377.219
        43.500
 140652195.297 6                  26765186.900
        41.500
 103878852.980 8                  19412246.521
        52.750
 112509176.648 7  87669571.83746  21409755.799    21409755.357    21409756.841
        47.750          40.500
 21 10 12  1  0  0.0000000  0 29G31G16S48G32G25G18E05E09G27R22E31R02
                                E12G29G04E26R10S36R12E11S23E04R01S25
                                R20E24E01R21G26
 107875406.618 8  84058779.88049  20527995.249    20527994.928    20527992.793
        51.250          56.750
 123056232.985 6  95887995.87644  23416820.236    23416819.391    23416818.571
        39.500          26.750
  31883227.150 7                   6067400.411
        44.250
 127664456.249 6  99478811.76744  24293732.596    24293732.467    24293736.943
        41.750          28.250
 128030938.427 5  99764491.22645  24363440.026    24363439.217    24363441.731
        35.500          32.750
 113057293.803 7  88096645.73046  21514067.514    21514067.358    21514066.761
        47.750          39.500
 144294828.773 6                  27458393.623
        37.500
 131495282.484 6                  25022715.064
        41.750
 124758565.808 6  97214511.41745  23740755.588    23740755.070    23740757.746
        40.500          30.250
 114809436.302 6                  21507663.204
        37.750
 127577117.834 8                  24277072.573
        48.000
 129955533.946 7                  24353622.401
        42.250
 121805279.386 7                  23178764.294
        44.250
 121741980.427 7  94863944.78547  23166716.734    23166716.292    23166715.359
        44.250          44.000
 132301871.899 6 103092361.40843  25176208.848    25176208.670    25176208.957
        37.000          21.250
 143341331.021 6                  27276922.061
        37.500
 110940044.729 8                  20812019.083
        50.000
 196140176.822 7                  37324228.920
        47.250
 128532197.847 6                  24061494.479
        41.750
 141595840.70715                  26944793.103
        33.500
 205000152.755 7                  39010028.032
        43.250
 149727653.789 6                  28492222.232
        37.250
 130212561.292 5                  24358963.831
        35.250
 195291180.032 7                  37162898.524
        46.250
 117589795.429 6                  21989866.667
        36.750
 136231492.082 7                  25923964.555
        44.000
 140690989.161 6                  26772569.295
        41.500
 103864611.616 8                  19409585.210
        52.750
 112475288.892 8  87643165.79246  21403307.133    21403306.691    21403308.207
        48.000          40.750
 21 10 12  1  0 30.0000000  0 29G31G16S48G32G25G18E05E09G27R22E31R02
                                E12G29G04E26R10S36R12E11S23E04R01S25
                                R20E24E01R21G26
 107882282.086 8  84064137.38549  20529303.634    20529303.308    20529301.136
        51.250          56.750
 122995261.883 6  95840485.97044  23405218.021    23405217.145    23405216.329
        39.500          25.250
  31883146.379 7                   6067412.816
        44.250
 127757262.204 6  99551129.24844  24311391.228    24311391.144    24311396.261
        37.000          25.250
 128097516.065 5  99816369.87545  24376109.251    24376108.456    24376111.005
        35.750          33.000
 113021230.769 7  88068544.68646  21507204.785    21507204.620    21507204.385
        47.000          39.500
 144307394.420 6                  27460784.897
        37.500
 131557442.583 6                  25034544.129
        41.750
 124669908.363 6  97145427.82845  23723884.627    23723884.118    23723886.744
        41.250          31.000
 114695678.329 6                  21486352.664
        38.250
 127571547.607 8                  24276012.481
        48.000
 129972898.306 7                  24356875.415
        42.750
 121736851.814 7                  23165743.008
        44.250
 121832208.555 7  94934252.41847  23183886.601    23183886.150    23183885.401
        43.250          43.750
 132253802.712 6 103054904.91043  25167060.939    25167060.756    25167060.541
        37.500          21.500
 143411898.345 6                  27290350.692
        37.000
 110970743.577 8                  20817778.169
        50.000
 196140122.673 7                  37324220.026
        47.000
 128436822.848 6                  24043640.715
        40.500
 141503262.573 5                  26927177.374
        31.750
 204999963.613 7                  39009992.648
        43.500
 149798383.970 6                  28505682.153
        36.500
 130292660.114 5                  24373944.450
        32.000
 195287297.891 7                  37162171.067
        46.500
 117699044.790 5                  22010295.484
        35.500
 136187253.246 7                  25915546.285
        43.750
 140729872.911 6                  26779968.593
        40.750
 103851172.386 8                  19407073.670
        52.750
 112441511.119 8  87616845.46046  21396879.386    21396878.948    21396881.046
        48.000          41.000
 21 10 12  1  1  0.0000000  0 29G31G16S48G32G25G18E05E09G27R22E31R02
                                E12G29G04E26R10S36R12E11S23E04R01S25
                                R20E24E01R21G26
 107889662.344 8  84069888.23049  20530708.016    20530707.695    20530705.642
        51.250          56.750
 122934356.537 6  95793027.30344  23393627.899    23393626.996    23393626.353
        39.000          25.500
  31883076.039 7                   6067426.159
        44.250
 127850004.100 5  99623366.45353  24329039.224    24329039.014    24329042.907
        34.750          22.500
 128164163.442 6  99868302.88045  24388792.394    24388791.603    24388793.908
        36.250          33.250
 112985694.079 7  88040853.77346  21500442.595    21500442.435    21500442.026
        47.500          39.750
 144320319.559 6                  27463244.465
        37.750
 131619734.055 6                  25046397.850
        41.500
 124581521.250 6  97076554.88245  23707064.594    23707064.085    23707067.308
        41.250          31.000
 114582359.388 6                  21465124.590
        38.500
 127566054.036 8                  24274967.060
        48.250
 129990852.840 6                  24360240.734
        41.750
 121668715.564 7                  23152776.905
        44.500
 121922542.888 7  95004642.79047  23201076.853    23201076.406    23201075.338
        42.500          43.000
 132206198.447 6 103017810.69043  25158003.741    25158003.531    25158002.402
        36.000          21.250
 143482710.252 6                  27303825.759
        37.250
 111001852.103 8                  20823614.044
        49.750
 196140081.690 7                  37324212.000
        47.250
 128341306.364 7                  24025761.506
        42.750
 141410645.814 5                  26909554.057
        34.000
 204999785.060 7                  39009956.719
        43.750
 149868942.059 5                  28519108.819
        33.500
 130372867.429 4                  24388948.867
        29.750
 195283428.006 7                  37161444.401
        46.750
 117808683.904 6                  22030799.948
        36.750
 136142997.814 7                  25907124.793
        44.000
 140768859.845 6                  26787387.597
        41.250
 103838547.853 8                  19404714.605
        53.000
 112407856.525 7  87590621.10346  21390475.255    21390474.813    21390477.083
        47.500          41.000
 21 10 12  1  1 30.0000000  0 29G31G16S48G32G25G18E05E09G27R22E31R02
                                E12G29G04E26R10S36R12E11S23E04R01S25
                                R20E24E01R21G26
 107897529.507 8  84076018.47749  20532205.125    20532204.799    20532202.830
        51.000          56.500
 122873498.238 6  95745605.27044  23382047.285    23382046.391    23382045.021
        39.500          25.000
  31884595.486 7                   6067438.094
        44.500
 127942660.431 6  99695566.32744  24346671.143    24346671.076    24346675.691
        40.500          27.250
 128230862.462 6  99920276.11945  24401484.435    24401483.626    24401486.023
        37.000          33.750
 112950667.130 7  88013560.06346  21493777.178    21493777.018    21493776.550
        47.250          39.500
 144333584.913 6                  27465768.680
        38.500
 131682136.876 6                  25058272.876
        41.750
 124493386.982 6  97007878.93145  23690293.017    23690292.508    23690296.130
        41.750          31.000
 114469463.927 6                  21443974.886
        38.250
 127560619.467 8                  24273932.915
        48.250
 130009377.141 6                  24363711.259
        41.500
 121600853.902 7                  23139863.167
        44.000
 122012962.913 7  95075099.94547  23218283.385    23218282.943    23218281.569
        43.000          42.500
 132159041.865 6 102981065.29143  25149028.924    25149028.719    25149028.848
        36.750          21.750
 143553746.600 5                  27317343.213
        35.000
 111033353.051 8                  20829523.203
        49.500
 196140037.301 7                  37324202.650
        47.500
 128245630.757 6                  24007850.349
        40.750
 141317973.172 5                  26891919.911
        33.750
 204999597.919 7                  39009919.926
        43.500
 149939307.535 6                  28532499.426
        38.500
 130453160.766 6                  24403971.951
        38.500
 195279541.341 7                  37160713.711
        46.500
 117918689.655 6                  22051371.392
        37.250
 136098707.665 7                  25898696.685
        44.500
 140807932.282 6                  26794822.914
        41.250
 103826719.372 8                  19402504.351
        53.000
 112374307.167 7  87564478.75446  21384090.968    21384090.526    21384092.684
        47.750          40.750
 21 10 12  1  2  0.0000000  0 29G31G16S48G32G25G18E05E09G27R22E31R02
                                E12G29G04E26R10S36R12E11S23E04R01S25
                                R20E24E01R21G26
 107905892.162 8  84082534.82749  20533796.496    20533796.170    20533794.093
        51.250          56.250
 122812695.412 6  95698226.45844  23370476.433    23370475.548    23370474.604
        40.500          25.500
  31884514.331 7                   6067449.483
        44.250
 128035236.740 6  99767703.34744  24364288.173    24364288.093    24364292.395
        39.250          25.250
 128297621.913 6  99972296.40145  24414188.357    24414187.535    24414189.693
        37.000          32.500
 112916159.982 7  87986671.38346  21487210.655    21487210.495    21487209.892
        47.500          39.250
 144347197.875 6                  27468359.371
        37.000
 131744657.253 6                  25070170.177
        41.000
 124405515.155 6  96939407.50545  23673571.708    23673571.194    23673574.604
        41.750          30.500
 114357004.251 6                  21422907.800
        38.500
 127555253.030 7                  24272911.826
        47.750
 130028477.566 6                  24367289.899
        39.750
 121533276.868 7                  23127003.539
        43.500
 122103474.707 7  95145628.61747  23235506.902    23235506.451    23235505.070
        42.750          42.000
 132112342.304 6 102944676.03943  25140142.439    25140142.220    25140141.798
        36.250          21.250
 143625013.996 5                  27330904.998
        34.500
 111065255.797 8                  20835508.074
        49.500
 196139991.442 7                  37324193.452
        47.250
 128149805.439 7                  23989912.708
        42.750
 141225254.044 6                  26874275.519
        37.750
 204999410.560 7                  39009886.322
        43.750
 150009487.143 6                  28545855.383
        37.000
 130533544.850 6                  24419012.512
        37.250
 195275644.830 7                  37159983.460
        46.500
 118029065.976 6                  22072012.226
        36.500
 136054391.418 7                  25890263.641
        44.250
 140847099.126 6                  26802275.677
        39.500
 103815695.095 8                  19400444.082
        52.750
 112340871.892 7  87538425.30546  21377728.468    21377728.030    21377729.695
        47.750          40.500
 21 10 12  1  2 30.0000000  0 29G31G16S48G32G25G18E05E09G27R22E31R02
                                E12G29G04E26R10S36R12E11S23E04R01S25
                                R20E24E01R21G26
 107914755.956 8  84089441.67749  20535483.150    20535482.824    20535480.780
        51.250          56.250
 122751952.694 6  95650894.47644  23358917.988    23358917.099    23358915.455
        41.000          25.750
  31884436.658 7                   6067461.843
        44.000
 128127736.141 6  99839780.33644  24381890.979    24381890.890    24381895.022
        39.000          25.000
 128364446.909 6 100024367.77045  24426904.910    24426904.083    24426906.326
        36.250          32.000
 112882179.274 7  87960192.92646  21480744.385    21480744.216    21480743.407
        47.750          39.000
 144361162.377 6                  27471016.290
        38.000
 131807297.861 6                  25082090.236
        41.000
 124317911.549 6  96871145.04745  23656901.125    23656900.607    23656904.069
        41.500          30.500
 114244989.303 6                  21401923.691
        38.750
 127549960.361 8                  24271904.626
        48.000
 130048157.483 6                  24370978.204
        40.750
 121465990.999 7                  23114199.464
        44.000
 122194080.711 7  95216230.70147  23252748.574    23252748.127    23252746.569
        43.250          42.000
 132066105.849 6 102908647.64743  25131343.988    25131343.747    25131343.487
        36.250          21.000
 143696515.547 5                  27344511.232
        33.250
 111097566.811 8                  20841569.918
        49.500
 196139948.449 7                  37324186.127
        47.000
 128053836.607 6                  23971945.789
        41.000
 141132494.944 5                  26856625.386
        30.500
 204999227.398 7                  39009850.674
        43.250
 150079485.009 6                  28559176.484
        36.250
 130614020.273 5                  24434061.189
        33.250
 195271746.448 7                  37159251.366
        46.250
 118139813.774 6                  22092723.893
        36.500
 136010054.238 7                  25881826.560
        44.500
 140886365.950 6                  26809748.089
        41.250
 103805479.721 8                  19398535.077
        52.500
 112307556.081 7  87512464.93946  21371388.760    21371388.318    21371389.886
        47.750          40.500
 21 10 12  1  3  0.0000000  0 29G31G16S48G32G25G18E05E09G27R22E31R02
                                E12G29G04E26R10S36R12E11S23E04R01S25
                                R20E24E01R21G26
 107924112.080 8  84096732.15849  20537263.601    20537263.275    20537261.246
        51.000          56.500
 122691261.027 6  95603602.27044  23347369.277    23347368.379    23347366.291
        41.500          26.500
  31884353.200 7                   6067474.752
        43.750
 128220147.050 6  99911788.26644  24399476.608    24399476.546    24399480.898
        40.000          27.000
 128431328.763 5 100076483.48744  24439632.600    24439631.760    24439633.610
        33.750          29.250
 112848717.805 7  87934119.05446  21474376.550    21474376.367    21474375.772
        47.500          39.250
 144375468.519 6                  27473739.010
        37.000
 131870047.219 6                  25094031.335
        40.500
 124230568.253 6  96803085.40345  23640280.075    23640279.552    23640282.677
        41.000          30.000
 114133413.022 6                  21381020.187
        38.500
 127544733.247 7                  24270910.054
        47.750
 130068404.969 6                  24374772.824
        41.250
 121398988.961 7                  23101449.489
        43.250
 122284770.373 7  95286897.96647  23270006.463    23270006.025    23270004.429
        42.500          42.250
 132020324.495 6 102872973.86443  25122631.292    25122631.064    25122631.148
        36.500          20.750
 143768240.506 5                  27358160.586
        32.250
 111130277.803 8                  20847706.318
        49.750
 196139902.039 7                  37324177.193
        46.750
 127957716.334 7                  23953952.552
        43.000
 141039688.779 5                  26838965.324
        31.500
 204999040.395 7                  39009816.323
        43.000
 150149292.245 6                  28572460.948
        37.250
 130694573.486 6                  24449133.883
        38.500
 195267832.886 7                  37158517.760
        46.000
 118250919.750 5                  22113500.103
        35.750
 135965687.469 7                  25873383.688
        44.500
 140925724.261 6                  26817238.002
        40.250
 103796063.794 8                  19396775.354
        52.750
 112274351.217 7  87486591.01846  21365069.939    21365069.497    21365071.238
        47.250          40.500
 21 10 12  1  3 30.0000000  0 29G31G16S48G32G25G18E05E09G27R22E31R02
                                E12G29G04E26R10S36R12E11S23E04R01S25
                                R20E24E01R21G26
 107933968.984 8  84104412.85849  20539139.376    20539139.050    20539136.985
        51.500          56.500
 122630627.877 7  95556355.66744  23335830.282    23335829.397    23335828.392
        42.250          27.000
  31884271.473 7                   6067485.667
        44.250
 128312474.507 6  99983731.10344  24417045.580    24417045.518    24417051.062
        40.500          26.500
 128498275.634 5 100128649.82744  24452371.368    24452370.528    24452373.593
        34.500          28.250
 112815785.028 8  87908457.15646  21468109.821    21468109.634    21468108.851
        48.250          39.250
 144390123.020 6                  27476527.469
        38.000
 131932911.661 6                  25105994.033
        40.250
 124143494.078 7  96735235.45245  23623710.633    23623710.110    23623713.021
        42.000          30.250
 114022286.940 6                  21360203.355
        39.500
 127539580.294 7                  24269929.449
        47.750
 130089226.571 7                  24378676.860
        42.000
 121332280.178 7                  23088755.064
        44.000
 122375549.092 7  95357634.62647  23287281.034    23287280.610    23287279.533
        43.250          42.750
 131975007.107 6 102837661.62443  25114008.378    25114008.168    25114008.429
        37.250          20.500
 143840194.895 5                  27371853.392
        30.250
 111163397.996 8                  20853919.279
        49.250
 196139856.878 7                  37324169.971
        47.250
 127861453.460 6                  23935931.267
        41.750
 140946865.13015                  26821297.770
        34.250
 204998857.561 7                  39009781.069
        43.500
 150218913.522 4                  28585710.264
        29.000
 130775207.452 7                  24464219.164
        42.250
 195263916.663 7                  37157782.487
        46.250
 118362387.205 5                  22134344.289
        35.500
 135921299.135 7                  25864936.807
        44.250
 140965182.506 6                  26824746.485
        41.250
 103787454.935 8                  19395166.670
        52.500
 112241265.555 8  87460809.97846  21358774.005    21358773.563    21358775.287
        48.000          41.000
