     2.11           OBSERVATION DATA    M (MIXED)           RINEX VERSION / TYPE
teqc  2019Feb25                         20230504 17:05:52UTCPGM / RUN BY / DATE
Linux2.6.32-573.12.1.el6.x86_64|x86_64|gcc|Win64-MinGW64|=+ COMMENT
BIT 2 OF LLI FLAGS DATA COLLECTED UNDER A/S CONDITION       COMMENT
-Unknown-                                                   MARKER NAME
-Unknown-           -Unknown-                               OBSERVER / AGENCY
-Unknown-           -Unknown-           -Unknown-           REC # / TYPE / VERS
-Unknown-           -Unknown-                               ANT # / TYPE
        0.0000        0.0000        0.0000                  APPROX POSITION XYZ
        0.0000        0.0000        0.0000                  ANTENNA: DELTA H/E/N
     1     1                                                WAVELENGTH FACT L1/2
     7    L1    L2    C1    P1    P2    S1    S2            # / TYPES OF OBSERV
 SNR is mapped to RINEX snr flag value [0-9]                COMMENT
  L1 & L2: min(max(int(snr_dBHz/6), 0), 9)                  COMMENT
  2021    10    19     0     0    0.0000000     GPS         TIME OF FIRST OBS
    18                                                      LEAP SECONDS
                                                            END OF HEADER
 21 10 19  0  0  0.0000000  0 30E26G16E04G27G32E12E09E13G26S25G31S36
                                G25G29S23S48R01R21E19R16E21R07R19G18
                                E01R09R10E31R08R20
 126612037.070 7                  24093441.524
        46.750
 126031625.876 6  98206477.81443  23983019.720    23983018.951    23983019.305
        39.500          22.250
 136984911.652 7                  26067359.622
        42.750
 129637416.819 6 101016189.03644  24669182.412    24669181.648    24669187.701
        37.250          24.000
 120656642.506 7  94018173.44645  22960190.387    22960190.262    22960190.565
        45.250          32.750
 141409996.276 5                  26909426.860
        32.750
 131818133.117 6                  25084151.350
        40.500
                                  27538161.638
        19.500
 113639506.346 7  88550332.04246  21624857.879    21624857.464    21624858.945
        46.750          37.750
 183470781.31517                  34913090.998
        46.250
 107263625.359 8  83582049.30449  20411585.086    20411584.814    20411583.208
        50.500          55.500
 195043717.147 7                  37115584.881
        47.250
 122710528.880 6  95618675.89746  23351016.990    23351016.190    23351018.398
        39.750          37.750
 115391780.470 7  89915719.72548  21958306.214    21958305.772    21958304.774
        47.000          48.750
 203913107.453 7                  38803360.316
        43.250
  30744738.329 7                   5850400.573
        44.000
 128994584.922 5                  24131103.483
        35.250
 123979617.814 7                  23168540.038
        46.250
 146411588.99415                  27861198.530
        35.000
 121930167.897 6                  22825565.476
        40.250
 140500196.283 6                  26736260.575
        40.750
 127491005.051 7                  23816404.807
        42.750
 113252570.407 6                  21171343.886
        40.500
 115142521.270 7  89721450.20846  21910889.130    21910888.938    21910889.940
        46.750          36.250
 127364269.546 7                  24236591.313
        47.750
 107689435.227 8                  20166759.453
        51.500
 111956127.462 8                  21002681.443
        48.500
 134412621.290 7                  25577862.473
        44.000
 124171910.714 7                  23188230.077
        43.250
 103975103.768 6                  19443858.499
        41.750
 21 10 19  0  0 30.0000000  0 30E26G16E04G27G32E12E09E13G26S25G31S36
                                G25G29S23S48R01R21E19R16E21R07R19G18
                                E01R09R10E31R08R20
 126606702.922 7                  24092426.393
        47.250
 125966539.973 6  98155761.42243  23970634.581    23970633.799    23970632.383
        38.250          21.750
 137045490.569 7                  26078887.736
        43.250
 129535009.540 6 100936391.35343  24649694.068    24649693.353    24649699.467
        37.250          22.750
 120748202.380 7  94089518.51045  22977613.732    22977613.607    22977614.211
        45.000          32.500
 141319226.433 5                  26892153.350
        32.250
 131819115.233 6                  25084337.716
        41.500
                                  27550583.108
        20.750
 113599421.938 7  88519097.45346  21617229.849    21617229.434    21617231.086
        46.250          38.000
 183466473.098 7                  34912478.981
        45.750
 107241585.037 8  83564875.01949  20407391.061    20407390.789    20407388.987
        50.250          55.500
 195043725.848 7                  37115585.462
        46.500
 122773878.507 6  95668039.22846  23363072.046    23363071.246    23363073.875
        38.750          38.250
 115471689.674 7  89977986.64648  21973512.322    21973511.871    21973510.567
        46.750          48.750
 203913020.070 7                  38803342.626
        43.500
  30745455.001 7                   5850433.091
        44.000
 128988407.358 6                  24129947.711
        37.500
 123846813.188 7                  23143722.443
        46.250


 121994910.716 6                  22837685.258
        40.250
 140538495.518 6                  26743548.774
        41.250
 127587185.971 7                  23834371.591
        44.000
 113341174.976 6                  21187906.615
        40.750
 115078632.132 7  89671666.50846  21898731.502    21898731.315    21898732.354
        47.500          37.250
 127367308.306 8                  24237169.512
        48.250
 107690551.645 8                  20166968.800
        51.500
 111890730.022 8                  20990413.241
        48.500
 134373743.293 7                  25570464.134
        44.500
 124228553.663 7                  23198807.858
        42.250
 103924590.214 7                  19434413.005
        43.000
 21 10 19  0  1  0.0000000  0 30E26G16E04G27G32E12E09E13G26S25G31S36
                                G25G29S23S48R01R21E19R16E21R07R19G18
                                E01R09R10E31R08R20
 126601805.548 7                  24091494.624
        47.750
 125901529.928 6  98105104.28643  23958263.683    23958262.888    23958262.578
        39.250          22.500
 137106255.954 7                  26090451.053
        43.250
 129432782.536 6 100856734.19143  24630240.792    24630240.126    24630246.411
        37.000          23.250
 120839879.902 7  94160955.11945  22995060.001    22995059.881    22995060.067
        44.500          32.000
 141228368.827 5                  26874863.707
        33.000
 131820485.279 6                  25084598.994
        41.500
                                  27563060.862
        20.500
 113559441.037 7  88487943.51646  21609621.846    21609621.431    21609623.049
        46.500          38.000
 183463760.534 7                  34911867.464
        46.000
 107219979.705 8  83548039.68449  20403279.713    20403279.436    20403277.599
        50.000          54.500
 195043730.165 8                  37115587.716
        48.250
 122837275.396 6  95717439.36846  23375136.212    23375135.408    23375137.449
        39.750          36.750
 115551849.141 7  90040448.57148  21988766.212    21988765.756    21988764.608
        46.750          49.000
 203912938.734 7                  38803328.214
        43.000
  30744578.150 7                   5850467.553
        44.000
 128982867.275 6                  24128914.020
        37.250
 123714156.578 7                  23118932.192
        43.750
 146566157.35915                  27890611.766
        32.500
 122059922.114 6                  22849856.092
        38.750
 140576851.895 6                  26750847.863
        41.250
 127683318.408 7                  23852330.977
        46.250
 113430351.115 6                  21204576.865
        40.000
 115015116.359 7  89622173.68246  21886645.056    21886644.864    21886645.773
        46.500          36.000
 127370391.356 8                  24237756.186
        48.000
 107691981.945 8                  20167236.480
        51.500
 111825406.711 8                  20978158.600
        48.250
 134334844.939 7                  25563062.002
        44.250
 124285639.871 7                  23209468.472
        42.250
 103874860.655 7                  19425113.359
        42.750
 21 10 19  0  1 30.0000000  0 30E26G16E04G27G32E12E09E13G26S25G31S36
                                G25G29S23S48R01R21E19R16E21R07R19G18
                                E01R09R10E31R08R20
 126597337.038 7                  24090644.119
        46.750
 125836587.254 6  98054499.70543  23945905.186    23945904.395    23945903.908
        38.750          22.000
 137167197.725 7                  26102047.627
        42.500
 129330728.596 6 100777211.38244  24610820.953    24610820.336    24610826.252
        39.250          25.000
 120931664.113 7  94232474.79245  23012526.095    23012525.988    23012527.097
        44.500          31.500
 141137417.195 5                  26857556.003
        30.000
 131822234.576 6                  25084931.964
        41.000


 113519555.638 7  88456864.00346  21602031.855    21602031.440    21602033.342
        46.000          38.250
 183461042.522 7                  34911251.601
        46.250
 107198802.929 8  83531538.27949  20399249.915    20399249.638    20399247.656
        50.000          55.000
 195043737.548 8                  37115589.084
        48.250
 122900711.714 6  95766870.26246  23387207.885    23387207.076    23387208.545
        39.750          37.000
 115632247.915 7  90103096.96748  22004065.375    22004064.915    22004064.113
        46.750          48.500
 203912853.705 7                  38803312.639
        44.250
  30745298.085 7                   5850499.995
        44.250
 128977955.740 6                  24127993.209
        36.500
 123581642.665 7                  23094169.374
        44.000
                                  27905273.070
        28.750
 122125194.648 6                  22862074.814
        38.250
 140615258.089 6                  26758156.068
        40.000
 127779392.243 6                  23870277.846
        40.500
 113520086.705 6                  21221352.546
        40.250
 114951968.922 8  89572967.92646  21874628.244    21874628.052    21874629.271
        48.000          38.250
 127373511.254 7                  24238349.818
        47.500
 107693719.717 8                  20167561.997
        51.500
 111760151.540 8                  20965916.947
        48.250
 134295918.206 7                  25555654.402
        43.500
 124343157.935 7                  23220208.848
        42.500
 103825908.969 7                  19415959.412
        42.500
 21 10 19  0  2  0.0000000  0 29E26G16E04G27G32E12E09E13G26G31S36G25
                                G29S23S48R01R21E19R16E21R07R19G18E01
                                R09R10E31R08R20
 126593297.432 7                  24089875.222
        47.000
 125771711.187 6  98003946.91843  23933559.455    23933558.673    23933558.285
        38.500          22.500
 137228313.501 7                  26113677.778
        42.500
 129228850.847 6 100697826.33344  24591434.823    24591434.206    24591439.989
        39.250          25.500
 121023551.797 7  94304075.12345  23030012.140    23030012.024    23030013.225
        44.250          31.000
 141046372.797 5                  26840230.906
        32.750
 131824362.590 6                  25085336.350
        40.750


 113479765.531 7  88425858.73246  21594460.037    21594459.622    21594461.856
        46.500          38.250
 107178055.945 8  83515371.79349  20395301.723    20395301.446    20395299.848
        50.250          55.000
 195043747.246 7                  37115590.305
        47.750
 122964187.396 6  95816331.81346  23399286.574    23399285.765    23399287.985
        39.500          37.250
 115712883.726 7  90165930.06848  22019410.030    22019409.565    22019408.285
        46.750          48.250
 203912766.316 7                  38803294.976
        44.000
  30746014.811 7                   5850531.976
        44.500
 128973671.687 6                  24127193.107
        37.250
 123449274.891 7                  23069433.189
        43.000
                                  27919900.534
        29.500
 122190728.187 6                  22874343.317
        40.000
 140653714.405 6                  26765474.452
        40.500
 127875400.759 6                  23888214.269
        41.000
 113610377.499 6                  21238231.685
        39.750
 114889192.226 8  89524051.02146  21862682.203    21862682.011    21862683.202
        48.000          37.750
 127376668.224 7                  24238950.619
        47.250
 107695766.229 8                  20167945.339
        52.000
 111694966.479 8                  20953688.434
        48.500
 134256962.778 7                  25548241.779
        43.500
 124401102.691 7                  23231030.225
        42.000
 103777737.150 7                  19406950.952
        42.500
 21 10 19  0  2 30.0000000  0 30E26G16E04G27G32E12E09E13G26G31S36G25
                                S25G29S23S48R01R21E19R16E21R07R19G18
                                E01R09R10E31R08R20
 126589687.799 7                  24089188.269
        47.250
 125706902.535 6  97953446.65643  23921226.704    23921225.913    23921225.787
        39.250          22.250
 137289602.244 7                  26125340.603
        42.250
 129127151.086 6 100618580.10544  24572081.321    24572080.700    24572086.860
        39.750          26.000
 121115540.686 7  94375754.30945  23047517.090    23047516.974    23047518.456
        44.000          30.500
 140955238.069 4                  26822888.769
        29.000
 131826869.625 6                  25085813.601
        41.250


 113440071.667 7  88394928.46346  21586906.496    21586906.076    21586908.222
        46.750          38.250
 107157740.790 8  83499541.79649  20391436.044    20391435.767    20391434.265
        50.500          55.250
 195043754.948 7                  37115590.783
        46.750
 123027703.576 6  95865824.90546  23411373.864    23411373.051    23411374.915
        40.250          38.500
 183453838.35317                  34910016.100
        46.500
 115793754.860 7  90228946.54248  22034799.105    22034798.640    22034797.696
        46.500          48.250
 203912677.327 7                  38803277.756
        44.250
  30745127.859 7                   5850565.214
        44.500
 128970015.575 6                  24126507.866
        38.000
 123317058.448 7                  23044725.452
        44.000
                                  27934497.596
        33.500
 122256523.384 6                  22886661.162
        38.750
 140692222.481 6                  26772802.347
        41.000
 127971345.046 7                  23906138.462
        44.500
 113701221.012 6                  21255213.842
        40.000
 114826789.960 7  89475425.88546  21850807.318    21850807.131    21850808.357
        46.000          37.250
 127379863.782 7                  24239558.805
        47.500
 107698124.726 8                  20168386.783
        51.250
 111629853.894 8                  20941473.362
        48.500
 134217979.611 7                  25540823.198
        44.000
 124459472.246 7                  23241931.899
        42.000
 103730347.970 7                  19398088.673
        42.500
 21 10 19  0  3  0.0000000  0 29E26G16E04G27G32E12E09G26G31S36G25S25
                                G29S23S48R01R21E19R16E21R07R19G18E01
                                R09R10E31R08R20
 126586513.445 7                  24088584.265
        47.750
 125642166.177 6  97903002.73443  23908907.924    23908907.129    23908907.679
        38.000          22.500
 137351066.977 7                  26137037.351
        43.000
 129025635.977 6 100539477.90044  24552763.166    24552762.567    24552769.357
        38.750          27.000
 121207632.486 7  94447513.49745  23065042.183    23065042.063    23065043.438
        43.500          30.750
 140864020.185 5                  26805530.194
        32.000
 131829760.413 6                  25086363.929
        41.500
 113400479.231 7  88364077.22146  21579372.313    21579371.893    21579373.703
        46.500          38.250
 107137864.432 8  83484053.71749  20387653.721    20387653.444    20387651.809
        50.250          55.250
 195043756.868 7                  37115592.407
        46.000
 123091265.687 6  95915353.81146  23423468.656    23423467.843    23423470.109
        38.750          37.500
 183451087.352 7                  34909396.812
        46.250
 115874863.587 7  90292148.14948  22050233.721    22050233.256    22050232.158
        46.250          48.250
 203912590.406 7                  38803262.365
        44.000
  30745843.170 7                   5850596.730
        44.250
 128966991.528 6                  24125942.746
        36.750
 123185001.792 7                  23020048.753
        45.500


 122322586.076 6                  22899026.191
        38.250
 140730788.064 6                  26780141.061
        40.500
 128067224.884 7                  23924050.706
        46.250
 113792618.013 6                  21272299.722
        40.250
 114764770.157 7  89427098.79946  21839005.561    21839005.378    21839006.282
        45.750          37.500
 127383103.654 8                  24240175.237
        48.000
 107700802.249 8                  20168888.644
        51.750
 111564821.274 8                  20929273.434
        48.500
 134178973.813 7                  25533400.578
        44.250
 124518267.808 7                  23252908.479
        42.000
 103683748.800 7                  19389374.461
        42.500
 21 10 19  0  3 30.0000000  0 30E26G16E04G27G32E12E09E13G26G31S36G25
                                S25G29S23S48R01R21E19R16E21R07R19G18
                                E01R09R10E31R08R20
 126583769.693 7                  24088062.281
        47.000
 125577497.098 6  97852611.34943  23896601.614    23896600.814    23896601.461
        39.250          23.000
 137412701.010 7                  26148766.156
        42.250
 128924301.258 6 100460515.85144  24533479.816    24533479.240    24533485.672
        39.500          26.500
 121299819.606 7  94519347.00145  23082585.264    23082585.157    23082586.869
        43.000          30.250
 140772716.456 5                  26788156.489
        31.250
 131833029.553 6                  25086986.319
        40.750


 113360983.357 7  88333301.22246  21571856.634    21571856.214    21571858.001
        46.500          38.250
 107118423.316 8  83468904.78349  20383954.078    20383953.801    20383952.243
        50.750          55.250
 195043756.347 7                  37115593.122
        46.000
 123154869.023 6  95964914.82546  23435572.995    23435572.182    23435574.219
        40.000          39.000
 183448327.125 7                  34908775.820
        46.500
 115956202.454 7  90355529.08848  22065711.793    22065711.328    22065710.049
        46.750          48.000
 203912502.338 7                  38803245.453
        44.000
  30746554.035 7                   5850629.788
        44.250
 128964593.854 6                  24125493.365
        36.250
 123053104.157 7                  22995399.743
        47.000


 122388911.600 6                  22911444.015
        40.000
 140769406.826 6                  26787489.870
        40.000
 128163031.042 7                  23941949.069
        45.000
 113884559.331 6                  21289486.936
        40.000
 114703130.567 7  89379067.97046  21827276.177    21827275.994    21827276.501
        46.500          36.750
 127386383.473 7                  24240799.320
        47.750
 107703795.694 8                  20169448.988
        51.250
 111499865.509 8                  20917087.846
        48.250
 134139940.464 7                  25525972.880
        43.750
 124577480.074 7                  23263968.152
        42.250
 103637936.226 7                  19380807.504
        43.250
 21 10 19  0  4  0.0000000  0 29E26G16E04G27G32E12E09G26G31S36G25S25
                                G29S23S48R01R21E19R16E21R07R19G18E01
                                R09R10E31R08R20
 126581457.744 7                  24087622.365
        46.750
 125512895.383 6  97802272.37243  23884308.549    23884307.718    23884307.083
        38.250          22.000
 137474503.640 7                  26160526.815
        42.000
 128823150.176 6 100381696.77144  24514231.305    24514230.720    24514237.274
        38.500          26.250
 121392100.189 7  94591253.43445  23100145.837    23100145.726    23100148.058
        43.250          31.250
 140681328.481 5                  26770765.499
        31.250
 131836677.336 6                  25087680.314
        41.000
 113321585.236 7  88302601.39646  21564359.460    21564359.036    21564360.865
        46.500          38.500
 107099419.859 8  83454096.88449  20380337.803    20380337.526    20380335.854
        50.500          55.250
 195043756.900 7                  37115593.153
        47.750
 123218514.928 6  96014509.01846  23447683.558    23447682.758    23447685.420
        39.750          39.000
 183443956.364 7                  34908152.373
        46.250
 116037769.975 7  90419088.20748  22081233.799    22081233.339    22081231.838
        46.250          48.000
 203912414.141 7                  38803227.316
        43.500
  30745665.684 7                   5850663.755
        44.250
 128962823.152 6                  24125164.750
        38.000
 122921369.820 7                  22970782.036
        46.500
 147025892.62316                  27978097.486
        38.000
 122455501.613 6                  22923910.147
        39.000
 140808080.534 6                  26794849.171
        40.500
 128258761.764 7                  23959832.117
        43.250
 113977042.159 6                  21306775.178
        40.250
 114641875.119 7  89331336.49646  21815619.453    21815619.270    21815620.059
        46.750          37.250
 127389704.877 8                  24241431.401
        48.000
 107707108.090 8                  20170069.084
        51.750
 111434990.073 8                  20904917.620
        48.750
 134100880.670 7                  25518540.026
        44.000
 124637106.190 7                  23275101.646
        42.000
 103592913.468 7                  19372387.512
        42.750
 21 10 19  0  4 30.0000000  0 30E26G16E04G27G32E12E09E13G26G31S36G25
                                S25G29S23S48R01R21E19R16E21R07R19G18
                                E01R09R10E31R08R20
 126579579.039 7                  24087264.804
        46.500
 125448362.697 6  97751987.19743  23872028.489    23872027.680    23872027.283
        38.750          22.000
 137536473.864 7                  26172319.325
        42.250
 128722185.874 6 100303023.27744  24495019.323    24495018.724    24495024.339
        38.000          26.000
 121484471.097 7  94663229.67745  23117724.756    23117724.649    23117727.071
        43.750          32.000
 140589859.446 5                  26753359.669
        35.500
 131840704.746 6                  25088446.747
        40.250


 113282286.258 7  88271978.82346  21556880.978    21556880.558    21556882.327
        46.750          38.500
 107080856.749 8  83439632.11149  20376805.364    20376805.087    20376803.335
        50.750          55.500
 195043766.734 7                  37115594.736
        47.500
 123282204.940 6  96064137.56746  23459803.378    23459802.583    23459804.850
        39.000          37.250
 183441183.622 7                  34907528.175
        46.250
 116119565.117 7  90482824.68347  22096799.007    22096798.542    22096797.118
        46.250          47.750
 203912325.374 7                  38803211.102
        43.750
  30746377.429 7                   5850694.193
        44.250
 128961679.465 6                  24124949.670
        38.500
 122789804.779 7                  22946196.078
        46.750
 147101921.506 5                  27992566.439
        33.000
 122522357.852 6                  22936425.347
        39.000
 140846811.162 6                  26802219.297
        40.250
 128354413.543 7                  23977699.061
        42.500
 114070063.484 6                  21324164.281
        40.000
 114581007.870 7  89283907.54346  21804036.714    21804036.527    21804037.228
        46.750          37.000
 127393069.776 7                  24242071.704
        47.750
 107710742.478 8                  20170750.045
        51.000
 111370198.004 8                  20892762.091
        48.250
 134061795.792 7                  25511102.598
        43.500
 124697143.639 6                  23286312.976
        41.250
 103548683.549 7                  19364116.647
        42.750
 21 10 19  0  5  0.0000000  0 30E26G16E04G27G32E12E09E13G26G31S36G25
                                S25G29S23S48R01R21E19R16E21R07R19G18
                                E01R09R10E31R08R20
 126578135.309 7                  24086990.000
        47.000
 125383899.648 6  97701756.19643  23859761.858    23859761.031    23859760.442
        38.250          21.750
 137598611.211 7                  26184143.909
        42.250
 128621412.218 6 100224498.69944  24475840.811    24475840.203    24475847.942
        37.000          25.500
 121576932.381 7  94735276.51945  23135319.886    23135319.779    23135322.552
        43.750          31.750
 140498312.562 5                  26735939.499
        30.750
 131845112.645 6                  25089285.153
        41.250


 113243088.082 7  88241434.79546  21549421.555    21549421.135    21549423.178
        47.000          38.500
 107062737.109 8  83425512.90649  20373357.520    20373357.243    20373355.424
        51.000          56.000
 195043779.867 7                  37115595.756
        47.250
 123345940.920 6  96113801.94046  23471932.154    23471931.359    23471933.719
        39.500          38.750
 183438399.155 7                  34906902.107
        46.250
 116201586.469 7  90546737.43247  22112407.264    22112406.799    22112404.964
        47.000          47.750
 203912240.571 7                  38803195.492
        43.250
  30747090.923 7                   5850728.101
        44.250
 128961163.482 6                  24124850.779
        37.250
 122658413.957 7                  22921643.564
        46.750
 147177781.188 5                  28007002.717
        31.750
 122589481.708 6                  22948990.455
        39.250
 140885600.911 6                  26809601.075
        41.000
 128449983.062 7                  23995549.692
        46.000
 114163621.092 6                  21341654.481
        40.500
 114520533.109 7  89236784.44346  21792528.629    21792528.437    21792528.967
        47.500          36.500
 127396480.324 7                  24242720.729
        47.500
 107714702.479 8                  20171491.221
        51.000
 111305492.781 8                  20880624.179
        48.500
 134022687.445 7                  25503660.481
        44.250
 124757589.903 6                  23297601.156
        39.000
 103505249.820 7                  19355993.908
        42.250
 21 10 19  0  5 30.0000000  0 29E26G16E04G27G32E12E09G26G31S36G25S25
                                G29S23S48R01R21E19R16E21R07R19G18E01
                                R09R10E31R08R20
 126577113.790 7                  24086795.616
        46.750
 125319493.661 6  97651569.64143  23847505.447    23847504.634    23847504.266
        38.750          21.500
 137660900.893 7                  26195997.499
        42.000
 128520816.742 6 100146112.81744  24456698.194    24456697.591    24456704.595
        37.000          24.750
 121669468.039 7  94807381.47245  23152929.428    23152929.330    23152932.566
        43.750          32.000
 140406677.399 5                  26718502.186
        32.750
 131849887.542 6                  25090194.022
        40.000
 113203977.926 7  88210959.35546  21541979.403    21541978.988    21541980.998
        46.500          38.250
 107045049.489 8  83411730.33949  20369991.670    20369991.393    20369989.674
        50.750          55.750
 195043775.693 7                  37115595.550
        47.500
 123409710.235 6  96163492.30146  23484066.646    23484065.846    23484069.077
        38.000          37.500
 183434003.194 7                  34906272.878
        46.500
 116283819.079 7  90610814.79747  22128055.397    22128054.937    22128053.429
        46.500          47.750
 203912143.612 7                  38803178.620
        44.000
  30746193.496 7                   5850757.829
        44.250
 128961261.054 6                  24124871.030
        38.500
 122527188.975 7                  22897120.137
        46.500
 147253455.901 5                  28021403.607
        30.750
 122656860.338 6                  22961604.603
        38.750
 140924437.545 6                  26816991.040
        40.000
 128545454.401 6                  24013385.272
        38.250
 114257697.852 6                  21359240.412
        39.000
 114460440.623 7  89189959.18146  21781093.268    21781093.081    21781093.673
        47.000          37.000
 127399924.210 7                  24243376.080
        47.500
 107718976.920 8                  20172291.659
        51.250
 111240863.594 8                  20868499.799
        48.750
 133983542.797 7                  25496211.507
        44.500
 124818428.438 6                  23308961.949
        40.500
 103462601.059 7                  19348018.594
        42.250
 21 10 19  0  6  0.0000000  0 29E26G16E04G27G32E12E09G26G31S36G25S25
                                G29S23S48R01R21E19R16E21R07R19G18E01
                                R09R10E31R08R20
 126576528.884 7                  24086684.234
        46.750
 125255158.061 6  97601437.89643  23835263.010    23835262.165    23835262.412
        38.750          22.000
 137723355.120 6                  26207882.136
        41.000
 128420415.702 6 100067878.41544  24437592.319    24437591.761    24437598.962
        38.500          24.750
 121762089.265 7  94879553.28245  23170555.287    23170555.211    23170558.433
        44.000          32.500
 140314969.352 5                  26701050.566
        32.250
 131855043.089 6                  25091175.045
        40.250
 113164970.187 7  88180563.71646  21534556.469    21534556.045    21534557.845
        46.750          38.250
 107027809.504 8  83398296.57949  20366710.696    20366710.419    20366708.880
        50.750          55.500
 195043772.703 7                  37115596.292
        46.750
 123473527.452 6  96213219.98146  23496210.502    23496209.707    23496213.172
        39.500          38.750
 183431197.278 7                  34905642.098
        46.500
 116366274.658 7  90675065.90347  22143745.818    22143745.353    22143744.058
        46.500          47.250
 203912049.928 7                  38803160.635
        44.250
  30746899.327 7                   5850790.387
        44.250
 128961986.124 6                  24125005.672
        38.750
 122396148.918 7                  22872631.370
        45.000
 147328958.575 5                  28035771.176
        31.000
 122724508.364 6                  22974268.544
        37.500
 140963335.989 6                  26824393.348
        39.500
 128640836.532 7                  24031203.336
        43.750
 114352304.295 6                  21376926.803
        39.750
 114400747.459 8  89143445.09846  21769734.244    21769734.057    21769734.683
        48.000          37.750
 127403416.405 7                  24244040.791
        47.500
 107723581.989 8                  20173154.044
        51.500
 111176327.517 8                  20856393.386
        48.750
 133944376.111 7                  25488758.359
        44.500
 124879669.590 6                  23320398.484
        41.750
 103420753.713 7                  19340192.938
        42.500
 21 10 19  0  6 30.0000000  0 29E26G16E04G27G32E12E09G26G31S36G25S25
                                G29S23S48R01R21E19R16E21R07R19G18E01
                                R09R10E31R08R20
 126576383.589 7                  24086656.224
        47.500
 125190895.540 6  97551362.98043  23823034.029    23823033.184    23823033.759
        38.000          22.250
 137785974.726 7                  26219798.394
        42.500
 128320213.865 6  99989799.44744  24418525.024    24418524.501    24418530.617
        37.500          24.250
 121854795.616 7  94951791.42045  23188196.939    23188196.868    23188200.289
        44.750          32.750
 140223193.355 5                  26683586.701
        32.000
 131860581.796 6                  25092229.168
        40.250
 113126067.870 7  88150250.23046  21527153.654    21527153.230    21527154.828
        46.750          38.500
 107011021.424 8  83385214.95049  20363516.224    20363515.952    20363514.197
        50.750          56.000
 195043782.616 7                  37115596.865
        46.750
 123537395.719 6  96262987.45546  23508364.751    23508363.960    23508366.313
        40.000          39.250
 183428397.225 7                  34905010.539
        46.250
 116448953.717 7  90739491.14747  22159479.344    22159478.879    22159477.149
        46.750          47.000
 203911964.687 7                  38803143.979
        43.500
  30747610.269 7                   5850821.469
        44.250
 128963340.411 6                  24125259.371
        38.250
 122265298.094 7                  22848179.147
        45.000
 147404290.197 4                  28050106.911
        29.500
 122792429.730 6                  22986983.799
        38.750
 141002299.827 6                  26831807.928
        40.500
 128736130.624 7                  24049005.091
        42.000
 114447438.900 6                  21394710.582
        40.250
 114341459.192 7  89097246.51346  21758452.051    21758451.864    21758452.663
        46.750          38.000
 127406960.368 8                  24244715.100
        48.000
 107728522.730 8                  20174079.438
        51.500
 111111888.933 8                  20844304.144
        49.000
 133905190.415 7                  25481301.401
        45.000
 124941312.892 6                  23331910.775
        41.500
 103379712.172 7                  19332518.481
        42.250
 21 10 19  0  7  0.0000000  0 29E26G16E04G27G32E12E09G26G31S36G25S25
                                G29S23S48R01R21E19R16E21R07R19G18E01
                                R09R10E31R08R20
 126576667.065 7                  24086710.373
        47.000
 125126695.460 6  97501336.81143  23810817.933    23810817.097    23810816.968
        39.500          23.250
 137848746.718 7                  26231743.563
        42.000
 128220201.265 6  99911867.76643  24399492.915    24399492.406    24399499.003
        37.000          23.750
 121947573.220 7  95024085.05745  23205852.211    23205852.127    23205856.017
        44.000          32.750
 140131340.123 5                  26666108.138
        31.250
 131866492.034 6                  25093353.795
        40.250
 113087260.287 7  88120010.55646  21519768.606    21519768.182    21519770.203
        46.750          38.750
 106994675.994 8  83372478.24949  20360405.858    20360405.581    20360403.888
        50.750          56.250
 195043784.144 7                  37115598.238
        47.000
 123601304.532 6  96312786.51446  23520526.742    23520525.951    23520527.924
        39.000          39.250
 183423984.523 7                  34904378.811
        46.500
 116531842.576 7  90804079.88648  22175252.742    22175252.282    22175250.614
        46.250          48.000
 203911874.127 7                  38803126.155
        43.500
  30746716.736 7                   5850853.606
        44.000
 128965311.835 6                  24125626.984
        37.000
 122134630.039 7                  22823760.546
        44.750
 147479438.276 4                  28064406.789
        26.000
 122860613.182 6                  22999746.964
        38.250
 141041318.850 6                  26839233.197
        40.500
 128831320.720 6                  24066785.594
        40.250
 114543086.636 6                  21412590.668
        40.000
 114282567.762 7  89051357.17646  21747245.065    21747244.878    21747245.896
        46.500          37.500
 127410545.914 7                  24245397.416
        47.500
 107733789.990 8                  20175065.752
        51.250
 111047539.029 8                  20832232.324
        48.750
 133865974.938 7                  25473838.976
        44.250
 125003343.549 6                  23343494.409
        40.500
 103339466.960 7                  19324992.019
        42.750
 21 10 19  0  7 30.0000000  0 29E26G16E04G27G32E12E09G26G31S36G25S25
                                G29S23S48R01R21E19R16E21R07R19G18E01
                                R09R10E31R08R20
 126577385.909 7                  24086846.986
        46.750
 125062564.116 6  97451364.35443  23798613.769    23798612.942    23798613.401
        40.250          23.750
 137911675.829 7                  26243718.996
        42.500
 128120386.187 6  99834089.95244  24380498.703    24380498.194    24380504.574
        36.250          24.000
 122040425.738 7  95096437.17545  23223522.055    23223521.979    23223526.000
        44.250          32.000
 140039417.871 5                  26648615.920
        35.000
 131872779.974 6                  25094550.555
        40.000
 113048554.052 7  88089849.85546  21512403.153    21512402.729    21512404.399
        46.500          38.500
 106978780.642 8  83360092.25149  20357381.080    20357380.803    20357379.153
        51.250          56.500
 195043794.439 7                  37115600.724
        47.500
 123665260.591 6  96362622.36946  23532696.753    23532695.971    23532698.478
        39.750          38.750
 183421166.754 7                  34903744.520
        46.500
 116614945.198 7  90868835.18247  22191066.630    22191066.165    22191064.860
        45.750          47.750
 203911786.382 7                  38803109.355
        43.250
  30747427.022 7                   5850885.851
        44.000
 128967905.864 6                  24126113.360
        37.500
 122004154.582 7                  22799378.538
        46.500
 147554408.804 5                  28078673.326
        31.250
 122929065.677 6                  23012563.434
        40.000
 141080400.238 6                  26846670.402
        40.250
 128926408.838 7                  24084551.651
        42.000
 114639250.331 6                  21430568.132
        39.500
 114224082.334 7  89005784.20546  21736115.613    21736115.426    21736116.376
        47.000          37.750
 127414180.127 8                  24246088.971
        48.000
 107739392.223 8                  20176114.868
        51.500
 110983286.717 8                  20820178.833
        48.500
 133826736.235 7                  25466372.067
        44.500
 125065763.833 6                  23355151.773
        41.500
 103300026.279 7                  19317616.562
        43.000
 21 10 19  0  8  0.0000000  0 29E26G16E04G27G32E12E09G26G31S36G25S25
                                G29S23S48R01R21E19R16E21R07R19G18E01
                                R09R10E31R08R20
 126578534.579 7                  24087065.480
        46.500
 124998495.807 6  97401441.14943  23786421.935    23786421.104    23786420.896
        39.500          23.000
 137974754.144 7                  26255722.772
        42.000
 128020764.553 6  99756462.83544  24361541.091    24361540.591    24361546.500
        37.750          24.250
 122133344.360 7  95168840.84545  23241204.417    23241204.341    23241208.433
        43.250          31.500
 139947422.669 5                  26631110.136
        34.000
 131879439.130 6                  25095817.602
        40.500
 113009943.689 7  88059763.86546  21505055.960    21505055.531    21505057.111
        46.500          38.750
 106963331.502 8  83348053.95549  20354441.188    20354440.911    20354439.325
        50.750          56.000
 195043794.501 7                  37115601.596
        46.500
 123729258.631 6  96412490.94546  23544874.654    23544873.872    23544876.665
        40.250          39.000
 183418338.204 7                  34903107.403
        46.500
 116698253.568 7  90933750.79047  22206919.623    22206919.154    22206918.014
        46.250          47.500
 203911694.860 7                  38803093.257
        43.750
  30748131.920 7                   5850917.774
        44.250
 128971115.718 6                  24126714.953
        38.500
 121873870.365 7                  22775031.562
        45.250
 147629194.461 5                  28092904.192
        31.500
 122997781.617 6                  23025425.886
        38.750
 141119539.014 6                  26854117.749
        38.750
 129021387.494 7                  24102292.387
        45.500
 114735919.799 6                  21448639.933
        39.500
 114165999.880 7  88960525.23146  21725062.852    21725062.665    21725063.661
        46.750          37.500
 127417857.982 7                  24246788.860
        47.250
 107745325.591 8                  20177225.879
        51.500
 110919128.378 8                  20808143.107
        49.250
 133787468.751 7                  25458899.838
        44.250
 125128564.033 6                  23366881.054
        41.750
 103261386.291 7                  19310390.014
        42.750
 21 10 19  0  8 30.0000000  0 30E26G16E04G27G32E12E09G26G04G31S36G25
                                S25G29S23S48R01R21E19R16E21R07R19G18
                                E01R09R10E31R08R20
 126580116.973 7                  24087366.682
        46.750
 124934493.939 6  97351569.87843  23774242.987    23774242.160    23774241.452
        39.750          22.500
 138037983.667 7                  26267755.147
        42.000
 127921342.050 6  99678990.98144  24342622.123    24342621.636    24342627.704
        39.000          24.500
 122226329.744 7  95241296.45745  23258899.417    23258899.337    23258903.001
        44.750          30.500
 139855360.178 5                  26613591.533
        30.250
 131886472.716 6                  25097156.116
        39.750
 112971433.263 7  88029755.74846  21497727.504    21497727.075    21497729.419
        47.000          39.000
                                  25474020.555
        31.750
 106948333.552 8  83336367.23649  20351587.225    20351586.948    20351585.325
        51.250          56.000
 195043798.452 7                  37115601.913
        46.750
 123793302.823 6  96462395.50546  23557062.236    23557061.458    23557063.804
        39.250          38.000
 183413901.464 7                  34902470.331
        46.500
 116781768.576 7  90998827.42847  22222812.049    22222811.580    22222810.013
        47.250          47.250
 203911603.793 7                  38803075.290
        43.500
  30747236.441 7                   5850949.465
        44.250
 128974943.961 6                  24127429.290
        39.000
 121743784.865 7                  22750723.444
        45.500
 147703797.412 5                  28107100.456
        32.000
 123066765.225 6                  23038340.653
        38.750
 141158739.748 6                  26861577.690
        40.000
 129116255.713 6                  24120015.236
        36.250
 114833095.109 6                  21466805.499
        39.750
 114108327.051 7  88915585.44346  21714087.965    21714087.778    21714088.824
        47.250          37.500
 127421584.101 7                  24247497.892
        47.750
 107751595.857 8                  20178400.289
        51.500
 110855070.249 8                  20796126.121
        49.250
 133748176.498 7                  25451422.676
        44.500
 125191744.379 7                  23378680.754
        42.250
 103223552.444 7                  19303315.390
        42.500
 21 10 19  0  9  0.0000000  0 30E26G16E04G27G32E12E09G26G04G31S36G25
                                S25G29S23S48R01R21E19R16E21R07R19G18
                                E01R09R10E31R08R20
 126582133.140 7                  24087750.576
        46.750
 124870558.340 6  97301750.36143  23762075.386    23762074.573    23762074.758
        39.750          23.500
 138101362.542 7                  26279815.847
        42.000
 127822120.135 6  99601675.43444  24323740.383    24323739.847    24323745.750
        37.250          24.500
 122319379.209 7  95313802.07544  23276606.586    23276606.502    23276610.367
        42.500          29.250
 139763240.09214                  26596060.557
        27.750
 131893880.150 6                  25098566.082
        40.500
 112933022.963 7  87999825.64746  21490418.453    21490418.024    21490420.181
        47.000          39.000


 106933788.166 8  83325033.16849  20348819.341    20348819.064    20348817.150
        50.750          56.000
 195043805.783 7                  37115601.842
        47.500
 123857393.454 6  96512336.22746  23569258.145    23569257.363    23569259.796
        39.000          38.250
 183411055.908 7                  34901832.530
        46.500
 116865488.738 7  91064063.94347  22238743.522    22238743.062    22238741.255
        46.000          47.000
 203911513.584 7                  38803056.178
        43.500
  30747941.375 7                   5850980.860
        44.250
 128979389.820 6                  24128260.204
        37.250
 121613903.331 7                  22726452.306
        46.500
 147778215.760 5                  28121261.608
        30.750
 123136016.611 6                  23051303.295
        38.500
 141198003.068 6                  26869049.304
        39.500
 129211009.981 6                  24137715.178
        40.500
 114930771.782 6                  21485064.787
        39.250
 114051066.437 7  88870966.84546  21703191.715    21703191.528    21703192.191
        46.750          37.000
 127425359.103 7                  24248216.199
        47.750
 107758204.872 8                  20179638.013
        51.750
 110791114.512 8                  20784128.437
        49.250
 133708859.601 7                  25443940.759
        45.000
 125255301.114 6                  23390547.925
        41.750
 103186525.839 7                  19296391.371
        42.250
 21 10 19  0  9 30.0000000  0 30E26G16E04G27G32E12E09G26G04G31S36G25
                                S25G29S23S48R01R21E19R16E21R07R19G18
                                E01R09R10E31R08R20
 126584580.559 7                  24088216.188
        46.250
 124806685.719 6  97251979.97643  23749921.108    23749920.321    23749919.135
        39.500          23.250
 138164886.406 6                  26291904.414
        41.500
 127723097.816 6  99524515.52044  24304896.955    24304896.410    24304902.579
        38.250          26.250
 122412487.314 7  95386353.55844  23294324.412    23294324.319    23294328.201
        42.250          27.750
 139671046.339 4                  26578517.006
        29.750
 131901658.183 6                  25100046.165
        40.750
 112894710.306 7  87969971.63746  21483127.536    21483127.112    21483128.900
        47.000          39.000
                                  25448430.725
        31.750
 106919693.977 8  83314050.67349  20346137.347    20346137.070    20346134.954
        50.750          55.500
 195043810.441 7                  37115602.660
        47.250
 123921528.243 6  96562311.35246  23581462.848    23581462.057    23581464.254
        39.250          38.250
 183408203.555 7                  34901190.459
        46.250
 116949408.570 7  91129456.02547  22254712.816    22254712.356    22254711.114
        46.000          47.000
 203911420.372 7                  38803038.797
        43.500
  30748642.714 7                   5851012.738
        44.250
 128984449.503 6                  24129209.483
        39.250
 121484227.061 7                  22702219.943
        44.250
 147852445.449 5                  28135387.182
        30.500
 123205533.231 6                  23064316.934
        39.250
 141237327.095 6                  26876532.315
        39.250
 129305644.745 6                  24155392.011
        40.000
 115028943.081 6                  21503416.932
        39.250
 113994218.229 7  88826669.64346  21692373.679    21692373.496    21692374.017
        46.750          37.000
 127429181.003 7                  24248943.450
        47.500
 107765151.887 8                  20180938.865
        51.500
 110727260.547 8                  20772149.078
        49.250
 133669515.507 7                  25436454.044
        44.500
 125319228.050 7                  23402486.106
        42.500
 103150305.376 7                  19289618.399
        43.000
 21 10 19  0 10  0.0000000  0 30E26G16E04G27G32E12E09G26G04G31S36G25
                                S25G29S23S48R01R21E19R16E21R07R19G18
                                E01R09R10E31R08R20
 126587463.625 7                  24088764.528
        46.750
 124742880.522 6  97202262.09343  23737778.882    23737778.087    23737777.401
        39.000          22.250
 138228557.705 6                  26304020.546
        41.500
 127624280.574 6  99447515.32944  24286092.171    24286091.613    24286098.127
        39.750          27.250
 122505655.269 7  95458951.77244  23312053.885    23312053.783    23312057.500
        43.250          27.750
 139578792.152 5                  26560961.823
        30.500
 131909810.460 6                  25101597.119
        40.750
 112856499.856 7  87940197.26446  21475856.518    21475856.089    21475857.577
        46.500          38.750


 106906056.836 8  83303424.32049  20343542.228    20343541.951    20343540.000
        51.000          56.500
 195043822.591 7                  37115603.800
        47.250
 123985711.844 6  96612324.54746  23593676.331    23593675.536    23593678.008
        38.500          37.750
 183403752.365 7                  34900547.408
        46.250
 117033529.986 7  91195005.17547  22270720.606    22270720.133    22270719.107
        46.000          47.250
 203911330.886 7                  38803023.441
        44.000
  30747746.695 7                   5851044.580
        44.250
 128990125.852 6                  24130270.490
        38.000
 121354764.820 7                  22678026.462
        44.750
 147926489.883 4                  28149477.222
        28.000
 123275319.373 6                  23077382.015
        39.000
 141276716.850 6                  26884028.069
        39.750
 129400159.638 7                  24173047.814
        42.250
 115127609.634 6                  21521861.512
        39.750
 113937789.295 7  88782699.11346  21681635.566    21681635.388    21681635.787
        46.750          37.250
 127433054.878 7                  24249680.701
        47.500
 107772443.278 8                  20182303.899
        51.250
 110663514.987 8                  20760190.610
        48.500
 133630148.751 7                  25428962.702
        44.250
 125383525.387 7                  23414492.136
        42.500
 103114897.056 7                  19282996.097
        42.750
 21 10 19  0 10 30.0000000  0 30E26G16E04G27G32E12E09G26G04G31S36G25
                                S25G29S23S48R01R21E19R16E21R07R19G18
                                E01R09R10E31R08R20
 126590781.073 7                  24089395.550
        46.750
 124679141.148 6  97152595.59543  23725648.809    23725648.014    23725646.939
        39.000          23.000
 138292372.913 7                  26316164.106
        42.000
 127525669.286 6  99370675.69544  24267327.152    24267326.598    24267332.614
        39.000          27.250
 122598879.042 6  95531593.59544  23329793.519    23329793.439    23329797.066
        41.500          29.750
 139486478.04015                  26543394.414
        35.750
 131918335.318 6                  25103219.858
        40.500
 112818390.726 7  87910501.84346  21468604.575    21468604.142    21468606.108
        47.000          39.250
 133599489.57015 104103499.28852  25423137.110    25423137.253    25423137.716
        33.250          15.500
 106892877.130 8  83293154.40749  20341034.156    20341033.879    20341032.319
        51.000          56.750
 195043830.131 7                  37115604.856
        47.250
 124049943.467 6  96662375.15546  23605899.328    23605898.537    23605900.696
        39.500          38.500
 183400892.533 7                  34899905.118
        46.250
 117117849.291 7  91260708.53047  22286766.209    22286765.731    22286764.161
        46.000          47.250
 203911241.718 7                  38803006.498
        43.500
  30748451.487 7                   5851076.991
        44.000
 128996416.706 6                  24131446.616
        37.750
 121225518.950 7                  22653873.666
        46.250
 148000346.408 5                  28163531.143
        32.500
 123345375.150 6                  23090495.364
        39.750
 141316171.884 6                  26891535.933
        39.500
 129494549.233 7                  24190683.034
        42.500
 115226765.996 6                  21540399.038
        39.250
 113881781.246 7  88739056.55646  21670977.582    21670977.390    21670978.054
        47.500          37.500
 127436980.274 7                  24250427.610
        47.500
 107780079.756 8                  20183734.488
        51.000
 110599879.154 8                  20748252.827
        48.750
 133590758.353 7                  25421466.831
        44.500
 125448187.435 6                  23426566.277
        41.500
 103080301.102 7                  19276526.024
        42.000
 21 10 19  0 11  0.0000000  0 30E26G16E04G27G32E12E09G26G04G31S36G25
                                S25G29S23S48R01R21E19R16E21R07R19G18
                                E01R09R10E31R08R20
 126594527.183 7                  24090108.519
        46.750
 124615461.366 6  97102975.28743  23713530.645    23713529.841    23713529.419
        38.500          22.250
 138356324.315 7                  26328333.795
        42.250
 127427259.553 6  99293993.13744  24248599.947    24248599.357    24248605.633
        38.750          28.000
 122692149.877 7  95604272.21544  23347542.080    23347541.987    23347546.148
        42.250          28.500


 131927226.315 6                  25104911.695
        40.500
 112780377.394 7  87880881.07046  21461370.683    21461370.250    21461372.565
        47.000          39.250
 133533609.197 5 104052163.93242  25410599.443    25410599.390    25410599.081
        32.750          13.250
 106880149.854 8  83283237.03449  20338612.251    20338611.974    20338610.412
        50.500          55.750
 195043826.611 7                  37115605.263
        47.000
 124114217.741 6  96712458.97246  23618130.670    23618129.879    23618132.033
        39.250          38.250
 183398018.277 7                  34899258.114
        46.250
 117202358.119 7  91326559.57647  22302847.645    22302847.167    22302845.386
        45.500          46.750
 203911149.492 7                  38802986.027
        44.500
  30749150.217 7                   5851107.957
        44.250
 129003315.085 6                  24132736.547
        36.750
 121096486.016 8                  22629760.573
        48.750
 148074007.542 4                  28177547.906
        28.500
 123415693.974 6                  23103660.372
        41.250
 141355687.122 6                  26899055.485
        40.000
 129588805.147 7                  24208287.910
        42.500
 115326402.174 6                  21559023.958
        39.000
 113826190.877 7  88695739.48446  21660398.884    21660398.697    21660399.519
        46.500          37.250
 127440952.149 7                  24251183.357
        47.500
 107788057.148 8                  20185228.427
        51.250
 110536349.523 8                  20736334.908
        49.000
 133551338.736 7                  25413965.508
        44.000
 125513204.761 6                  23438706.935
        41.500
 103046512.663 7                  19270208.007
        42.750
 21 10 19  0 11 30.0000000  0 30E26G16E04G27G32E12E09G26G04G31S36G25
                                S25G29S23S48R01R21E19R16E21R07R19G18
                                E01R09R10E31R08R20
 126598708.104 7                  24090904.115
        46.500
 124551847.464 6  97053406.40643  23701425.633    23701424.820    23701422.819
        38.500          21.000
 138420416.098 6                  26340530.180
        41.000
 127329059.105 6  99217473.69644  24229912.693    24229912.081    24229918.119
        38.750          28.250
 122785470.835 7  95676989.91144  23365300.612    23365300.528    23365304.848
        42.500          28.250
 139301672.82815                  26508226.261
        32.250
 131936488.856 6                  25106674.346
        40.500
 112742466.236 7  87851339.91446  21454156.611    21454156.178    21454157.906
        47.000          39.000
 133468123.210 5 104001135.89242  25398137.755    25398137.563    25398137.742
        35.250          17.750
 106867882.804 8  83273678.29049  20336277.917    20336277.640    20336275.791
        51.000          56.250
 195043828.025 7                  37115607.159
        47.250
 124178541.179 6  96762581.10946  23630370.933    23630370.133    23630372.572
        40.000          39.250
 183393537.273 7                  34898610.516
        46.250
 117287060.120 7  91392561.14547  22318965.549    22318965.076    22318963.850
        45.250          46.500
 203911059.119 7                  38802970.569
        43.500
  30748250.544 7                   5851139.473
        44.250
 129010825.742 6                  24134139.950
        36.250
 120967675.463 7                  22605689.893
        44.000
 148147478.388 5                  28191528.928
        33.250
 123486282.753 6                  23116875.047
        39.750
 141395269.513 6                  26906587.773
        39.750
 129682928.829 6                  24225872.238
        41.750
 115426519.943 6                  21577739.842
        38.750
 113771027.130 7  88652754.85646  21649901.734    21649901.551    21649902.001
        47.250          37.500
 127444977.388 7                  24251949.420
        47.500
 107796383.908 8                  20186787.744
        51.500
 110472934.293 8                  20724438.429
        49.000
 133511896.264 7                  25406459.920
        44.000
 125578578.879 6                  23450915.262
        41.750
 103013539.481 7                  19264042.026
        42.250
 21 10 19  0 12  0.0000000  0 30E26G16E04G27G32E12E09G26G04G31S36G25
                                S25G29S23S48R01R21E19R16E21R07R19G18
                                E01R09R10E31R08R20
 126603321.570 7                  24091782.237
        46.250
 124488296.663 6  97003886.46443  23689331.422    23689330.586    23689328.984
        38.500          21.750
 138484644.307 6                  26352752.238
        41.500
 127231067.161 6  99141116.74544  24211264.645    24211264.028    24211270.138
        39.000          27.250
 122878836.141 7  95749741.99345  23383067.614    23383067.530    23383071.320
        42.750          32.250
 139209176.90215                  26490626.875
        35.250
 131946120.080 6                  25108506.707
        40.000
 112704655.284 7  87821876.84646  21446961.516    21446961.087    21446962.529
        47.250          38.750
 133403031.201 5 103950414.85542  25385751.419    25385751.196    25385751.008
        35.000          16.500
 106856074.818 8  83264477.24749  20334031.006    20334030.729    20334028.824
        51.000          56.250
 195043833.225 7                  37115608.227
        47.500
 124242911.797 6  96812740.01646  23642620.252    23642619.439    23642622.417
        40.000          39.000
 183390651.820 7                  34897961.263
        46.500
 117371951.305 7  91458710.12147  22335120.210    22335119.737    22335118.235
        46.250          46.750
 203910968.395 7                  38802951.363
        43.250
  30748949.614 7                   5851171.847
        44.000
 129018945.001 6                  24135660.039
        37.500
 120839090.216 7                  22581660.482
        44.750
 148220755.036 5                  28205473.707
        30.250
 123557139.527 6                  23130139.011
        38.750
 141434917.381 6                  26914132.462
        39.000
 129776914.967 6                  24243430.131
        40.750
 115527113.316 6                  21596544.320
        38.500
 113716290.313 7  88610102.93746  21639485.457    21639485.265    21639485.906
        46.500          37.500
 127449054.388 7                  24252725.158
        47.500
 107805059.505 8                  20188412.435
        51.250
 110409633.515 8                  20712563.342
        49.000
 133472428.793 7                  25398949.590
        44.500
 125644303.918 7                  23463190.299
        42.750
 102981380.451 7                  19258027.924
        42.250
 21 10 19  0 12 30.0000000  0 30E26G16E04G27G32E12E09G26G04G31S36G25
                                S25G29S23S48R01R21E19R16E21R07R19G18
                                E01R09R10E31R08R20
 126608368.714 7                  24092742.456
        46.750
 124424809.802 6  96954416.22843  23677250.427    23677249.564    23677249.415
        38.000          22.500
 138549007.736 6                  26365000.351
        40.250
 127133286.452 6  99064924.40844  24192657.652    24192657.022    24192663.060
        38.000          27.500
 122972243.903 7  95822526.69645  23400843.219    23400843.148    23400847.648
        44.500          31.500
 139116634.335 5                  26473017.121
        35.500
 131956120.392 6                  25110409.906
        40.250
 112666945.921 7  87792492.93546  21439785.421    21439784.992    21439786.831
        47.000          39.000
 133338336.174 5 103900003.13543  25373439.969    25373439.764    25373440.640
        34.500          19.250
 106844728.390 8  83255635.86149  20331871.804    20331871.523    20331869.790
        51.000          56.250
 195043847.118 7                  37115608.983
        47.750
 124307331.212 6  96862936.95246  23654878.909    23654878.087    23654880.234
        39.000          37.500
 183387758.821 7                  34897310.419
        46.750
 117457029.971 7  91525005.18647  22351310.016    22351309.547    22351308.058
        46.000          47.000
 203910877.830 7                  38802935.498
        43.500
  30749650.920 7                   5851204.387
        44.250
 129027673.209 6                  24137293.192
        37.500
 120710736.096 7                  22557673.899
        45.000
 148293837.873 5                  28219380.257
        34.000
 123628265.549 6                  23143454.290
        41.750
 141474632.679 6                  26921690.450
        40.250
 129870761.097 5                  24260957.091
        33.250
 115628179.073 6                  21615437.666
        39.250
 113661984.163 7  88567786.61246  21629151.090    21629150.889    21629151.651
        46.000          38.000
 127453185.090 7                  24253511.333
        47.250
 107814086.824 8                  20190102.817
        51.250
 110346450.745 8                  20700709.869
        48.500
 133432937.752 7                  25391434.675
        44.500
 125710376.995 6                  23475528.314
        40.250
 102950038.203 7                  19252166.378
        42.750
 21 10 19  0 13  0.0000000  0 30E26G16E04G27G32E12E09G26G04G31S36G25
                                S25G29S23S48R01R21E19R16E21R07R19G18
                                E01R09R10E31R08R20
 126613836.717 7                  24093782.877
        46.750
 124361374.020 6  96904985.81043  23665178.903    23665178.036    23665177.040
        39.000          23.000
 138613491.684 6                  26377270.926
        41.250
 127035705.581 6  98988887.77344  24174087.929    24174087.299    24174093.198
        37.250          27.500
 123065680.225 7  95895334.28345  23418623.435    23418623.355    23418627.436
        44.000          31.750
 139024027.116 6                  26455394.800
        36.500
 131966476.297 6                  25112380.442
        40.250
 112629325.645 7  87763178.44446  21432626.491    21432626.062    21432628.054
        47.000          39.250
 133274027.133 6 103849892.21243  25361202.840    25361202.621    25361202.019
        36.750          19.000
 106833832.066 8  83247145.21549  20329798.323    20329798.042    20329796.379
        50.750          55.750
 195043845.915 7                  37115608.987
        47.250
 124371786.941 6  96913162.18146  23667144.594    23667143.772    23667145.054
        40.250          38.000
 183383242.801 7                  34896655.192
        46.250
 117542280.954 7  91591434.53147  22367532.674    22367532.201    22367530.501
        46.000          46.750
 203910775.268 7                  38802915.970
        43.250
  30748738.508 7                   5851234.267
        44.000
 129036995.449 6                  24139037.430
        38.000
 120582604.161 7                  22533729.308
        42.750
 148366712.046 5                  28233247.700
        32.250
 123699647.544 6                  23156817.268
        39.750
 141514403.278 6                  26929258.415
        39.750
 129964448.679 7                  24278459.993
        42.500
 115729700.430 6                  21634416.270
        38.500
 113608098.412 7  88525797.82746  21618897.153    21618896.957    21618897.299
        47.250          38.500
 127457357.392 7                  24254305.226
        47.500
 107823454.871 8                  20191857.461
        51.500
 110283375.766 8                  20688877.539
        49.250
 133393410.496 7                  25383913.032
        44.500
 125776781.664 6                  23487927.167
        41.750
 102919500.447 7                  19246455.985
        42.250
 21 10 19  0 13 30.0000000  0 30E26G16E04G27G32E12E09G26G04G31S36G25
                                S25G29S23S48R01R21E19R16E21R07R19G18
                                E01R09R10E31R08R20
 126619749.346 7                  24094908.154
        47.250
 124298013.257 6  96855613.78043  23653122.244    23653121.390    23653119.998
        39.000          22.250
 138678118.013 6                  26389568.865
        40.500
 126938349.871 6  98913026.57544  24155561.628    24155561.007    24155567.002
        37.250          27.000
 123159165.227 7  95968179.97744  23436412.861    23436412.772    23436416.709
        43.000          29.000
 138931380.918 5                  26437765.275
        32.000
 131977210.841 6                  25114423.491
        41.000
 112591818.575 7  87733952.16646  21425489.192    21425488.763    21425490.750
        47.000          39.000
 133210129.736 6 103800102.03243  25349043.721    25349043.493    25349043.825
        36.250          20.500
 106823411.037 8  83239024.92649  20327815.195    20327814.914    20327813.327
        50.750          56.000
 195043850.935 7                  37115610.199
        47.000
 124436303.228 6  96963434.59346  23679421.398    23679420.580    23679422.837
        39.750          38.500
 183380333.837 7                  34896002.567
        45.750
 117627725.154 7  91658014.43747  22383792.086    22383791.613    22383789.861
        46.250          46.500
 203910685.990 7                  38802899.533
        44.500
  30749438.286 7                   5851265.850
        44.250
 129046934.745 6                  24140897.769
        38.750
 120454722.928 7                  22509830.502
        44.500
 148439400.718 5                  28247080.173
        34.250
 123771309.630 6                  23170232.862
        41.000
 141554253.793 6                  26936841.577
        40.000
 130057998.926 6                  24295938.151
        41.750
 115831697.156 6                  21653483.234
        38.750
 113554659.512 7  88484157.21546  21608728.031    21608727.835    21608728.141
        46.000          37.500
 127461595.936 7                  24255111.878
        47.500
 107833189.601 8                  20193680.343
        51.000
 110220434.628 8                  20677069.920
        49.500
 133353871.105 7                  25376388.873
        45.000
 125843537.752 7                  23500395.444
        42.000
 102889792.733 7                  19240900.101
        42.250
 21 10 19  0 14  0.0000000  0 30E26G16E04G27G32E12E09G26G04G31S36G25
                                S25G29S23S48R01R21E19R16E21R07R19G18
                                E01R09R10E31R08R20
 126626090.051 7                  24096114.702
        46.750
 124234710.856 6  96806287.25243  23641075.599    23641074.777    23641073.868
        39.750          23.250
 138742868.210 6                  26401890.494
        39.750
 126841204.458 6  98837329.21944  24137075.417    24137074.774    24137080.536
        37.500          26.750
 123252679.516 7  96041048.77845  23454207.604    23454207.524    23454210.860
        43.000          30.000
 138838681.978 6                  26420125.417
        36.000
 131988306.710 6                  25116535.029
        40.500
 112554408.468 7  87704801.43846  21418370.368    21418369.939    21418371.900
        46.750          38.750
 133146629.354 6 103750621.20543  25336959.426    25336959.198    25336959.846
        36.500          20.250
 106813450.002 8  83231263.07049  20325919.699    20325919.418    20325917.891
        50.750          56.000
 195043853.096 7                  37115611.429
        47.500
 124500863.930 6  97013741.60246  23691706.568    23691705.746    23691708.795
        39.000          37.750
 183377413.000 7                  34895345.659
        46.750
 117713344.692 7  91724730.97647  22400084.928    22400084.455    22400082.902
        45.500          46.250
 203910591.367 7                  38802880.350
        43.000
  30750133.872 7                   5851296.825
        44.250
 129057472.881 6                  24142869.628
        38.500
 120327076.617 7                  22485977.678
        45.500
 148511885.862 4                  28260874.343
        29.750
 123843235.207 6                  23183698.149
        41.250
 141594168.347 6                  26944437.237
        39.750
                                  24313385.318
        40.750
 115934148.209 6                  21672635.155
        39.500
 113501653.567 7  88442853.96746  21598641.165    21598640.973    21598641.395
        47.000          38.500
 127465884.893 8                  24255927.926
        48.000
 107843276.216 8                  20195569.447
        51.750
 110157613.199 8                  20665284.914
        49.750
 133314303.273 7                  25368859.217
        45.000
 125910624.731 6                  23512924.079
        41.000
 102860899.434 7                  19235497.368
        42.750
 21 10 19  0 14 30.0000000  0 30E26G16E04G27G32E12E09G26G04G31S36G25
                                S25G29S23S48R01R21E19R16E21R07R19G18
                                E01R09R10E31R08R20
 126632864.005 7                  24097403.567
        47.000
 124171471.654 6  96757009.98443  23629042.637    23629041.837    23629039.895
        39.500          23.000
 138807745.613 6                  26414236.060
        40.250
 126744275.998 6  98761800.90244  24118630.025    24118629.408    24118634.691
        37.750          26.000
 123346225.117 6  96113941.86644  23472008.423    23472008.352    23472011.830
        41.500          27.750
 138745936.473 6                  26402477.527
        37.500
 131999768.653 6                  25118716.195
        40.750
 112517100.969 7  87675730.66946  21411271.045    21411270.616    21411272.515
        47.000          38.750
 133083533.048 6 103701455.26043  25324953.401    25324953.200    25324952.985
        36.250          19.500
 106803955.449 8  83223864.71149  20324112.988    20324112.707    20324111.279
        51.000          56.250
 195043859.339 7                  37115611.456
        47.000
 124565474.751 6  97064087.67046  23704002.037    23704001.215    23704003.092
        39.500          36.500
 183372883.616 7                  34894688.550
        46.500
 117799142.375 7  91791586.31347  22416411.830    22416411.352    22416410.066
        45.250          46.250
 203910498.117 7                  38802862.691
        43.000
  30749230.546 7                   5851327.706
        44.250
 129068613.731 6                  24144954.487
        39.250
 120199676.355 7                  22462170.044
        46.250
 148584172.088 4                  28274628.732
        29.750
 123915430.149 7                  23197213.178
        42.000
 141634153.028 6                  26952046.000
        39.750
 130244636.069 7                  24330803.930
        44.500
 116037055.213 6                  21691873.590
        38.750
 113449088.412 7  88401894.18846  21588638.151    21588637.955    21588638.375
        46.250          37.500
 127470230.363 7                  24256754.918
        47.750
 107853721.853 8                  20197525.255
        50.750
 110094919.244 8                  20653523.741
        49.250
 133274712.555 7                  25361325.553
        44.750
 125978043.807 7                  23525514.261
        42.250
 102832826.419 7                  19230247.297
        42.750
 21 10 19  0 15  0.0000000  0 30E26G16E04G27G32E12E09G26G04G31S36G25
                                S25G29S23S48R01R21E19R16E21R07R19G18
                                E01R09R10E31R08R20
 126640071.196 7                  24098775.136
        46.500
 124108295.643 6  96707781.94543  23617019.626    23617018.848    23617017.898
        40.250          23.750
 138872748.229 6                  26426605.593
        40.500
 126647566.115 6  98686442.91044  24100227.102    24100226.490    24100231.268
        38.500          26.500
 123439799.122 6  96186857.02544  23489814.914    23489814.825    23489817.179
        38.750          29.000
 138653147.530 5                  26384820.428
        34.750
 132011595.950 6                  25120966.616
        40.500
 112479896.390 7  87646740.10846  21404191.222    21404190.793    21404192.390
        47.250          39.000
 133020842.756 5 103652605.66943  25313023.021    25313022.843    25313022.866
        35.000          19.000
 106794928.698 8  83216830.86249  20322395.261    20322394.975    20322393.425
        51.000          56.000
 195043860.444 7                  37115612.529
        47.000
 124630136.128 6  97114473.15246  23716306.353    23716305.531    23716307.615
        39.500          37.000
 183369944.810 7                  34894032.125
        46.500
 117885115.355 7  91858578.25547  22432771.824    22432771.355    22432769.994
        46.000          46.000
 203910405.849 7                  38802844.952
        43.000
  30749927.240 7                   5851358.927
        44.250
 129080355.851 6                  24147149.448
        39.000
 120072526.550 7                  22438408.647
        45.750
 148656256.982 5                  28288346.262
        31.000
 123987894.821 7                  23210779.673
        42.500
 141674208.554 6                  26959668.531
        39.250
 130337719.915 5                  24348189.471
        34.500
 116140413.781 6                  21711194.383
        38.250
 113396966.687 7  88361279.93246  21578719.399    21578719.203    21578719.731
        47.000          37.500
 127474633.134 7                  24257592.762
        47.500
 107864528.587 8                  20199549.027
        51.000
 110032354.905 8                  20641786.473
        49.250
 133235099.254 7                  25353787.180
        44.750
 126045790.963 6                  23538162.778
        40.500
 102805575.328 7                  19225150.825
        42.000
 21 10 19  0 15 30.0000000  0 30E26G16E04G27G32E12E09G26G04G31S36G25
                                S25G29S23S48R01R21E19R16E21R07R19G18
                                E01R09R10E31R08R20
 126647705.370 7                  24100227.699
        46.750
 124045176.938 6  96658598.57744  23605008.913    23605008.135    23605006.958
        40.000          24.000
 138937867.871 6                  26438997.952
        40.500
 126551070.181 6  98611251.59844  24081863.950    24081863.320    24081868.809
        39.750          26.750
 123533391.756 6  96259786.39844  23507624.412    23507624.323    23507628.349
        40.250          29.250
 138560310.036 5                  26367154.340
        32.000
 132023781.714 6                  25123285.410
        41.000
 112442788.933 7  87617825.22546  21397129.990    21397129.566    21397131.344
        47.750          39.750
 132958554.147 6 103604069.09143  25301169.661    25301169.496    25301171.224
        36.000          21.000
 106786364.508 8  83210157.45849  20320765.485    20320765.204    20320763.523
        51.000          56.000
 195043859.757 7                  37115613.611
        46.750
 124694842.273 6  97164893.51846  23728619.776    23728618.958    23728621.252
        40.250          37.500
 183366994.686 7                  34893370.660
        46.500
 117971255.263 7  91925700.27147  22449163.770    22449163.297    22449161.822
        45.750          46.000
 203910308.643 7                  38802826.229
        43.500
  30750618.351 7                   5851389.459
        44.250
 129092691.509 6                  24149459.338
        38.000
 119945624.550 8                  22414693.395
        48.500
 148728133.870 5                  28302024.063
        32.500
 124060623.208 6                  23224393.359
        41.500
 141714329.533 6                  26967303.094
        40.250
 130430636.274 6                  24365547.925
        40.000
 116244213.522 6                  21730599.189
        38.500
 113345284.692 7  88321008.29046  21568884.852    21568884.665    21568885.023
        47.000          38.500
 127479087.875 7                  24258440.320
        47.750
 107875691.802 8                  20201639.571
        51.250
 109969917.156 8                  20630073.197
        49.250
 133195457.433 7                  25346243.696
        45.000
 126113856.345 7                  23550875.633
        42.000
 102779140.868 7                  19220207.473
        42.750
 21 10 19  0 16  0.0000000  0 30E26G16E04G27G32E12E09G26G04G31S36G25
                                S25G29S23S48R01R21E19R16E21R07R19G18
                                E01R09R10E31R08R20
 126655772.575 7                  24101762.701
        46.750
 123982120.906 6  96609464.02744  23593009.980    23593009.180    23593007.654
        39.750          24.000
 139003108.786 6                  26451412.928
        39.500
 126454795.893 6  98536232.96444  24063543.875    24063543.254    24063547.512
        39.500          26.750
 123627006.923 6  96332733.15044  23525438.998    23525438.918    23525442.318
        40.000          28.250
 138467432.339 5                  26349480.572
        33.000
 132036331.467 6                  25125673.746
        40.000
 112405785.163 7  87588991.13146  21390088.179    21390087.755    21390090.175
        47.250          39.750
 132896675.165 5 103555851.73143  25289395.710    25289395.523    25289395.023
        35.500          18.000
 106778270.468 8  83203850.40349  20319225.308    20319225.027    20319223.295
        50.750          56.250
 195043868.916 7                  37115614.277
        46.500
 124759599.852 6  97215353.96646  23740942.706    23740941.893    23740944.391
        39.000          37.000
 183362435.523 7                  34892708.573
        46.500
 118057566.341 7  91992955.66647  22465588.134    22465587.661    22465586.132
        45.000          45.750
 203910213.537 7                  38802807.319
        43.250
  30749709.566 7                   5851420.130
        44.000
 129105625.288 5                  24151873.750
        35.250
 119818979.607 7                  22391026.319
        46.750
 148799807.148 5                  28315664.314
        31.000
 124133621.032 6                  23238059.044
        41.750
 141754522.890 6                  26974952.021
        40.000
 130523387.548 7                  24382874.714
        43.250
 116348456.687 6                  21750085.450
        38.250
 113294051.298 7  88281086.20846  21559135.671    21559135.479    21559135.678
        46.500          37.750
 127483601.525 7                  24259299.342
        47.250
 107887220.004 8                  20203798.666
        51.500
 109907613.986 8                  20618385.452
        49.500
 133155793.634 7                  25338695.844
        44.500
 126182242.094 6                  23563645.877
        41.000
 102753529.947 7                  19215418.128
        42.250
 21 10 19  0 16 30.0000000  0 30E26G16E04G27G32E12E09G26G04G31S36G25
                                S25G29S23S48R01R21E19R16E21R07R19G18
                                E01R09R10E31R08R20
 126664272.674 7                  24103380.427
        46.500
 123919127.644 6  96560378.37143  23581022.477    23581021.677    23581020.504
        39.750          23.500
 139068469.388 6                  26463850.917
        40.500
 126358744.786 6  98461388.23744  24045265.230    24045264.649    24045269.978
        39.250          27.250
 123720640.655 6  96405693.60744  23543257.627    23543257.556    23543261.698
        41.500          25.750
 138374516.320 5                  26331799.340
        35.250
 132049244.163 6                  25128130.660
        40.250
 112368885.388 7  87560238.06846  21383066.554    21383066.130    21383068.033
        46.750          39.250
 132835207.567 5 103507954.87343  25277697.688    25277697.528    25277698.417
        35.500          20.250
 106770647.647 8  83197910.54149  20317774.754    20317774.473    20317772.960
        51.250          56.750
 195043874.114 8                  37115614.760
        48.000
 124824409.213 6  97265854.72846  23753275.269    23753274.451    23753277.694
        40.250          38.750
 183359471.227 7                  34892046.152
        46.750
 118144045.558 7  92060342.07847  22482044.821    22482044.348    22482042.704
        45.500          46.000
 203910119.931 7                  38802788.999
        43.750
  30750402.738 7                   5851452.437
        44.000
 129119155.949 5                  24154407.102
        33.750
 119692596.622 7                  22367408.136
        46.750
 148871276.543 4                  28329263.639
        24.500
 124206888.869 6                  23251774.921
        41.250
 141794789.342 6                  26982614.130
        40.000
 130615970.484 7                  24400169.788
        45.250
 116453138.859 6                  21769654.655
        38.500
 113243269.034 7  88241515.71346  21549471.964    21549471.777    21549472.127
        47.000          38.500
 127488174.887 7                  24260169.651
        47.500
 107899114.657 8                  20206025.967
        51.250
 109845448.024 8                  20606723.255
        49.750
 133116108.062 7                  25331143.938
        44.250
 126250943.848 7                  23576476.347
        42.750
 102728743.572 6                  19210783.026
        41.750
 21 10 19  0 17  0.0000000  0 30E26G16E04G27G32E12E09G26G04G31S36G25
                                S25G29S23S48R01R21E19R16E21R07R19G18
                                E01R09R10E31R08R20
 126673204.138 7                  24105079.947
        46.750
 123856195.738 6  96511340.58644  23569047.287    23569046.474    23569045.468
        39.500          24.250
 139133946.450 6                  26476310.961
        41.000
 126262916.862 6  98386717.38244  24027029.530    24027028.936    24027033.306
        40.000          26.500
 123814291.666 6  96478668.41044  23561078.743    23561078.672    23561082.894
        40.000          28.250
 138281562.174 5                  26314110.880
        35.000
 132062517.871 6                  25130656.866
        40.750
 112332088.526 7  87531565.20746  21376064.233    21376063.809    21376065.513
        47.000          39.500
 132774151.701 5 103460378.91742  25266080.232    25266080.045    25266079.764
        32.250          16.750
 106763495.875 8  83192337.72449  20316413.838    20316413.552    20316412.053
        51.000          56.750
 195043882.642 7                  37115614.944
        47.000
 124889269.375 6  97316395.07546  23765618.001    23765617.197    23765619.815
        39.750          38.250
 183356497.700 7                  34891380.341
        46.500
 118230689.883 7  92127857.13647  22498532.470    22498532.001    22498531.079
        45.000          46.500
 203910026.342 7                  38802770.692
        44.000
  30751095.698 7                   5851483.403
        44.000
 129133280.320 5                  24157050.503
        34.000
 119566477.869 7                  22343839.085
        46.500
 148942538.913 5                  28342824.272
        34.500
 124280424.877 6                  23265541.234
        41.000
 141835128.157 6                  26990290.356
        39.750
 130708378.918 4                  24417430.504
        29.500
 116558254.798 6                  21789306.214
        39.000
 113192938.806 7  88202297.38946  21539894.272    21539894.085    21539894.466
        47.000          37.750
 127492807.383 7                  24261051.150
        47.750
 107911376.181 8                  20208322.206
        51.750
 109783420.016 8                  20595087.121
        49.750
 133076399.560 7                  25323587.643
        44.750
 126319956.747 6                  23589363.310
        40.750
 102704781.270 7                  19206301.433
        42.000
 21 10 19  0 17 30.0000000  0 30E26G16E04G27G32E12E09G26G04G31S36G25
                                S25G29S23S48R01R21E19R16E21R07R19G18
                                E01R09R10E31R08R20
 126682564.886 7                  24106861.021
        46.750
 123793323.154 6  96462349.08344  23557082.015    23557081.197    23557080.922
        40.000          24.250
 139199535.742 6                  26488792.306
        41.500
 126167311.710 6  98312220.13844  24008835.966    24008835.354    24008840.143
        40.250          27.000
 123907954.019 6  96551652.22844  23578902.245    23578902.174    23578906.571
        41.750          27.500
 138188569.770 5                  26296414.791
        35.000
 132076149.874 6                  25133251.082
        39.750
 112295393.056 7  87502971.35146  21369081.352    21369080.932    21369082.734
        47.000          39.500
 132713507.449 5 103413123.65243  25254539.185    25254539.011    25254539.450
        35.000          20.000
 106756814.328 8  83187131.31549  20315142.423    20315142.142    20315140.391
        50.500          56.250
 195043885.052 7                  37115616.661
        47.750
 124954178.824 6  97366973.84946  23777969.960    23777969.147    23777971.733
        39.500          38.250
 183351927.228 7                  34890713.000
        46.500
 118317495.111 7  92195497.57047  22515050.833    22515050.364    22515049.588
        45.000          46.000
 203909931.026 7                  38802753.346
        42.250
  30750185.782 7                   5851514.154
        44.250
 129147994.841 5                  24159802.286
        34.250
 119440625.226 7                  22320319.241
        46.500
 149013590.814 5                  28356345.243
        32.500
 124354227.312 6                  23279357.553
        41.250
 141875538.194 6                  26997980.186
        40.250
 130800608.179 7                  24434662.274
        43.000
 116663798.100 6                  21809034.721
        38.250
 113143061.309 7  88163431.85146  21530402.688    21530402.501    21530403.044
        46.750          38.250
 127497497.788 7                  24261943.734
        47.750
 107924004.634 8                  20210687.017
        51.250
 109721530.977 8                  20583476.635
        49.750
 133036666.555 7                  25316026.639
        45.250
 126389274.220 7                  23602309.055
        42.250
 102681641.210 7                  19201974.625
        42.500
 21 10 19  0 18  0.0000000  0 30E26G16E04G27G32E12E09G26G04G31S36G25
                                S25G29S23S48R01R21E19R16E21R07R19G18
                                E01R09R10E31R08R20
 126692352.675 7                  24108723.264
        46.500
 123730507.686 6  96413402.11044  23545128.923    23545128.110    23545127.152
        39.250          24.250
 139265233.286 6                  26501294.390
        41.500
 126071928.738 6  98237896.01444  23990685.252    23990684.640    23990689.027
        41.250          27.250
 124001622.675 6  96624641.09444  23596726.364    23596726.311    23596730.638
        41.500          26.000
 138095539.037 5                  26278711.489
        34.500
 132090137.425 6                  25135912.325
        40.000
 112258797.279 7  87474455.17646  21362117.221    21362116.801    21362118.745
        47.250          39.750
 132653274.503 5 103366188.86742  25243077.254    25243077.094    25243077.076
        33.750          16.750
 106750602.220 8  83182290.70449  20313960.354    20313960.068    20313958.166
        51.000          56.500
 195043884.644 7                  37115617.090
        47.500
 125019135.954 6  97417589.77146  23790330.868    23790330.059    23790333.042
        39.000          37.750
 183348939.290 7                  34890043.388
        47.000
 118404456.612 7  92263259.78347  22531599.263    22531598.794    22531597.302
        44.750          45.500
 203909832.034 7                  38802734.002
        43.250
  30750872.658 7                   5851543.770
        44.250
 129163295.445 5                  24162666.840
        35.750
 119315040.877 7                  22296851.038
        46.750
 149084429.429 4                  28369825.433
        24.000
 124428294.448 6                  23293222.818
        41.000
 141916018.128 6                  27005683.442
        40.000
 130892698.23817                  24451857.224
        44.000
 116769762.721 6                  21828844.390
        38.250
 113093636.972 7  88124919.42246  21520997.744    21520997.561    21520997.943
        47.750          39.000
 127502244.925 7                  24262847.101
        47.250
 107936999.598 8                  20213120.486
        51.000
 109659781.263 8                  20571892.330
        49.500
 132996907.307 7                  25308460.852
        44.750
 126458890.553 6                  23615308.836
        40.000
 102659322.261 7                  19197800.915
        42.000
 21 10 19  0 18 30.0000000  0 30E26G16E04G27G32E12E09G26G04G31S36G25
                                S25G29S23S48R01R21E19R16E21R07R19G18
                                E01R09R10E31R08R20
 126702573.161 7                  24110668.385
        46.500
 123667754.644 6  96364503.69344  23533187.391    23533186.578    23533185.461
        39.750          24.000
 139331042.952 6                  26513817.518
        40.500
 125976775.135 6  98163750.61544  23972578.185    23972577.609    23972581.276
        40.750          27.250
 124095300.689 7  96697637.55544  23614552.365    23614552.361    23614556.224
        45.250          29.250
 138002477.521 5                  26261002.200
        33.500
 132104485.053 6                  25138642.878
        40.250
 112222307.373 7  87446021.49646  21355173.512    21355173.092    21355174.731
        47.500          39.750
 132593460.366 5 103319580.45143  25231694.704    25231694.526    25231694.489
        34.250          19.250
 106744866.616 8  83177821.37549  20312868.796    20312868.515    20312866.862
        51.250          56.750
 195043888.868 7                  37115617.331
        47.250
 125084146.940 6  97468247.66246  23802702.195    23802701.382    23802703.844
        39.250          36.750
 183345937.308 7                  34889373.172
        46.250
 118491577.816 7  92331146.45047  22548177.676    22548177.203    22548175.525
        45.250          45.250
 203909734.990 7                  38802715.217
        42.500
  30751559.736 7                   5851575.635
        44.000
 129179186.868 6                  24165639.094
        37.500
 119189734.910 7                  22273433.887
        47.000
 149155069.05114                  28383265.556
        29.750
 124502631.896 6                  23307138.841
        40.500
 141956574.461 6                  27013400.636
        39.000
                                  24469019.985
        38.250
 116876150.343 6                  21848732.328
        38.500
 113044673.959 7  88086766.44146  21511680.465    21511680.278    21511680.638
        46.750          38.500
 127507055.381 7                  24263762.427
        47.500
 107950368.605 8                  20215624.393
        51.750
 109598179.170 8                  20560336.612
        49.500
 132957127.821 7                  25300890.955
        44.750
 126528807.252 6                  23628365.656
        41.500
 102637831.256 6                  19193782.019
        41.750
 21 10 19  0 19  0.0000000  0 30E26G16E04G27G32E12E09G26G04G31S36G25
                                S25G29S23S48R01R21E19R16E21R07R19G18
                                E01R09R10E31R08R20
 126713223.252 7                  24112694.845
        46.500
 123605061.135 6  96315651.61544  23521256.899    23521256.090    23521255.664
        40.000          24.000
 139396960.002 6                  26526361.138
        41.500
 125881849.534 7  98089782.88444  23954513.910    23954513.347    23954517.500
        42.000          28.000
 124188981.864 7  96770636.25145  23632378.484    23632378.417    23632382.701
        44.000          30.000
 137909384.274 5                  26243287.565
        34.500
 132119189.256 6                  25141440.544
        40.500
 112185920.935 7  87417668.43846  21348249.348    21348248.933    21348250.862
        47.500          40.000
 132534063.898 5 103273297.48343  25220393.081    25220392.880    25220391.784
        35.250          18.750
 106739605.345 8  83173721.66549  20311867.678    20311867.397    20311865.836
        51.000          55.750
 195043891.203 7                  37115618.203
        47.250
 125149209.381 6  97518945.66146  23815083.474    23815082.647    23815084.532
        39.250          37.250
 183342934.723 7                  34888700.551
        46.250
 118578853.160 7  92399153.21847  22564785.568    22564785.086    22564783.668
        45.000          45.750
 203909638.523 7                  38802698.591
        43.000
  30750645.450 7                   5851604.674
        44.250
 129195663.975 6                  24168720.813
        37.500
 119064705.760 7                  22250069.003
        47.250
 149225485.725 5                  28396665.619
        33.000
 124577236.442 6                  23321104.640
        39.000
 141997205.117 6                  27021132.728
        40.500
 131076262.402 5                  24486144.935
        32.750
 116982953.765 6                  21868697.729
        38.250
 112996171.975 8  88048972.72146  21502450.722    21502450.535    21502450.923
        48.000          38.250
 127511927.145 7                  24264689.527
        47.500
 107964111.001 8                  20218197.549
        51.250
 109536724.017 8                  20548807.488
        49.750
 132917325.664 7                  25293316.864
        44.750
 126599017.121 6                  23641476.806
        40.500
 102617165.996 6                  19189917.864
        41.250
 21 10 19  0 19 30.0000000  0 30E26G16E04G27G32E12E09G26G04G31S36G25
                                S25G29S23S48R01R21E19R16E21R07R19G18
                                E01R09R10E31R08R20
 126724301.402 7                  24114802.994
        46.500
 123542425.874 6  96266844.92843  23509338.274    23509337.470    23509336.339
        40.000          23.500
 139462981.055 6                  26538924.605
        40.000
 125787152.026 6  98015992.86044  23936492.988    23936492.412    23936496.427
        40.500          27.750
 124282661.699 7  96843633.80444  23650205.652    23650205.576    23650208.440
        44.000          29.500
 137816259.767 5                  26225566.080
        34.500
 132134247.761 6                  25144306.573
        40.000
 112149636.898 7  87389395.17046  21341344.704    21341344.289    21341346.623
        47.000          40.250
 132475085.424 5 103227340.21943  25209169.442    25209169.286    25209168.615
        35.250          18.750
 106734818.305 8  83169991.49949  20310956.671    20310956.390    20310954.904
        51.000          56.250
 195043889.936 7                  37115618.239
        47.250
 125214322.289 6  97569682.95746  23827473.733    23827472.911    23827475.327
        39.750          37.750
 183338323.666 7                  34888027.706
        46.500
 118666280.006 7  92467278.02947  22581422.634    22581422.152    22581420.881
        45.000          46.250
 203909539.839 7                  38802678.590
        43.750
  30751329.564 7                   5851635.174
        44.250
 129212724.063 6                  24171910.556
        37.250
 118939958.219 8                  22226756.500
        48.000
 149295686.330 5                  28410023.617
        34.000
 124652107.452 6                  23335121.267
        39.750
 142037909.370 6                  27028878.578
        40.750
 131167719.27716                  24503233.719
        38.000
 117090167.580 6                  21888741.570
        38.250
 112948132.027 7  88011539.03946  21493309.064    21493308.872    21493309.133
        47.250          38.750
 127516859.633 7                  24265628.128
        47.750
 107978226.846 8                  20220841.064
        51.000
 109475417.366 8                  20537306.703
        49.750
 132877499.728 7                  25285738.208
        44.750
 126669515.864 7                  23654642.316
        42.000
 102597325.438 6                  19186206.708
        41.250
 21 10 19  0 20  0.0000000  0 30E26G16E04G27G32E12E09G26G04G31S36G25
                                S25G29S23S48R01R21E19R16E21R07R19G18
                                E01R09R10E31R08R20
 126735809.521 7                  24116992.861
        46.000
 123479850.875 6  96218085.18944  23497430.472    23497429.668    23497428.565
        39.750          24.000
 139529106.414 6                  26551507.849
        41.500
 125692686.160 6  97942383.34944  23918516.810    23918516.247    23918520.071
        40.250          26.750
 124376340.038 6  96916630.11444  23668031.856    23668031.772    23668035.019
        38.500          29.250
 137723108.165 5                  26207840.219
        34.000
 132149661.884 6                  25147239.739
        39.750
 112113457.832 7  87361203.70246  21334460.166    21334459.751    21334462.095
        46.750          40.250
 132416528.836 5 103181711.70543  25198026.150    25198026.016    25198026.056
        34.500          18.750
 106730508.584 8  83166633.26749  20310136.600    20310136.314    20310134.732
        51.000          57.000
 195043890.963 7                  37115619.630
        47.000
 125279488.290 6  97620461.63246  23839874.373    23839873.555    23839876.277
        38.750          37.750
 183335312.749 7                  34887353.564
        45.750
 118753857.859 7  92535520.51047  22598087.863    22598087.390    22598086.314
        45.000          45.750
 203909442.820 7                  38802660.212
        44.250
  30752014.821 7                   5851664.392
        44.000
 129230367.040 6                  24175210.445
        37.750
 118815497.534 8                  22203497.547
        48.000
 149365672.307 5                  28423341.902
        31.250
 124727246.819 6                  23349187.670
        38.750
 142078690.164 6                  27036638.641
        38.500
 131259008.165 7                  24520288.865
        45.250
 117197789.754 6                  21908860.392
        37.500
 112900558.579 7  87974468.81846  21484255.903    21484255.711    21484256.150
        46.500          38.000
 127521855.828 7                  24266579.000
        47.250
 107992720.045 8                  20223555.309
        51.250
 109414263.544 8                  20525834.736
        49.750
 132837652.491 7                  25278155.502
        44.250
 126740300.843 6                  23667859.685
        40.250
 102578311.949 7                  19182651.540
        42.500
 21 10 19  0 20 30.0000000  0 30E26G16E04G27G32E12E09G26G04G31S36G25
                                S25G29S23S48R01R21E19R16E21R07R19G18
                                E01R09R10E31R08R20
 126747751.467 7                  24119265.410
        46.250
 123417340.021 6  96169375.44544  23485534.972    23485534.168    23485533.821
        39.750          24.250
 139595337.950 6                  26564111.067
        40.750
 125598457.492 6  97868958.66544  23900585.592    23900585.047    23900589.428
        39.500          27.500
 124470018.152 7  96989626.22945  23685858.154    23685858.078    23685860.946
        44.000          30.750
 137629935.237 5                  26190110.077
        34.000
 132165434.640 6                  25150241.682
        39.500
 112077388.238 7  87333097.53546  21327596.450    21327596.030    21327598.280
        47.250          40.000
 132358399.784 5 103136416.35843  25186964.018    25186963.849    25186964.393
        34.500          19.250
 106726681.543 8  83163651.15849  20309408.294    20309408.008    20309406.493
        50.750          56.250
 195043902.655 7                  37115620.569
        47.500
 125344711.829 6  97671285.15146  23852285.876    23852285.058    23852287.967
        39.750          38.250
 183332295.021 7                  34886679.225
        45.750
 118841587.921 7  92603881.60747  22614782.727    22614782.254    22614780.491
        44.250          44.750
 203909349.331 7                  38802642.432
        42.500
  30751103.947 7                   5851697.066
        44.000
 129248595.529 6                  24178622.101
        38.250
 118691331.826 8                  22180293.609
        48.000
 149435446.575 5                  28436619.356
        31.500
 124802658.186 6                  23363303.926
        36.500
 142119552.254 6                  27044415.027
        40.250


 117305820.109 6                  21929055.083
        38.000
 112853458.304 7  87937767.35846  21475293.159    21475292.967    21475293.315
        46.500          38.250
 127526920.615 7                  24267542.956
        47.000
 108007596.615 8                  20226341.229
        51.500
 109353269.907 8                  20514391.858
        49.500
 132797788.369 7                  25270569.731
        44.250
 126811372.574 6                  23681132.255
        41.500
 102560130.477 7                  19179250.450
        42.750
 21 10 19  0 21  0.0000000  0 30E26G16E04G27G32E12E09G26G04G31S36G25
                                S25G29S23S48R01R21E19R16E21R07R19G18
                                E01R09R10E31R08R20
 126760113.700 7                  24121617.892
        46.250
 123354880.046 6  96120705.38243  23473649.495    23473648.686    23473646.964
        40.250          23.750
 139661660.517 6                  26576731.867
        40.750
 125504454.190 6  97795709.58744  23882697.119    23882696.583    23882700.737
        40.000          27.250
 124563679.561 6  97062609.11644  23703681.541    23703681.461    23703684.914
        40.500          25.500
 137536729.753 5                  26172373.602
        34.000
 132181552.424 6                  25153308.656
        40.000
 112041415.279 7  87305066.66846  21320750.903    21320750.488    21320752.476
        47.750          40.000
 132300686.697 6 103091445.11143  25175981.519    25175981.354    25175981.784
        36.250          20.250
 106723325.068 8  83161035.72349  20308769.662    20308769.376    20308767.766
        51.750          57.500
 195043905.311 7                  37115620.189
        47.000
 125409980.143 6  97722143.54446  23864705.924    23864705.115    23864708.288
        39.500          38.000
 183327663.062 7                  34885999.409
        46.500
 118929455.236 7  92672349.65247  22631502.987    22631502.514    22631501.081
        44.750          44.750
 203909247.750 7                  38802622.614
        42.500
  30751783.831 7                   5851726.436
        44.000
 129267394.270 6                  24182139.448
        39.750
 118567451.855 8                  22157143.591
        48.500
 149504994.491 4                  28449854.175
        26.250
 124878328.543 5                  23377469.407
        35.250
 142160483.170 6                  27052203.686
        40.250
 131441004.63316                  24554284.246
        40.750
 117414241.031 6                  21949323.236
        38.000
 112806820.217 7  87901426.02946  21466418.467    21466418.289    21466418.307
        47.000          38.500
 127532041.586 7                  24268517.246
        47.250
 108022844.900 8                  20229196.791
        51.000
 109292425.138 8                  20502977.660
        49.500
 132757894.460 7                  25262977.945
        44.750
 126882712.722 6                  23694454.228
        40.250
 102542767.964 7                  19176003.868
        42.250
 21 10 19  0 21 30.0000000  0 31E26G16E04G27G32E12E09G26G04G31S36G25
                                S25G29S23S48R01R21E19E24R16E21R07R19
                                G18E01R09R10E31R08R20
 126772908.940 7                  24124052.864
        46.500
 123292483.774 6  96072084.89443  23461775.485    23461774.663    23461773.702
        39.000          23.750
 139728085.191 6                  26589371.803
        40.750
 125410690.607 6  97722647.29744  23864854.477    23864853.963    23864857.720
        40.000          27.500
 124657334.782 7  97135587.15944  23721503.319    23721503.261    23721506.208
        42.500          29.000
 137443506.561 5                  26154634.265
        34.500
 132198027.051 6                  25156444.348
        40.000
 112005552.388 7  87277121.56546  21313926.261    21313925.846    21313927.533
        47.250          39.750
 132243404.163 5 103046809.40443  25165082.079    25165081.914    25165082.562
        34.500          19.000
 106720452.736 8  83158797.52949  20308223.087    20308222.801    20308221.133
        51.250          57.000
 195043909.067 7                  37115620.126
        47.250
 125475306.594 6  97773047.25546  23877137.379    23877136.575    23877139.255
        39.000          38.000
 183324633.825 7                  34885320.603
        46.000
 119017470.633 7  92740933.08447  22648251.849    22648251.376    22648250.062
        44.500          44.750
 203909151.331 7                  38802602.805
        43.500
  30752470.044 7                   5851756.373
        43.750
 129286774.610 6                  24185765.314
        38.250
 118443874.258 8                  22134049.891
        48.500
 149574328.114 5                  28463048.101
        32.250
 153244178.28215                  29161397.839
        33.500
 124954271.224 5                  23391686.160
        34.750
 142201496.593 6                  27060008.486
        39.750
 131531694.355 7                  24571226.734
        44.000
 117523061.623 6                  21969666.799
        38.000
 112760659.671 7  87865456.81446  21457634.171    21457634.002    21457634.234
        47.500          38.750
 127537232.570 7                  24269505.026
        47.250
 108038479.753 8                  20232124.513
        51.250
 109231744.970 8                  20491594.149
        49.750
 132717984.081 7                  25255383.262
        44.750
 126954331.220 6                  23707828.757
        41.000
 102526238.146 7                  19172913.090
        42.250
 21 10 19  0 22  0.0000000  0 30E26G16E04G27G32E12E09G26G04G31S36G25
                                S25G29S23S48R01R21E19E24R16E21R19G18
                                E01R09R10E31R08R20
 126786128.660 7                  24126568.394
        46.250
 123230142.620 6  96023507.38944  23449912.073    23449911.260    23449910.912
        40.750          24.500
 139794601.894 6                  26602029.709
        40.000
 125317159.905 6  97649766.47144  23847056.001    23847055.492    23847058.820
        39.500          27.500
 124750972.874 7  97208551.74344  23739322.207    23739322.140    23739325.275
        43.000          28.250
 137350259.135 5                  26136889.248
        34.500
 132214849.320 6                  25159645.590
        40.000
 111969791.716 7  87249256.11046  21307121.179    21307120.768    21307122.671
        47.500          40.250
 132186545.534 5 103002503.96642  25154262.655    25154262.468    25154261.700
        35.000          17.750
 106718057.507 8  83156931.08649  20307767.208    20307766.922    20307765.349
        50.500          55.750
 195043903.969 7                  37115621.101
        47.500
 125540683.375 6  97823990.15646  23889578.326    23889577.517    23889579.748
        38.250          36.500
 183321588.346 7                  34884640.268
        46.250
 119105623.648 7  92809623.75147  22665026.574    22665026.109    22665024.992
        44.000          45.000
 203909052.098 7                  38802587.257
        42.750
  30751550.846 7                   5851787.165
        44.250
 129306726.246 6                  24189497.449
        38.500
 118320594.540 8                  22111012.050
        48.000
 149643437.771 5                  28476198.479
        33.250
 153192346.636 5                  29151534.414
        32.000
 125030477.166 5                  23405952.420
        31.250
 142242585.001 6                  27067827.130
        39.250
 117632269.550 6                  21990081.305
        38.000
 112714970.712 7  87829855.07146  21448939.788    21448939.619    21448939.937
        47.250          38.000
 127542486.161 7                  24270504.847
        47.500
 108054494.553 8                  20235123.927
        51.750
 109171223.708 8                  20480240.394
        49.750
 132678049.350 7                  25247783.947
        45.000
 127026215.306 6                  23721253.101
        40.000
 102510532.684 6                  19169976.406
        41.250
 21 10 19  0 22 30.0000000  0 30E26G16E04G27G32E12E09G26G04G31S36G25
                                S25G29S23S48R01R21E19E24R16E21R19G18
                                E01R09R10E31R08R20
 126799778.505 7                  24129165.875
        47.000
 123167862.469 6  95974977.41544  23438060.978    23438060.151    23438059.453
        40.000          25.000
 139861214.517 6                  26614705.743
        40.500
 125223869.407 6  97577072.80744  23829302.829    23829302.324    23829306.085
        39.500          28.000
 124844596.987 7  97281505.48444  23757138.181    23757138.110    23757141.118
        42.000          29.250
 137256995.423 6                  26119141.558
        36.000
 132232023.956 6                  25162914.642
        40.500
 111934139.687 7  87221475.31246  21300336.900    21300336.480    21300338.571
        47.750          40.250
 132130118.447 6 102958534.80543  25143524.189    25143524.020    25143524.507
        36.000          19.000
 106716146.670 8  83155442.12249  20307403.559    20307403.273    20307401.909
        51.000          56.500
 195043903.408 7                  37115622.514
        47.250
 125606116.868 6  97874977.27546  23902029.789    23902028.980    23902031.128
        39.000          36.500
 183316938.024 7                  34883958.024
        46.000
 119193917.647 7  92878424.26847  22681828.788    22681828.332    22681826.922
        44.500          45.250
 203908954.231 7                  38802565.368
        43.000
  30752233.071 7                   5851817.384
        44.250
 129327252.953 6                  24193336.396
        37.000
 118197622.699 7                  22088031.784
        47.500
 149712328.146 4                  28489308.305
        26.250
                                  29141655.209
        24.000
 125106952.620 4                  23420270.989
        29.000
 142283755.052 6                  27075662.037
        41.250
 117741866.445 6                  22010570.011
        38.500
 112669761.628 7  87794627.25246  21440336.605    21440336.431    21440336.929
        47.000          39.250
 127547809.096 7                  24271517.775
        47.750
 108070897.236 8                  20238195.190
        51.500
 109110869.928 8                  20468918.145
        49.750
 132638096.570 7                  25240181.229
        45.000
 127098366.737 6                  23734727.194
        41.250
 102495658.244 7                  19167194.351
        43.000
 21 10 19  0 23  0.0000000  0 30E26G16E04G27G32E12E09G26G04G31S36G25
                                S25G29S23S48R01R21E19E24R16E21R19G18
                                E01R09R10E31R08R20
 126813852.500 7                  24131844.132
        46.500
 123105637.932 6  95926490.78344  23426220.274    23426219.420    23426218.861
        41.000          26.000
 139927915.463 6                  26627398.354
        39.750
 125130814.888 6  97504563.00644  23811595.281    23811594.767    23811597.780
        40.250          28.000
 124938197.859 7  97354440.58344  23774950.468    23774950.397    23774953.505
        42.750          29.000
 137163711.843 5                  26101390.176
        35.500
 132249545.651 6                  25166248.997
        41.000
 111898591.071 7  87193775.09646  21293572.192    21293571.777    21293573.789
        47.750          40.250
 132074118.852 6 102914898.77243  25132868.337    25132868.136    25132868.130
        36.500          18.500
 106714715.103 8  83154326.62249  20307131.208    20307130.922    20307129.561
        51.250          57.250
 195043908.206 7                  37115622.863
        46.500
 125671601.830 6  97926004.49546  23914491.383    23914490.574    23914492.686
        39.750          37.000
 183313877.024 7                  34883274.304
        46.500
 119282344.692 7  92947328.45647  22698655.650    22698655.185    22698654.188
        44.750          45.000
 203908853.432 7                  38802546.436
        43.750
  30752912.757 7                   5851847.147
        44.250
 129348347.396 6                  24197283.071
        37.250
 118074957.159 7                  22065107.957
        47.250
 149780992.725 4                  28502374.602
        29.500
                                  29131765.004
        29.000
                                  23434630.977
        24.250
 142325001.794 6                  27083510.875
        40.250
 117851842.407 6                  22031127.106
        37.750
 112625029.060 7  87759770.73746  21431824.426    21431824.243    21431824.512
        47.250          38.750
 127553196.615 7                  24272543.014
        47.500
 108087683.377 8                  20241338.836
        51.250
 109050680.507 8                  20457627.104
        50.250
 132598120.467 7                  25232574.237
        44.500
 127170775.476 6                  23748248.716
        40.000
 102481608.754 7                  19164567.251
        42.500
 21 10 19  0 23 30.0000000  0 29E26G16E04G27G32E12E09G26G04G31S36G25
                                S25G29S23S48R01R21E19E24E21R19G18E01
                                R09R10E31R08R20
 126828353.985 7                  24134603.573
        46.500
 123043472.281 6  95878050.06544  23414390.510    23414389.674    23414388.195
        40.500          26.250
 139994706.157 6                  26640108.090
        41.000
 125038001.305 6  97432240.94544  23793933.347    23793932.865    23793935.801
        40.250          28.250
 125031777.389 6  97427359.09044  23792758.510    23792758.421    23792762.256
        41.750          29.250
 137070414.154 5                  26083635.836
        34.500
 132267416.507 6                  25169649.737
        40.500
 111863149.910 7  87166158.61346  21286828.103    21286827.688    21286829.513
        47.500          40.250
 132018551.926 6 102871599.84543  25122294.056    25122293.851    25122293.798
        36.250          19.250
 106713767.434 8  83153588.17949  20306950.755    20306950.469    20306949.001
        51.250          57.000
 195043911.025 7                  37115623.154
        47.000
 125737142.347 6  97977075.00846  23926963.132    23926962.328    23926964.824
        39.250          37.500
 183310810.836 7                  34882589.927
        46.500
 119370906.449 7  93016337.61847  22715508.482    22715508.009    22715506.865
        44.250          44.750
 203908753.238 7                  38802527.843
        44.000
  30751991.656 7                   5851875.685
        44.250
 129370011.129 6                  24201335.426
        36.000
 117952605.320 7                  22042243.539
        47.500
 149849433.781 4                  28515397.631
        27.250
                                  29121857.221
        32.000
 142366329.575 6                  27091375.001
        38.750
 117962197.116 6                  22051757.462
        36.750
 112580778.878 7  87725290.08246  21423403.821    21423403.634    21423403.946
        47.750          37.750
 127558653.171 7                  24273581.291
        47.750
 108104858.496 8                  20244555.537
        51.500
 108990661.796 8                  20446367.469
        50.250
 132558125.017 7                  25224963.170
        44.750
 127243441.852 6                  23761817.960
        39.500
 102468388.570 6                  19162095.679
        41.000
 21 10 19  0 24  0.0000000  0 30E26G16E04G27G32E12E09G26G04G31S36G25
                                S25G29S23S48R01R21E19E24R16E21R19G18
                                E01R09R10E31R08R20
 126843284.710 7                  24137444.678
        47.000
 122981367.915 6  95829657.09944  23402572.302    23402571.466    23402570.475
        41.000          26.750
 140061586.879 6                  26652835.252
        40.750
 124945432.188 6  97360109.37044  23776318.121    23776317.656    23776320.528
        40.750          29.000
 125125334.854 7  97500260.40444  23810562.377    23810562.279    23810566.584
        42.250          29.250
 136977105.586 5                  26065879.130
        35.250
 132285637.425 6                  25173117.108
        40.750
 111827818.872 7  87138627.94246  21280104.661    21280104.246    21280106.384
        47.500          40.500
 131963421.358 6 102828640.95443  25111803.397    25111803.192    25111802.142
        37.000          20.000
 106713306.739 8  83153229.19049  20306863.289    20306862.999    20306861.290
        51.000          56.750
 195043915.712 7                  37115623.288
        47.250
 125802741.032 6  98028190.84346  23939446.273    23939445.469    23939447.873
        38.750          37.250
 183306146.971 7                  34881904.820
        46.750
 119459602.757 7  93085451.63147  22732386.810    22732386.337    22732385.009
        44.250          44.750
 203908657.167 7                  38802507.904
        43.750
  30752673.379 7                   5851909.128
        44.250
 129392244.506 5                  24205495.214
        35.500
 117830572.999 7                  22019438.698
        47.250
 149917652.500 5                  28528380.605
        31.000
 152984249.14616                  29111935.434
        37.500
                                  23463517.064
        19.750
 142407741.237 6                  27099255.555
        40.000
 118072928.623 6                  22072458.405
        38.000
 112537015.602 7  87691188.85746  21415076.094    21415075.907    21415076.027
        47.750          39.000
 127564181.779 7                  24274633.352
        47.500
 108122426.608 8                  20247845.329
        51.750
 108930818.670 8                  20435140.823
        49.750
 132518112.765 7                  25217349.321
        45.000
 127316363.705 6                  23775435.289
        40.000
 102455999.972 7                  19159778.297
        42.500
 21 10 19  0 24 30.0000000  0 29E26G16E04G27G32E12E09G26G04G31S36G25
                                S25G29S23S48R01R21E19E24E21R19G18E01
                                R09R10E31R08R20
 126858636.148 7                  24140366.061
        46.750
 122919315.931 6  95781304.93244  23390764.534    23390763.703    23390762.346
        41.000          26.750
 140128547.399 6                  26665577.589
        40.000
 124853100.693 6  97288162.93544  23758747.531    23758747.062    23758750.643
        40.500          29.000
 125218859.320 6  97573135.97144  23828359.576    23828359.492    23828363.977
        40.250          27.250
 136883780.429 5                  26048119.593
        35.500
 132304199.691 6                  25176649.483
        40.000
 111792590.224 7  87111177.05546  21273400.940    21273400.525    21273402.478
        47.250          40.250
 131908720.439 6 102786016.88343  25101393.972    25101393.767    25101394.306
        36.750          20.000
 106713325.841 8  83153244.07649  20306866.818    20306866.532    20306864.903
        51.500          57.500
 195043921.725 7                  37115624.540
        47.000
 125868390.045 6  98079345.87846  23951938.719    23951937.915    23951940.097
        38.000          36.250
 183303068.519 7                  34881215.851
        46.750
 119548423.109 7  93154662.30147  22749288.702    22749288.229    22749286.763
        44.500          44.500
 203908555.649 7                  38802489.749
        44.000
  30753349.196 7                   5851938.055
        44.000
 129415036.850 6                  24209759.259
        37.250
 117708855.833 7                  21996692.805
        47.500
 149985639.394 4                  28541317.028
        29.000
 152932028.062 5                  29101997.360
        30.000
 142449229.333 6                  27107150.482
        40.250
 118184024.024 6                  22093225.856
        37.500
 112493733.144 7  87657462.25446  21406839.549    21406839.362    21406839.620
        47.500          39.500
 127569775.117 7                  24275697.858
        47.250
 108140381.249 8                  20251207.581
        51.500
 108871145.498 8                  20423946.590
        50.000
 132478075.926 7                  25209730.506
        45.000
 127389528.725 6                  23789097.235
        39.500
 102444434.488 7                  19157615.150
        42.250
 21 10 19  0 25  0.0000000  0 29E26G16E04G27G32E12E09G26G04G31S36G25
                                S25G29S23S48R01R21E19E24E21R19G18E01
                                R09R10E31R08R20
 126874411.544 7                  24143368.054
        46.500
 122857320.445 6  95732996.81944  23378966.877    23378966.046    23378965.213
        40.750          27.000
 140195589.690 6                  26678335.395
        40.250
 124761011.801 6  97216405.53344  23741223.279    23741222.823    23741226.170
        40.750          28.750
 125312352.049 6  97645986.94044  23846151.379    23846151.308    23846155.955
        41.250          28.750
 136790444.201 5                  26030357.913
        34.250
 132323105.576 6                  25180247.020
        40.500
 111757468.071 7  87083809.14346  21266717.465    21266717.050    21266719.129
        47.500          40.250
 131854454.396 6 102743731.64543  25091066.757    25091066.561    25091066.549
        36.500          18.750
 106713829.587 8  83153636.59649  20306962.640    20306962.350    20306960.878
        50.750          56.500
 195043922.216 7                  37115623.789
        47.500
 125934093.536 6  98130543.37245  23964441.865    23964441.065    23964443.170
        38.500          35.500
 183299974.269 7                  34880525.383
        46.750
 119637369.184 7  93223970.94047  22766214.556    22766214.083    22766212.597
        44.000          44.500
 203908453.421 7                  38802469.144
        43.500
  30752421.679 7                   5851965.838
        44.250
 129438389.767 6                  24214128.996
        37.250
 117587461.388 8                  21974007.080
        48.500
 150053397.023 4                  28554211.197
        28.000
 152879727.304 5                  29092046.072
        34.250
 142490798.203 6                  27115060.740
        39.500
 118295482.858 6                  22114061.259
        38.000
 112450937.383 7  87624114.90346  21398695.900    21398695.717    21398695.799
        47.750          38.750
 127575437.643 7                  24276775.399
        47.000
 108158727.385 8                  20254643.534
        51.250
 108811648.389 8                  20412785.160
        50.000
 132438018.467 7                  25202107.848
        44.750
 127462936.278 6                  23802806.801
        38.250
 102433695.982 6                  19155607.147
        41.500
 21 10 19  0 25 30.0000000  0 29E26G16E04G27G32E12E09G26G04G31S36G25
                                S25G29S23S48R01R21E19E24E21R19G18E01
                                R09R10E31R08R20
 126890614.523 7                  24146451.375
        46.250
 122795385.414 6  95684735.82944  23367180.870    23367180.039    23367179.290
        40.000          26.500
 140262715.870 6                  26691109.291
        40.500
 124669170.725 6  97144841.20844  23723746.812    23723746.361    23723749.254
        40.750          28.500
 125405814.180 6  97718814.18644  23863936.772    23863936.723    23863940.917
        41.250          28.000
 136697102.801 5                  26012594.423
        35.000
 132342358.393 6                  25183910.779
        39.500
 111722456.865 7  87056527.69046  21260054.837    21260054.422    21260056.729
        47.250          40.250
 131800628.644 6 102701789.51743  25080825.066    25080824.865    25080823.814
        36.250          19.000
 106714822.387 8  83154410.19449  20307151.646    20307151.356    20307149.768
        51.250          56.750
 195043923.594 7                  37115625.859
        47.250
 125999855.800 6  98181786.67746  23976956.223    23976955.423    23976957.891
        38.000          36.250
 183295287.460 7                  34879833.744
        46.250
 119726442.893 7  93293379.02447  22783164.832    22783164.363    22783162.975
        44.000          44.500
 203908352.696 7                  38802451.494
        42.750
  30753096.978 7                   5851996.982
        44.000
 129462305.550 6                  24218602.154
        37.750
 117466397.627 8                  21951383.758
        48.500
 150120928.303 4                  28567061.919
        27.500
 152827350.201 5                  29082078.129
        32.750
 142532452.509 6                  27122987.436
        38.750
 118407305.016 6                  22134965.205
        38.000
 112408634.765 8  87591151.85846  21390645.754    21390645.562    21390645.729
        48.250          39.500
 127581174.260 7                  24277866.834
        47.250
 108177470.918 8                  20258153.150
        51.250
 108752334.404 8                  20401658.279
        50.000
 132397944.761 7                  25194481.844
        45.000
 127536586.518 6                  23816560.770
        38.750
 102423788.781 7                  19153754.415
        42.000
 21 10 19  0 26  0.0000000  0 29E26G16E04G27G32E12E09G26G04G31S36G25
                                S25G29S23S48R01R21E19E24E21R19G18E01
                                R09R10E31R08R20
 126907241.635 7                  24149615.352
        46.750
 122733507.158 6  95636519.06544  23355405.720    23355404.853    23355403.921
        40.500          26.000
 140329920.951 6                  26703897.961
        40.750
 124577575.869 6  97073468.70744  23706316.124    23706315.677    23706319.075
        41.500          28.000
 125499240.233 6  97791613.51944  23881715.329    23881715.240    23881720.049
        39.500          27.750
 136603755.052 5                  25994830.467
        34.750
 132361953.941 6                  25187639.385
        40.750
 111687554.118 7  87029330.74946  21253413.480    21253413.069    21253414.522
        47.750          40.250
 131747241.707 6 102660189.31543  25070664.995    25070664.763    25070665.227
        36.250          18.000
 106716301.984 8  83155563.12049  20307433.154    20307432.868    20307431.311
        51.250          56.500
 195043925.418 7                  37115625.260
        47.500
 126065674.405 6  98233073.87245  23989480.427    23989479.614    23989482.557
        37.000          33.750
 183292192.413 7                  34879141.577
        46.000
 119815638.826 7  93362882.34847  22800138.202    22800137.737    22800136.548
        44.500          44.500
 203908252.309 7                  38802433.397
        43.500
  30753773.122 7                   5852027.792
        44.250
 129486778.804 6                  24223178.606
        38.500
 117345665.387 8                  21928821.914
        48.500
 150188228.907 5                  28579869.328
        31.750
 152774893.798 5                  29072096.525
        34.250
 142574189.991 6                  27130930.016
        40.500
 118519483.781 6                  22155937.066
        37.250
 112366824.245 8  87558572.24746  21382689.410    21382689.223    21382689.447
        48.000          38.750
 127586982.784 7                  24278972.413
        47.250
 108196610.251 8                  20261737.296
        51.250
 108693202.811 8                  20390565.362
        50.000
 132357852.288 7                  25186852.555
        45.250
 127610472.141 6                  23830356.895
        39.750
 102414709.528 7                  19152056.078
        42.000
 21 10 19  0 26 30.0000000  0 29E26G16E04G27G32E12E09G26G04G31S36G25
                                S25G29S23S48R01R21E19E24E21R19G18E01
                                R09R10E31R08R20
 126924290.750 7                  24152859.535
        46.500
 122671684.177 6  95588345.35844  23343640.990    23343640.119    23343638.961
        39.750          24.750
 140397201.024 6                  26716701.010
        41.000
 124486226.816 6  97002287.75544  23688933.146    23688932.695    23688936.098
        41.000          28.000
 125592624.754 6  97864380.22944  23899486.363    23899486.279    23899490.098
        40.000          26.250
 136510400.780 5                  25977064.321
        35.000
 132381889.245 6                  25191433.003
        40.250
 111652758.555 7  87002217.32746  21246791.952    21246791.537    21246793.096
        47.500          40.250
 131694293.296 5 102618930.79343  25060589.020    25060588.797    25060589.096
        34.750          18.000
 106718267.623 8  83157094.78049  20307807.198    20307806.912    20307805.250
        51.000          56.000
 195043923.521 7                  37115626.176
        47.250
 126131547.970 6  98284403.87745  24002015.981    24002015.181    24002017.762
        37.250          35.250
 183287491.226 7                  34878448.001
        46.500
 119904953.218 7  93432477.97047  22817134.110    22817133.632    22817132.528
        43.500          44.250
 203908151.206 7                  38802414.643
        42.750
  30752847.220 7                   5852055.605
        44.000
 129511805.651 6                  24227860.797
        36.750
 117225266.538 8                  21906322.263
        49.000
                                  28592631.499
        21.000
 152722355.871 5                  29062098.999
        30.000
 142616009.583 6                  27138887.737
        40.500
 118632013.146 6                  22176973.364
        37.500
 112325506.379 8  87526376.56846  21374826.955    21374826.754    21374827.181
        48.000          39.000
 127592862.327 7                  24280091.118
        47.500
 108216145.499 8                  20265395.583
        51.000
 108634254.782 8                  20379506.790
        50.000
 132317739.669 7                  25179219.311
        45.000
 127684587.416 6                  23844200.275
        40.500
 102406455.964 6                  19150513.122
        41.500
 21 10 19  0 27  0.0000000  0 29E26G16E04G27G32E12E09G26G04G31S36G25
                                S25G29S23S48R01R21E19E24E21R19G18E01
                                R09R10E31R08R20
 126941764.637 7                  24156184.785
        46.750
 122609919.386 6  95540216.95044  23331887.355    23331886.492    23331885.976
        38.500          24.000
 140464557.419 6                  26729518.567
        41.000
 124395128.050 6  96931301.83344  23671597.413    23671596.984    23671600.722
        40.750          28.250
 125685969.080 6  97937115.70243  23917249.155    23917249.093    23917253.448
        40.750          23.750
 136417044.036 5                  25959298.926
        31.500
 132402166.471 6                  25195292.167
        40.250
 111618073.888 7  86975190.32146  21240191.782    21240191.367    21240192.923
        47.750          40.500
 131641788.127 5 102578017.67642  25050597.512    25050597.258    25050597.694
        35.250          17.250
 106720723.411 8  83159008.37349  20308274.751    20308274.465    20308272.517
        51.000          56.500
 195043925.615 7                  37115626.829
        47.500
 126197480.147 6  98335779.54545  24014562.058    24014561.267    24014564.541
        36.500          34.750
 183284380.865 7                  34877752.856
        46.250
 119994386.763 7  93502166.43747  22834152.928    22834152.450    22834151.077
        44.000          44.500
 203908051.131 7                  38802395.183
        43.750
  30753520.351 7                   5852086.934
        44.250
 129537387.095 6                  24232647.485
        38.750
 117105207.939 8                  21883886.080
        48.250
                                  28605349.384
        33.250
 152669739.756 5                  29052086.065
        32.000
 142657915.178 6                  27146862.232
        40.000
 118744891.437 6                  22198074.519
        37.000
 112284686.433 7  87494568.88146  21367058.947    21367058.755    21367059.320
        47.500          39.250
 127598816.953 7                  24281224.237
        47.750
 108236081.416 8                  20269129.280
        51.750
 108575496.079 8                  20368483.736
        50.250
 132277610.532 7                  25171583.000
        45.000
 127758931.226 6                  23858080.839
        40.250
 102399031.743 7                  19149125.271
        42.000
 21 10 19  0 27 30.0000000  0 29E26G16E04G27G32E12E09G26G04G31S36G25
                                S25G29S23S48R01R21E19E24E21R19G18E01
                                R09R10E31R08R20
 126959659.728 7                  24159590.087
        46.750
 122548209.870 6  95492131.67943  23320143.948    23320143.050    23320143.858
        39.250          23.750
 140531984.999 6                  26742349.805
        41.250
 124304277.921 6  96860509.69044  23654309.163    23654308.734    23654312.334
        41.250          28.250
 125779268.099 6  98009816.33744  23935003.156    23935003.098    23935008.231
        36.500          27.000
 136323684.847 5                  25941533.236
        33.000
 132422781.907 6                  25199214.512
        40.750
 111583497.556 7  86948247.72946  21233611.967    21233611.543    21233613.480
        47.500          40.500
 131589724.469 5 102537448.59642  25040690.473    25040690.245    25040690.528
        33.500          17.250
 106723667.152 8  83161302.19949  20308834.702    20308834.416    20308832.789
        51.000          56.250
 195043930.678 7                  37115626.717
        47.250
 126263468.260 6  98387198.82945  24027119.902    24027119.120    24027121.702
        37.750          35.250
 183281259.476 7                  34877053.781
        47.000
 120083934.625 7  93571943.99247  22851193.291    22851192.818    22851191.330
        44.000          44.000
 203907950.112 7                  38802377.748
        42.500
  30754191.988 7                   5852116.339
        44.000
 129563517.602 6                  24237536.842
        37.750
 116985490.778 7                  21861513.816
        47.750
                                  28618024.534
        32.000
 152617041.943 5                  29042058.232
        32.750
 142699904.414 6                  27154852.578
        40.000
 118858112.183 6                  22219239.645
        36.750
 112244363.476 8  87463148.49646  21359385.787    21359385.595    21359386.069
        48.000          39.750
 127604844.456 7                  24282371.109
        47.750
 108256416.317 8                  20272937.263
        51.250
 108516926.494 8                  20357496.089
        50.000
 132237462.203 7                  25163943.186
        45.000
 127833496.756 6                  23872009.146
        41.500
 102392433.299 6                  19147890.583
        41.750
 21 10 19  0 28  0.0000000  0 29E26G16E04G27G32E12E09G26G04G31S36G25
                                S25G29S23S48R01R21E19E24E21R19G18E01
                                R09R10E31R08R20
 126977976.986 7                  24163075.672
        46.000
 122486556.758 6  95444090.29443  23308412.215    23308411.330    23308410.705
        38.500          23.750
 140599483.288 6                  26755194.128
        41.500
 124213679.011 6  96789913.32544  23637068.596    23637068.172    23637071.461
        40.500          27.750
 125872520.251 6  98082480.83744  23952748.468    23952748.419    23952752.394
        40.000          27.500
 136230327.558 5                  25923766.632
        33.750
 132443735.643 6                  25203202.047
        39.500
 111549031.447 7  86921391.02246  21227053.186    21227052.762    21227054.705
        47.500          40.750
 131538105.192 5 102497225.77343  25030867.577    25030867.305    25030867.379
        35.000          18.500
 106727101.046 8  83163977.96949  20309488.215    20309487.929    20309486.330
        51.500          57.250
 195043938.463 7                  37115627.902
        46.500
 126329514.144 6  98438663.12746  24039688.095    24039687.308    24039689.765
        38.250          36.000
 183276530.606 7                  34876355.170
        46.500
 120173595.769 7  93641809.82347  22868254.908    22868254.439    22868253.074
        44.000          43.500
 203907848.592 7                  38802358.252
        43.000
  30753263.989 7                   5852145.413
        44.000
 129590196.669 6                  24242526.592
        39.250
 116866119.811 7                  21839206.277
        47.750


 152564263.620 5                  29032014.148
        30.250
 142741979.348 6                  27162859.274
        39.250
 118971672.379 6                  22240468.571
        36.500
 112204540.934 8  87432118.01146  21351807.587    21351807.395    21351807.854
        48.500          40.500
 127610947.091 7                  24283532.481
        47.250
 108277153.380 8                  20276820.798
        51.250
 108458549.939 8                  20346544.529
        50.000
 132197296.499 7                  25156299.751
        44.500
 127908280.728 7                  23885973.605
        42.250
 102386662.007 7                  19146812.149
        42.250
 21 10 19  0 28 30.0000000  0 29E26G16E04G27G32E12E09G26G04G31S36G25
                                S25G29S23S48R01R21E19E24E21R19G18E01
                                R09R10E31R08R20
 126996713.765 7                  24166641.395
        46.250
 122424958.167 6  95396091.39843  23296690.645    23296689.774    23296688.306
        39.500          23.750
 140667048.075 6                  26768051.539
        40.750
 124123330.400 6  96719511.98344  23619875.482    23619875.053    23619878.274
        40.500          28.250
 125965719.711 7  98155104.07244  23970483.466    23970483.474    23970487.811
        42.000          28.250
 136136969.915 5                  25906000.904
        33.750
 132465024.529 6                  25207253.271
        39.250
 111514673.952 7  86894618.95046  21220515.365    21220514.941    21220516.590
        47.250          40.500
 131486929.472 5 102457348.59343  25021129.033    25021128.770    25021129.438
        34.750          18.500
 106731023.527 8  83167034.45049  20310234.662    20310234.376    20310232.707
        51.500          57.500
 195043938.058 7                  37115628.157
        47.000
 126395616.196 6  98490171.16846  24052266.712    24052265.934    24052268.712
        38.500          36.250
 183273392.840 7                  34875654.619
        46.000
 120263365.944 7  93711760.61247  22885337.904    22885337.439    22885335.719
        43.500          43.500
 203907745.746 7                  38802338.519
        43.000
  30753933.771 7                   5852174.895
        43.750
 129617419.748 6                  24247617.499
        38.250
 116747096.656 7                  21816964.520
        47.750
                                  28643237.844
        32.500
 152511402.605 5                  29021955.723
        34.250
 142784138.571 6                  27170881.691
        39.000
 119085565.620 6                  22261761.759
        37.500
 112165218.768 7  87401477.40846  21344324.729    21344324.542    21344324.902
        47.500          39.250
 127617123.604 7                  24284707.793
        47.250
 108298292.134 8                  20280779.488
        51.500
 108400367.205 8                  20335629.781
        50.250
 132157111.755 7                  25148652.738
        44.750
 127983277.039 6                  23899977.740
        39.250
 102381715.427 7                  19145886.026
        42.250
 21 10 19  0 29  0.0000000  0 29E26G16E04G27G32E12E09G26G04G31S36G25
                                S25G29S23S48R01R21E19E24E21R19G18E01
                                R09R10E31R08R20
 127015873.392 7                  24170287.140
        46.500
 122363417.760 6  95348137.84544  23284980.180    23284979.300    23284977.860
        41.250          25.000
 140734681.349 6                  26780921.621
        40.750
 124033237.194 6  96649309.65544  23602731.428    23602730.995    23602733.791
        40.250          28.250
 126058868.514 7  98227688.05444  23988208.784    23988208.771    23988213.072
        42.250          24.500
 136043616.732 6                  25888235.698
        36.500
 132486651.597 6                  25211368.841
        40.000
 111480429.387 7  86867934.88046  21213998.844    21213998.415    21214000.376
        47.250          40.750
 131436202.556 5 102417821.10343  25011476.489    25011476.266    25011475.200
        35.500          18.750
 106735439.121 8  83170475.16049  20311074.890    20311074.604    20311072.960
        51.500          57.750
 195043939.237 7                  37115628.323
        47.000
 126461778.446 6  98541726.15346  24064856.869    24064856.087    24064859.165
        38.750          36.000
 183270253.207 7                  34874953.558
        46.750
 120353246.909 7  93781797.72547  22902441.323    22902440.872    22902439.514
        44.000          43.250
 203907643.903 7                  38802319.599
        43.000
  30754603.206 7                   5852203.647
        44.250
 129645188.262 6                  24252813.303
        37.500
 116628429.291 8                  21794788.543
        48.500


 152458461.981 5                  29011880.886
        32.250
 142826386.529 6                  27178920.775
        37.750
 119199790.982 6                  22283112.826
        38.000
 112126402.882 7  87371231.31646  21336938.475    21336938.274    21336938.502
        47.750          39.000
 127623378.698 7                  24285898.105
        47.250
 108319837.832 8                  20284814.423
        51.250
 108342384.572 8                  20324752.754
        50.250
 132116912.155 7                  25141003.005
        44.750
 128058485.720 6                  23914022.113
        39.250
 102377596.486 6                  19145116.047
        41.750
 21 10 19  0 29 30.0000000  0 29E26G16E04G27G32E12E09G26G04G31S36G25
                                S25G29S23S48R01R21E19E24E21R19G18E01
                                R09R10E31R08R20
 127035452.012 7                  24174012.802
        46.250
 122301932.541 7  95300227.29444  23273279.776    23273278.913    23273277.238
        42.000          26.250
 140802377.735 6                  26793803.580
        40.500
 123943397.305 6  96579304.73444  23585635.400    23585634.967    23585637.683
        40.750          29.000
 126151959.592 6  98300226.97044  24005923.273    24005923.290    24005927.016
        41.500          25.750
 135950267.932 5                  25870472.636
        31.250
 132508612.280 6                  25215547.812
        39.750
 111446295.023 7  86841336.67946  21207503.104    21207502.675    21207505.058
        47.500          41.000
 131385922.478 5 102378641.84143  25001907.901    25001907.682    25001908.781
        34.750          20.000
 106740345.635 8  83174298.40649  20312008.652    20312008.366    20312006.698
        50.750          56.250
 195043943.524 7                  37115629.794
        46.750
 126527998.135 6  98593325.88145  24077458.094    24077457.307    24077460.452
        36.750          34.750
 183265508.308 7                  34874249.997
        47.000
 120443233.122 7  93851916.85147  22919564.951    22919564.500    22919563.418
        43.750          43.250
 203907541.223 7                  38802300.143
        43.500
  30755270.269 7                   5852234.050
        44.250
 129673496.582 6                  24258108.630
        37.250
 116510117.640 8                  21772679.100
        48.250
                                  28668268.051
        30.750
 152405438.739 5                  29001791.331
        32.500
 142868720.572 6                  27186976.987
        38.750
 119314341.807 6                  22304526.560
        37.000
 112088091.946 8  87341378.67046  21329648.296    21329648.091    21329648.228
        48.250          39.500
 127629709.976 7                  24287103.030
        47.250
 108341788.728 8                  20288925.251
        51.750
 108284601.625 8                  20313912.112
        50.250
 132076694.840 7                  25133349.891
        44.750
 128133898.949 6                  23928106.914
        40.750
 102374302.037 7                  19144500.089
        42.000
 21 10 19  0 30  0.0000000  0 29E26G16E04G27G32E12E09G26G04G31S36G25
                                S25G29S23S48R01R21E19E24E21R19G18E01
                                R09R10E31R08R20
 127055451.527 7                  24177818.591
        46.250
 122240504.076 7  95252360.99844  23261590.625    23261589.771    23261588.577
        42.750          27.750
 140870137.672 6                  26806698.274
        40.250
 123853814.391 6  96509500.08244  23568588.502    23568588.042    23568590.874
        40.750          29.250
 126244993.368 6  98372721.31044  24023626.437    24023626.468    24023630.313
        36.000          26.500
 135856927.876 4                  25852710.798
        27.250
 132530907.254 6                  25219790.589
        39.500
 111412273.720 7  86814826.57646  21201029.164    21201028.735    21201030.658
        47.500          40.500
 131336092.906 5 102339813.59043  24992426.162    24992425.943    24992425.900
        35.750          19.750
 106745745.780 8  83178506.30649  20313036.241    20313035.955    20313034.286
        51.000          56.500
 195043946.226 7                  37115630.286
        46.500
 126594278.059 6  98644972.54145  24090070.597    24090069.815    24090073.084
        37.250          35.000
 183262358.292 7                  34873545.028
        46.500
 120533324.819 7  93922118.17947  22936709.391    22936708.944    22936707.409
        44.000          43.250
 203907439.397 7                  38802281.085
        43.750
  30754339.115 7                   5852262.293
        44.250
 129702344.950 6                  24263506.416
        36.250
 116392168.151 8                  21750637.401
        48.500
                                  28680716.167
        25.750
 152352335.099 5                  28991685.802
        35.500
 142911143.764 6                  27195050.195
        38.000
 119429216.377 6                  22326003.360
        36.500
 112050290.315 7  87311922.85046  21322454.751    21322454.555    21322454.738
        47.250          39.000
 127636120.583 7                  24288322.883
        47.000
 108364148.751 8                  20293112.478
        51.750
 108227023.419 8                  20303110.758
        50.250
 132036462.653 7                  25125693.934
        45.000
 128209515.634 6                  23942224.028
        39.500
 102371833.763 6                  19144038.042
        41.750
 21 10 19  0 30 30.0000000  0 28E26G16E04G27G32E12E09G26G04G31S36G25
                                S25G29S23S48R01R21E24E21R19G18E01R09
                                R10E31R08R20
 127075869.625 7                  24181703.762
        46.750
 122179130.771 7  95204537.64244  23249911.841    23249910.987    23249909.366
        42.500          28.250
 140937957.428 6                  26819603.792
        40.750
 123764487.864 6  96439895.16944  23551589.912    23551589.434    23551592.314
        40.250          29.750
 126337965.791 6  98445167.97844  24041317.931    24041317.962    24041321.424
        38.000          25.500
 135763596.870 5                  25834951.059
        33.750
 132553534.353 6                  25224096.061
        38.750
 111378364.307 7  86788403.66046  21194576.486    21194576.057    21194577.306
        47.500          40.250
 131286713.484 6 102301336.12543  24983030.357    24983030.129    24983029.300
        36.750          21.000
 106751638.520 8  83183098.03849  20314157.489    20314157.203    20314155.568
        51.250          57.250
 195043945.856 7                  37115629.933
        47.000
 126660616.890 6  98696665.09445  24102694.931    24102694.153    24102696.832
        36.750          35.000
 183259199.408 7                  34872837.658
        45.750
 120623518.190 7  93992398.73447  22953872.575    22953872.124    22953870.740
        44.000          44.000
 203907337.711 7                  38802262.510
        43.000
  30755006.867 7                   5852293.183
        44.000
 129731729.094 6                  24269002.817
        36.500
 116274582.745 8                  21728663.629
        48.750
 152299148.964 5                  28981565.194
        32.000
 142953655.106 6                  27203139.457
        37.250
 119544408.273 6                  22347535.866
        36.750
 112012998.547 7  87282864.40346  21315358.495    21315358.294    21315358.215
        47.500          39.750
 127642609.794 7                  24289557.743
        47.250
 108386917.643 8                  20297376.136
        51.500
 108169651.106 8                  20292347.901
        50.250
 131996214.347 7                  25118035.091
        45.250
 128285329.609 7                  23956386.270
        42.750
 102370189.374 6                  19143730.978
        41.750
 21 10 19  0 31  0.0000000  0 28E26G16E04G27G32E12E09G26G04G31S36G25
                                S25G29S23S48R01R21E24E21R19G18E01R09
                                R10E31R08R20
 127096699.964 7                  24185667.664
        46.500
 122117807.112 7  95156753.01844  23238242.081    23238241.236    23238239.745
        42.250          28.750
 141005829.324 6                  26832519.533
        40.000
 123675413.151 6  96370486.45845  23534639.511    23534639.069    23534641.747
        40.750          30.250
 126430867.511 7  98517559.28844  24058996.190    24058996.207    24058999.685
        44.250          24.750
 135670271.512 5                  25817191.790
        35.500
 132576486.875 6                  25228464.114
        39.250
 111344561.575 7  86762063.87146  21188143.824    21188143.395    21188144.922
        47.750          40.500
 131237779.715 5 102263205.93243  24973717.724    24973717.470    24973716.963
        35.500          19.750
 106758018.905 8  83188069.76449  20315371.836    20315371.550    20315369.667
        51.250          56.750
 195043940.565 7                  37115629.320
        47.250
 126727009.290 6  98748399.40245  24115329.225    24115328.438    24115330.740
        37.250          35.000
 183254424.804 7                  34872130.023
        46.000
 120713805.617 7  94062752.57347  22971053.494    22971053.038    22971051.988
        44.000          44.000
 203907229.485 7                  38802242.987
        42.750
  30755666.665 7                   5852321.609
        44.000
 129761640.557 6                  24274597.938
        37.250
 116157359.125 8                  21706757.845
        48.500
 152245874.457 5                  28971426.858
        35.000
 142996249.421 6                  27211245.396
        37.750
 119659907.748 6                  22369127.053
        37.000
 111976212.521 7  87254200.00746  21308358.169    21308357.973    21308358.167
        47.500          39.250
 127649172.614 7                  24290806.681
        47.500
 108410090.904 8                  20301715.544
        51.250
 108112481.350 8                  20281623.070
        50.500
 131955944.537 7                  25110372.102
        45.000
 128361330.456 6                  23970576.208
        39.000
 102369362.697 6                  19143576.045
        41.500
 21 10 19  0 31 30.0000000  0 28E26G16E04G27G32E12E09G26G04G31S36G25
                                S25G29S23S48R01R21E24E21R19G18E01R09
                                R10E31R08R20
 127117951.068 7                  24189712.047
        46.500
 122056542.144 7  95109014.21444  23226583.416    23226582.558    23226581.559
        42.000          28.250
 141073760.441 6                  26845446.293
        39.750
 123586600.453 6  96301281.88545  23517738.773    23517738.331    23517741.196
        41.000          30.500
 126523705.407 7  98589901.04944  24076661.943    24076661.960    24076665.675
        43.250          25.250
 135576961.348 6                  25799436.052
        36.000
 132599772.454 6                  25232895.132
        39.000
 111310875.098 8  86735814.66746  21181733.460    21181733.027    21181735.222
        48.250          40.750
 131189301.898 6 102225431.05343  24964492.493    24964492.257    24964492.976
        36.750          21.000
 106764896.545 8  83193428.95849  20316680.435    20316680.149    20316678.515
        51.250          56.750
 195043945.368 7                  37115629.798
        47.250
 126793464.730 6  98800182.84245  24127975.436    24127974.649    24127977.105
        36.750          34.750
 183251244.510 7                  34871421.164
        46.250
 120804193.993 7  94133185.06047  22988253.828    22988253.377    22988252.375
        43.500          43.250
 203907123.947 7                  38802220.732
        43.500
  30754730.394 7                   5852350.317
        44.000
 129792086.227 6                  24280293.867
        37.250
 116040510.283 8                  21684922.182
        49.750
 152192520.544 5                  28961274.074
        35.500
 143038936.484 6                  27219368.367
        38.000
 119775720.018 6                  22390777.723
        37.500
 111939943.409 7  87225938.41946  21301456.586    21301456.399    21301456.495
        47.250          39.250
 127655819.009 7                  24292071.355
        47.500
 108433679.417 8                  20306133.237
        52.000
 108055526.422 8                  20270938.600
        50.500
 131915662.768 7                  25102706.766
        45.000
 128437523.445 6                  23984808.871
        41.000
 102369362.385 6                  19143575.601
        41.000
 21 10 19  0 32  0.0000000  0 28E26G16E04G27G32E12E09G26G04G31S36G25
                                S25G29S23S48R01R21E24E21R19G18E01R09
                                R10E31R08R20
 127139618.926 7                  24193835.075
        46.500
 121995332.232 6  95061318.37844  23214935.586    23214934.715    23214933.734
        40.250          27.250
 141141745.499 6                  26858384.026
        39.500
 123498047.677 7  96232279.81745  23500888.165    23500887.723    23500890.222
        42.000          31.250
 126616473.387 7  98662188.00043  24094315.273    24094315.220    24094318.840
        42.500          19.250
 135483655.14015                  25781682.891
        35.500
 132623386.507 6                  25237388.811
        39.250
 111277302.072 7  86709653.86946  21175344.904    21175344.480    21175346.718
        47.500          41.000
 131141277.885 6 102188009.73943  24955353.155    24955352.892    24955353.091
        37.500          21.750
 106772268.728 8  83199173.50349  20318083.484    20318083.194    20318081.402
        51.000          56.250
 195043948.707 7                  37115629.754
        47.250
 126859980.263 5  98852013.09345  24140632.336    24140631.558    24140634.570
        35.750          33.500
 183248059.118 7                  34870711.473
        47.000
 120894677.557 7  94203691.72547  23005472.417    23005471.961    23005470.496
        42.500          42.500
 203907019.032 7                  38802201.253
        44.000
  30755395.040 7                   5852378.076
        44.000
 129823060.409 5                  24286087.738
        34.250
 115924036.622 8                  21663156.017
        49.000
 152139083.554 5                  28951105.230
        35.750
 143081713.525 6                  27227508.641
        38.000
 119891837.307 6                  22412484.992
        38.000
 111904189.706 7  87198078.46246  21294652.613    21294652.417    21294652.711
        47.000          39.500
 127662546.417 7                  24293351.617
        47.750
 108457681.039 8                  20310627.900
        51.250
 107998785.053 8                  20260294.081
        50.500
 131875366.132 7                  25095038.466
        45.000
 128513901.405 7                  23999073.180
        43.250
 102370184.183 6                  19143729.531
        41.250
 21 10 19  0 32 30.0000000  0 28E26G16E04G27G32E12E09G26G04G31S36G25
                                S25G29S23S48R01R21E24E21R19G18E01R09
                                R10E31R08R20
 127161705.324 7                  24198037.911
        46.500
 121934179.506 6  95013667.02044  23203297.331    23203296.455    23203296.774
        39.250          26.500
 141209784.882 6                  26871331.194
        39.250
 123409758.215 7  96163482.88645  23484087.000    23484086.562    23484089.589
        42.250          31.250
 126709171.139 6  98734420.61743  24111954.316    24111954.191    24111957.611
        37.250          22.750
 135390379.166 6                  25763933.554
        36.750
 132647330.441 6                  25241944.943
        38.750
 111243845.471 7  86683583.79446  21168978.260    21168977.836    21168980.107
        47.750          41.000
 131093711.322 6 102150944.91343  24946303.048    24946302.771    24946302.482
        36.250          21.250
 106780138.414 8  83205305.71749  20319580.960    20319580.670    20319579.042
        50.500          56.250
 195043951.235 7                  37115629.409
        47.500
 126926558.640 6  98903892.34145  24153302.153    24153301.366    24153303.754
        36.000          33.500
 183243274.613 7                  34870000.087
        46.500
 120985256.427 7  94274272.66947  23022709.139    23022708.692    23022706.736
        43.000          42.000
 203906916.023 7                  38802181.721
        44.000
  30756060.564 7                   5852407.173
        44.000
 129854562.640 5                  24291981.329
        34.250
 115807944.260 8                  21641461.438
        48.250
 152085565.476 5                  28940920.494
        32.500
 143124583.625 6                  27235666.491
        38.250
 120008257.894 6                  22434248.665
        36.250
 111868955.728 7  87170623.49646  21287947.826    21287947.625    21287947.942
        47.250          39.500
 127669358.179 7                  24294647.724
        47.250
 108482099.772 8                  20315200.739
        51.500
 107942263.092 8                  20249690.928
        50.000
 131835057.496 7                  25087367.904
        45.250
 128590462.669 6                  24013367.114
        38.250
 102371829.782 6                  19144037.812
        41.500
 21 10 19  0 33  0.0000000  0 28E26G16E04G27G32E12E09G26G04G31S36G25
                                S25G29S23S48R01R21E24E21R19G18E01R09
                                R10E31R08R20
 127184203.897 7                  24202319.414
        46.500
 121873078.306 6  94966055.74744  23191670.316    23191669.431    23191669.308
        38.750          26.000
 141277870.868 6                  26884287.632
        39.500
 123321727.655 7  96094887.65745  23467335.364    23467334.913    23467338.073
        42.000          31.000
 126801790.141 6  98806591.61244  24129578.974    24129578.814    24129582.172
        36.750          26.500
 135297118.215 5                  25746186.607
        32.000
 132671597.138 6                  25246563.066
        39.000
 111210500.127 7  86657600.41246  21162632.898    21162632.469    21162634.199
        47.750          40.750
 131046597.748 6 102114233.05343  24937337.126    24937336.867    24937336.736
        36.250          20.500
 106788500.435 8  83211821.57149  20321172.261    20321171.971    20321170.234
        51.500          57.250
 195043945.944 7                  37115630.237
        46.750
 126993194.601 6  98955816.44945  24165982.773    24165981.991    24165984.216
        37.750          35.250
 183240080.079 7                  34869287.395
        47.000
 121075923.324 7  94344922.20547  23039962.814    23039962.376    23039960.085
        42.750          42.250
 203906809.658 7                  38802162.873
        44.250
  30755122.236 7                   5852436.664
        44.250
 129886584.921 6                  24297971.761
        36.750
 115692231.100 8                  21619837.891
        49.500
 152031960.801 5                  28930720.475
        34.250
 143167541.670 6                  27243840.983
        37.750
 120124972.034 6                  22456066.473
        36.750
 111834237.762 7  87143570.68846  21281341.125    21281340.915    21281341.156
        47.750          40.250
 127676249.466 7                  24295959.166
        47.250
 108506931.093 8                  20319851.350
        52.000
 107885957.169 8                  20239127.544
        50.000
 131794731.563 7                  25079694.022
        45.250
 128667196.792 5                  24027692.761
        32.500
 102374292.615 6                  19144498.332
        41.500
 21 10 19  0 33 30.0000000  0 28E26G16E04G27G32E12E09G26G04G31S36G25
                                S25G29S23S48R01R21E24E21R19G18E01R09
                                R10E31R08R20
 127207120.359 7                  24206679.969
        46.250
 121812034.958 6  94918489.51344  23180054.402    23180053.539    23180053.356
        40.250          25.750
 141346007.905 6                  26897253.710
        39.250
 123233963.588 7  96026500.11345  23450634.132    23450633.659    23450636.979
        42.000          30.750
 126894334.754 6  98878704.60543  24147189.259    24147189.116    24147192.866
        38.000          23.500
 135203880.996 5                  25728444.584
        35.750
 132696191.863 6                  25251242.688
        38.250
 111177272.952 8  86631709.10946  21156310.107    21156309.678    21156310.940
        48.000          40.500
 130999944.652 6 102077879.99143  24928460.137    24928459.851    24928459.090
        36.000          20.500
 106797361.777 8  83218726.50949  20322858.539    20322858.253    20322856.393
        51.250          56.250
 195043948.401 7                  37115629.834
        47.500
 127059894.921 6  99007790.66145  24178675.240    24178674.453    24178676.796
        38.500          35.750
 183236876.068 7                  34868573.818
        46.500
 121166682.511 7  94415643.65347  23057233.338    23057232.909    23057231.106
        43.000          42.750
 203906706.012 7                  38802144.938
        43.250
  30755785.568 7                   5852464.209
        44.000
 129919130.728 6                  24304061.223
        36.250
 115576907.545 8                  21598287.011
        48.500
 151978275.641 5                  28920504.067
        33.250
 143210594.681 6                  27252033.750
        38.000
 120241981.588 6                  22477939.906
        36.000
 111800043.782 7  87116926.15746  21274833.993    21274833.788    21274833.765
        47.750          39.250
 127683227.545 7                  24297286.876
        46.750
 108532183.153 8                  20324579.976
        51.250
 107829876.705 8                  20228607.219
        50.250
 131754395.232 7                  25072018.469
        45.250
 128744106.600 7                  24042062.002
        43.500
 102377578.770 6                  19145112.074
        41.500
 21 10 19  0 34  0.0000000  0 28E26G16E04G27G32E12E09G26G04G31S36G25
                                S25G29S23S48R01R21E24E21R19G18E01R09
                                R10E31R08R20
 127230447.171 7                  24211118.994
        46.250
 121751042.696 6  94870963.03044  23168448.485    23168447.631    23168446.169
        40.000          25.500
 141414186.999 6                  26910227.886
        39.750
 123146460.425 6  95958316.00245  23433982.687    23433982.205    23433985.425
        41.250          30.500
 126986794.489 6  98950751.38944  24164784.081    24164783.889    24164787.252
        41.250          26.500
 135110662.090 5                  25710705.651
        34.500
 132721106.413 6                  25255983.942
        39.000
 111144157.576 7  86605904.92146  21150008.306    21150007.877    21150009.396
        47.750          40.750
 130953746.285 6 102041881.25643  24919667.984    24919667.685    24919667.925
        36.250          21.250
 106806716.101 8  83226015.57649  20324638.494    20324638.204    20324636.479
        51.250          56.750
 195043947.384 7                  37115630.827
        46.250
 127126653.009 6  99059809.88045  24191379.049    24191378.258    24191380.175
        38.250          35.750
 183232066.769 7                  34867856.936
        46.000
 121257524.819 7  94486429.86247  23074519.807    23074519.387    23074517.965
        43.250          43.000
 203906598.958 7                  38802122.906
        42.750
  30756444.709 7                   5852494.549
        44.000
 129952191.067 5                  24310244.549
        35.250
 115461970.071 8                  21576807.933
        49.000
 151924502.896 5                  28910271.814
        34.750
 143253736.317 6                  27260243.358
        38.000
 120359275.787 5                  22499865.642
        35.750
 111766368.716 7  87090685.96046  21268425.698    21268425.497    21268425.375
        47.750          39.250
 127690286.253 7                  24298630.209
        47.250
 108557850.184 8                  20329386.735
        51.500
 107774017.291 8                  20218128.370
        50.250
 131714042.000 7                  25064339.571
        45.250
 128821180.228 6                  24056453.805
        40.250
 102381679.786 6                  19145878.748
        41.500
 21 10 19  0 34 30.0000000  0 28E26G16E04G27G32E12E09G26G04G31S36G25
                                S25G29S23S48R01R21E24E21R19G18E01R09
                                R10E31R08R20
 127254189.424 7                  24215636.921
        46.000
 121690107.427 6  94823481.02144  23156852.830    23156851.972    23156850.245
        41.000          25.750
 141482412.097 6                  26923210.464
        40.000
 123059224.609 7  95890340.12745  23417382.460    23417381.995    23417384.795
        42.000          30.750
 127079173.087 6  99022734.81345  24182362.725    24182362.573    24182366.738
        40.750          30.500
 135017469.297 5                  25692972.127
        34.000
 132746345.737 6                  25260787.276
        39.250
 111111160.439 7  86580192.86346  21143729.197    21143728.768    21143730.531
        47.750          41.250
 130908009.584 6 102006242.23643  24910964.932    24910964.651    24910963.536
        37.000          21.500
 106816569.581 8  83233693.61449  20326513.520    20326513.234    20326511.618
        51.250          57.000
 195043947.919 7                  37115630.894
        47.250
 127193475.132 6  99111879.03445  24204094.469    24204093.682    24204096.552
        36.750          34.250
 183228859.694 7                  34867139.044
        46.500
 121348453.963 7  94557283.73347  23091822.847    23091822.432    23091821.767
        43.000          43.750
 203906494.309 7                  38802101.804
        43.250
  30755503.724 7                   5852521.383
        44.250
 129985768.765 6                  24316526.270
        36.000
 115347428.095 8                  21555402.966
        49.000
 151870647.965 5                  28900023.015
        33.250
 143296973.035 6                  27268471.575
        37.500
 120476856.144 5                  22521846.855
        35.750
 111733220.187 7  87064856.01646  21262117.768    21262117.576    21262117.279
        47.500          39.750
 127697432.405 7                  24299990.187
        47.250
 108583939.302 8                  20334272.262
        51.250
 107718387.709 8                  20207692.298
        50.000
 131673678.158 7                  25056658.538
        45.250
 128898419.892 6                  24070879.071
        40.250
 102386601.190 6                  19146799.525
        41.250
 21 10 19  0 35  0.0000000  0 28E26G16E04G27G32E12E09G26G04G31S36G25
                                S25G29S23S48R01R21E24E21R19G18E01R09
                                R10E31R08R20
 127278344.941 7                  24220233.725
        45.750
 121629227.499 6  94776042.15744  23145268.013    23145267.159    23145265.501
        41.500          26.500
 141550679.596 6                  26936201.814
        39.750
 122972255.781 6  95822572.21544  23400832.498    23400832.051    23400834.797
        41.000          29.500
 127171465.298 6  99094662.57454  24199926.088    24199925.945    24199929.309
        41.250          29.000
 134924304.266 6                  25675243.022
        36.250
 132771906.775 6                  25265650.713
        39.000
 111078280.555 7  86554572.17846  21137472.293    21137471.860    21137473.868
        47.750          41.250
 130862734.176 6 101970962.68343  24902348.955    24902348.678    24902349.134
        37.750          21.250
 106826921.444 8  83241759.99449  20328483.455    20328483.165    20328481.587
        51.250          57.000
 195043947.038 7                  37115630.724
        47.000
 127260360.172 6  99163997.21045  24216822.731    24216821.931    24216824.530
        36.500          33.250
 183225637.239 7                  34866420.401
        46.500
 121439466.449 7  94628202.55447  23109142.220    23109141.796    23109140.692
        43.000          42.750
 203906388.889 7                  38802080.613
        42.500
  30756162.140 7                   5852550.914
        44.000
 130019859.712 5                  24322904.232
        35.750
 115233283.575 8                  21534072.706
        49.000
 151816709.263 5                  28889759.658
        33.250
 143340304.017 6                  27276716.858
        36.000
 120594716.627 6                  22543880.138
        36.500
 111700598.379 8  87039436.46746  21255909.847    21255909.669    21255909.612
        48.250          39.750
 127704665.253 7                  24301366.667
        47.000
 108610450.438 8                  20339237.140
        51.750
 107662989.237 8                  20197299.816
        50.500
 131633302.681 7                  25048975.235
        45.000
 128975819.509 6                  24085330.771
        39.750
 102392340.223 6                  19147872.578
        41.250
 21 10 19  0 35 30.0000000  0 28E26G16E04G27G32E12E09G26G04G31S36G25
                                S25G29S23S48R01R21E24E21R19G18E01R09
                                R10E31R08R20
 127302909.746 7                  24224907.951
        46.000
 121568399.404 7  94728643.68344  23133692.651    23133691.802    23133690.223
        42.500          26.750
 141618984.386 6                  26949200.186
        40.000
 122885551.811 6  95755010.63445  23384333.575    23384333.115    23384335.905
        40.750          30.000
 127263665.339 6  99166505.66344  24217471.649    24217471.693    24217474.936
        39.750          25.750
 134831164.075 5                  25657518.864
        35.750
 132797784.827 6                  25270575.459
        39.250
 111045515.316 7  86529040.82746  21131237.261    21131236.828    21131238.955
        47.750          41.250
 130817917.862 6 101936040.86043  24893820.578    24893820.324    24893820.077
        37.750          21.000
 106837768.361 8  83250212.11349  20330547.592    20330547.302    20330545.760
        51.250          56.750
 195043948.266 7                  37115630.348
        47.000
 127327305.227 5  99216162.11845  24229562.243    24229561.452    24229563.923
        35.000          30.500
 183220810.136 7                  34865698.636
        45.750
 121530556.643 7  94699181.91847  23126476.166    23126475.746    23126474.454
        42.500          42.500
 203906280.981 7                  38802059.968
        44.000
  30756817.970 7                   5852579.666
        44.250
 130054457.714 5                  24329375.942
        34.250
 115119536.814 8                  21512815.745
        49.250
 151762683.551 5                  28879478.493
        33.750
 143383726.630 6                  27284979.948
        36.500
 120712850.405 6                  22565963.428
        36.000
 111668501.910 8  87014426.26946  21249802.155    21249801.968    21249801.984
        48.500          39.500
 127711982.514 7                  24302758.812
        47.250
 108637381.683 8                  20344280.227
        51.250
 107607821.244 8                  20186950.328
        50.500
 131592912.833 7                  25041289.275
        45.000
 129053372.429 7                  24099814.853
        43.250
 102398892.654 7                  19149097.638
        42.000
 21 10 19  0 36  0.0000000  0 28E26G16E04G27G32E12E09G26G04G31S36G25
                                S25G29S23S48R01R21E24E21R19G18E01R09
                                R10E31R08R20
 127327886.807 7                  24229661.100
        46.000
 121507627.044 7  94681288.66844  23122128.064    23122127.224    23122125.190
        42.250          26.750
 141687328.098 6                  26962205.645
        40.000
 122799117.456 6  95687659.05644  23367885.492    23367885.023    23367887.953
        40.500          29.250
 127355775.952 6  99238279.34644  24235000.605    24235000.649    24235004.059
        38.750          26.000
 134738054.062 5                  25639800.344
        34.500
 132823982.564 6                  25275560.836
        39.000
 111012868.967 7  86503602.11546  21125024.846    21125024.408    21125026.248
        47.750          40.750
 130773565.437 6 101901480.51343  24885380.720    24885380.457    24885379.751
        36.500          21.000
 106849114.889 8  83259053.55949  20332706.766    20332706.476    20332704.968
        51.250          56.250
 195043954.086 7                  37115629.991
        47.000
 127394314.403 5  99268377.05144  24242312.344    24242311.553    24242315.117
        33.250          27.250
 183217586.837 7                  34864978.513
        47.000
 121621726.155 7  94770223.09947  23143825.680    23143825.265    23143823.133
        43.000          42.250
 203906174.872 7                  38802038.428
        43.000
  30755874.381 7                   5852607.565
        44.500
 130089563.974 6                  24335942.640
        36.250
 115006195.175 8                  21491635.181
        49.250
 151708574.083 5                  28869182.421
        33.250
 143427245.109 6                  27293261.288
        37.750
 120831256.885 5                  22588099.492
        35.750
 111636936.168 8  86989829.61646  21243795.385    21243795.202    21243795.204
        48.000          39.750
 127719388.676 7                  24304168.324
        47.000
 108664738.014 8                  20349402.831
        51.250
 107552890.409 8                  20176645.450
        50.500
 131552512.759 7                  25033601.525
        45.000
 129131078.233 6                  24114325.770
        37.250
 102406261.106 6                  19150476.218
        41.500
 21 10 19  0 36 30.0000000  0 28E26G16E04G27G32E12E09G26G04G31S36G25
                                S25G29S23S48R01R21E24E21R19G18E01R09
                                R10E31R08R20
 127353275.382 7                  24234492.443
        46.000
 121446910.233 6  94633976.89044  23110573.533    23110572.688    23110571.344
        41.750          27.250
 141755708.827 6                  26975218.139
        40.000
 122712954.033 6  95620518.62245  23351489.188    23351488.723    23351491.748
        41.250          30.250
 127447793.887 6  99309980.69644  24252511.679    24252511.705    24252515.608
        39.750          26.500
 134644976.597 5                  25622088.121
        35.500
 132850498.765 6                  25280606.607
        39.250
 110980342.170 7  86478256.56346  21118835.289    21118834.851    21118836.262
        47.750          40.750
 130729678.052 6 101867282.55143  24877028.713    24877028.494    24877029.381
        36.250          21.000
 106860961.683 8  83268284.83749  20334961.098    20334960.808    20334959.395
        51.250          57.000
 195043955.800 7                  37115632.539
        47.250
 127461388.151 5  99320642.26544  24255076.830    24255076.026    24255078.720
        31.250          24.500
 183214352.975 7                  34864255.997
        46.500
 121712973.390 7  94841324.83247  23161189.047    23161188.609    23161187.061
        43.000          42.500
 203906070.325 7                  38802017.116
        44.000
  30756530.639 7                   5852635.262
        44.250
 130125176.055 6                  24342605.847
        36.000
 114893262.419 8                  21470531.661
        49.750
 151654380.883 5                  28858869.468
        34.750
 143470860.092 6                  27301561.231
        37.750
 120949932.071 5                  22610284.284
        35.750
 111605902.913 8  86965647.88146  21237889.885    21237889.716    21237889.859
        48.000          40.000
 127726884.717 7                  24305594.843
        47.500
 108692520.768 8                  20354606.347
        51.250
 107498199.783 8                  20166385.145
        50.500
 131512103.053 7                  25025911.640
        45.250
 129208933.017 5                  24128862.723
        35.250
 102414444.601 6                  19152006.280
        41.250
 21 10 19  0 37  0.0000000  0 28E26G16E04G27G32E12E09G26G04G31S36G25
                                S25G29S23S48R01R21E24E21R19G18E01R09
                                R10E31R08R20
 127379067.121 7                  24239400.334
        46.000
 121386241.486 7  94586702.61244  23099028.836    23099028.000    23099027.095
        42.000          27.250
 141824116.994 6                  26988236.097
        40.250
 122627054.666 7  95553583.83645  23335143.086    23335142.608    23335145.763
        42.500          30.750
 127539708.842 6  99381601.64844  24270003.658    24270003.675    24270007.401
        41.500          27.750
 134551925.956 5                  25604380.905
        35.250
 132877324.374 6                  25285711.558
        39.250
 110947927.901 7  86452998.69546  21112666.973    21112666.531    21112668.110
        47.750          40.500
 130686249.022 6 101833441.75643  24868765.029    24868764.828    24868764.673
        36.250          20.000
 106873301.300 8  83277900.10849  20337309.152    20337308.862    20337307.444
        51.000          56.000
 195043951.359 7                  37115631.171
        46.250
 127528519.297 5  99372952.21544  24267851.624    24267850.829    24267853.671
        32.250          25.000
 183209516.977 7                  34863530.539
        46.500
 121804288.984 7  94912479.84446  23178565.816    23178565.374    23178563.562
        43.000          41.750
 203905958.383 7                  38801998.076
        43.500
  30757178.497 7                   5852664.618
        44.000
 130161283.349 5                  24349358.700
        35.000
 114780734.021 8                  21449502.563
        49.500
 151600096.264 5                  28848540.060
        33.000
 143514564.547 6                  27309878.221
        38.000
 121068863.983 6                  22632515.616
        36.250
 111575396.143 8  86941876.37246  21232084.705    21232084.558    21232084.718
        48.250          40.000
 127734463.859 7                  24307037.031
        47.250
 108720723.568 8                  20359887.946
        51.750
 107443744.359 8                  20156169.916
        50.500
 131471676.563 7                  25018218.739
        45.250
 129286951.11816                  24143428.317
        37.750
 102423434.393 6                  19153687.447
        41.000
 21 10 19  0 37 30.0000000  0 28E26G16E04G27G32E12E09G26G04G31S36G25
                                S25G29S23S48R01R21E24E21R19G18E01R09
                                R10E31R08R20
 127405275.034 7                  24244387.428
        46.000
 121325634.661 6  94539476.59144  23087495.451    23087494.611    23087493.743
        41.000          27.250
 141892564.365 6                  27001261.199
        40.500
 122541434.509 6  95486866.68445  23318850.180    23318849.702    23318853.303
        41.500          31.000
 127631532.266 6  99453151.29244  24287477.422    24287477.426    24287481.773
        41.750          27.500
 134458917.714 6                  25586682.038
        36.500
 132904472.078 6                  25290877.669
        40.250
 110915640.519 7  86427839.70146  21106522.962    21106522.520    21106524.177
        47.750          41.000
 130643293.099 6 101799969.56643  24860590.558    24860590.348    24860590.163
        36.000          20.500
 106886147.876 8  83287910.42449  20339753.841    20339753.551    20339751.999
        50.750          56.250
 195043952.651 7                  37115630.375
        47.000
 127595721.854 5  99425317.78144  24280639.625    24280638.834    24280641.814
        32.250          24.750
 183206289.795 7                  34862805.313
        46.000
 121895683.961 7  94983696.71346  23195957.818    23195957.367    23195955.223
        42.500          41.250
 203905854.369 7                  38801978.973
        42.500
  30756233.526 7                   5852693.348
        44.000
 130197897.325 5                  24356208.511
        35.500
 114668627.607 8                  21428552.441
        49.250
 151545733.695 5                  28838194.123
        33.500
 143558372.960 6                  27318214.856
        38.250
 121188062.392 5                  22654799.099
        35.750
 111545431.339 8  86918527.19246  21226382.828    21226382.681    21226382.402
        48.000          40.000
 127742140.814 7                  24308497.920
        47.500
 108749361.611 8                  20365250.769
        51.000
 107389540.806 8                  20146001.209
        50.750
 131431247.564 7                  25010525.347
        45.500
 129365088.654 6                  24158022.218
        38.000
 102433243.163 6                  19155521.323
        41.500
 21 10 19  0 38  0.0000000  0 28E26G16E04G27G32E12E09G26G04G31S36G25
                                S25G29S23S48R01R21E24E21R19G18E01R09
                                R10E31R08R20
 127431884.948 7                  24249451.204
        46.000
 121265076.008 7  94492288.05244  23075971.632    23075970.792    23075969.947
        42.000          28.000
 141961035.585 6                  27014290.909
        40.250
 122456081.150 7  95420357.42845  23302608.449    23302607.958    23302611.386
        42.000          31.500
 127723248.357 6  99524617.30244  24304931.141    24304931.115    24304935.679
        41.500          26.750
 134365940.190 6                  25568988.878
        36.500
 132931927.391 6                  25296101.836
        38.500
 110883467.266 7  86402769.63546  21100400.519    21100400.072    21100401.881
        47.750          41.250
 130600798.016 6 101766856.52243  24852504.182    24852503.963    24852504.561
        36.250          21.250
 106899487.976 8  83298305.30349  20342292.397    20342292.107    20342290.508
        51.250          57.000
 195043950.254 7                  37115631.761
        46.500
 127662982.808 4  99477728.93143  24293438.368    24293437.564    24293441.293
        29.250          18.500
 183203038.881 7                  34862079.117
        46.750
 121987143.213 7  95054963.67246  23213361.849    23213361.393    23213359.359
        42.250          41.000
 203905744.454 7                  38801956.633
        43.250
  30756883.085 7                   5852720.585
        44.250
 130235000.996 6                  24363148.930
        36.000
 114556933.336 8                  21407679.723
        49.750
 151491279.769 5                  28827832.326
        33.500
 143602272.502 6                  27326568.743
        37.750
 121307509.759 6                  22677129.230
        36.500
 111515996.731 8  86895591.14546  21220781.393    21220781.233    21220781.302
        48.500          39.750
 127749902.981 7                  24309975.094
        47.250
 108778422.772 8                  20370692.882
        51.250
 107335578.404 8                  20135878.317
        50.750
 131390803.204 7                  25002829.021
        45.500
 129443355.136 5                  24172633.405
        32.750
 102443855.759 6                  19157505.961
        41.000
 21 10 19  0 38 30.0000000  0 28E26G16E04G27G32E12E09G26G04G31S36G25
                                S25G29S23S48R01R21E24E21R19G18E01R09
                                R10E31R08R20
 127458904.911 7                  24254592.893
        45.750
 121204574.422 6  94445143.95144  23064458.513    23064457.682    23064456.896
        41.500          28.000
 142029537.570 6                  27027326.392
        40.000
 122371004.682 6  95354064.05445  23286418.690    23286418.208    23286422.168
        41.500          31.500
 127814863.636 6  99596004.96444  24322365.689    24322365.681    24322370.079
        41.000          27.000
 134273004.497 6                  25551302.847
        36.000
 132959697.613 6                  25301386.425
        39.500
 110851417.624 8  86377795.89046  21094301.662    21094301.220    21094303.174
        48.000          41.250
 130558773.679 5 101734110.25043  24844506.995    24844506.776    24844507.109
        35.500          21.000
 106913331.244 8  83309092.25149  20344926.731    20344926.441    20344924.871
        51.000          56.500
 195043949.374 7                  37115630.804
        47.250
 127730311.534 4  99530192.83341  24306250.027    24306249.173    24306253.574
        24.500           9.750
 183198185.279 7                  34861350.596
        47.250
 122078673.603 6  95126286.05946  23230779.325    23230778.860    23230777.241
        41.500          41.250
 203905637.433 7                  38801937.311
        44.000
  30757535.372 7                   5852749.548
        44.250
 130272600.977 6                  24370185.135
        38.250
 114445663.583 8                  21386886.342
        49.000
 151436743.184 5                  28817453.832
        33.000
 143646272.710 6                  27334941.553
        37.250
 121427211.262 6                  22699505.562
        36.000
 111487102.967 8  86873076.57046  21215283.010    21215282.850    21215282.878
        48.750          40.500
 127757760.194 7                  24311470.092
        46.500
 108807917.067 8                  20376216.349
        51.750
 107281868.334 8                  20125802.505
        50.750
 131350352.860 7                  24995131.717
        45.250
 129521755.154 6                  24187276.966
        37.500
 102455280.814 7                  19159642.762
        42.000
 21 10 19  0 39  0.0000000  0 28E26G16E04G27G32E12E09G26G04G31S36G25
                                S25G29S23S48R01R21E24E21R19G18E01R09
                                R10E31R08R20
 127486327.334 7                  24259811.170
        45.750
 121144123.096 7  94398039.01844  23052955.007    23052954.176    23052953.106
        42.000          27.750
 142098061.450 6                  27040365.918
        39.750
 122286199.382 6  95287982.15945  23270280.698    23270280.211    23270283.957
        41.750          31.000
 127906368.653 6  99667306.74244  24339779.094    24339779.077    24339784.133
        41.500          26.250
 134180104.633 6                  25533625.244
        36.250
 132987774.588 6                  25306729.097
        38.750
 110819485.402 8  86352913.64446  21088225.106    21088224.664    21088226.664
        48.250          41.000
 130517214.086 6 101701726.13643  24836598.433    24836598.214    24836598.352
        36.750          21.250
 106927671.337 8  83320266.33349  20347655.479    20347655.189    20347653.647
        51.250          56.250
 195043944.853 7                  37115630.161
        47.250
                                  24319074.977
        23.500
 183194928.259 7                  34860620.697
        46.750
 122170266.450 7  95197657.09846  23248208.882    23248208.422    23248206.991
        42.000          41.500
 203905526.778 7                  38801915.923
        43.500
  30756582.953 7                   5852777.182
        44.250
 130310687.286 6                  24377308.611
        37.750
 114334815.205 8                  21366171.430
        49.500
 151382116.944 5                  28807059.387
        31.750
 143690367.246 6                  27343332.620
        37.750
 121547155.465 5                  22721927.263
        35.500
 111458744.578 8  86850979.15946  21209886.674    21209886.514    21209886.265
        48.000          39.500
 127765706.471 7                  24312982.260
        46.750
 108837838.817 8                  20381819.457
        51.250
 107228407.464 8                  20115772.816
        50.750
 131309890.209 7                  24987431.763
        45.000
 129600277.196 6                  24201942.577
        39.000
 102467509.185 7                  19161928.919
        42.000
 21 10 19  0 39 30.0000000  0 28E26G16E04G27G32E12E09G26G04G31S36G25
                                S25G29S23S48R01R21E24E21R19G18E01R09
                                R10E31R08R20
 127514157.400 7                  24265107.355
        46.250
 121083728.376 7  94350978.21944  23041462.352    23041461.530    23041460.159
        42.000          27.500
 142166611.319 6                  27053411.264
        40.000
 122201672.241 6  95222117.16345  23254195.828    23254195.323    23254198.551
        41.750          31.500
 127997767.227 6  99738525.85844  24357171.993    24357171.989    24357177.600
        41.000          25.250
 134087249.224 6                  25515955.042
        36.000
 133016162.892 6                  25312131.236
        38.750
 110787677.279 8  86328128.09746  21082172.338    21082171.900    21082173.558
        48.250          41.250
 130476126.217 5 101669709.60243  24828781.365    24828781.129    24828779.456
        35.750          20.250
 106942514.569 8  83331832.48849  20350480.048    20350479.758    20350478.224
        51.250          56.750
 195043944.521 7                  37115629.856
        47.250


 183190068.129 7                  34859891.009
        46.750
 122261925.963 7  95269080.07447  23265651.164    23265650.686    23265649.597
        42.500          42.250
 203905418.667 7                  38801895.376
        42.750
  30757231.585 7                   5852803.998
        44.000
 130349263.371 6                  24384525.824
        36.000
 114224397.273 8                  21345537.568
        49.750
 151327407.023 5                  28796647.708
        35.250
 143734562.667 6                  27351743.124
        39.000
 121667344.381 6                  22744396.211
        36.500
 111430929.266 7  86829304.93646  21204593.485    21204593.325    21204592.982
        47.750          39.500
 127773748.688 7                  24314512.614
        47.250
 108868195.513 8                  20387504.627
        51.500
 107175204.473 8                  20105792.385
        50.750
 131269421.843 7                  24979730.922
        45.250
 129678955.93716                  24216630.330
        41.000
 102480546.108 6                  19164367.395
        41.250
 21 10 19  0 40  0.0000000  0 27E26G16E04G27G32E12E09G26G04G31S36S25
                                G29S23S48R01R21E24E21R19G18E01R09R10
                                E31R08R20
 127542390.944 7                  24270479.644
        46.500
 121023386.791 6  94303958.78344  23029979.951    23029979.151    23029977.408
        41.500          27.500
 142235181.854 6                  27066459.536
        39.500
 122117420.488 7  95156466.71145  23238162.643    23238162.138    23238165.378
        42.250          31.750
 128089052.752 6  99809656.79444  24374543.387    24374543.343    24374549.054
        39.500          24.500
 133994437.365 6                  25498293.411
        38.250
 133044858.018 6                  25317592.304
        39.250
 110755990.593 8  86303437.17846  21076142.527    21076142.089    21076143.754
        48.250          41.500
 130435507.696 6 101638058.78343  24821050.141    24821049.896    24821049.469
        36.000          20.750
 106957857.616 8  83343788.09849  20353399.833    20353399.543    20353398.032
        51.250          57.250
 195043947.453 7                  37115630.174
        47.750
 183186807.369 7                  34859158.615
        46.500
 122353646.380 7  95340550.52247  23283105.366    23283104.888    23283103.386
        42.500          42.500
 203905309.953 7                  38801874.713
        44.250
  30757879.466 7                   5852832.805
        44.000
 130388323.016 6                  24391832.555
        36.500
 114114410.433 8                  21324984.199
        50.250
 151272609.804 5                  28786220.314
        33.500
 143778856.306 6                  27360171.441
        38.500
 121787770.723 5                  22766909.775
        35.500
 111403655.187 7  86808052.44646  21199403.404    21199403.239    21199403.060
        47.500          39.750
 127781884.483 7                  24316060.903
        47.250
 108898984.783 8                  20393270.551
        51.250
 107122259.233 8                  20095860.048
        50.750
 131228944.978 7                  24972028.624
        45.500
 129757721.420 5                  24231334.408
        31.500
 102494387.318 6                  19166955.367
        41.250
 21 10 19  0 40 30.0000000  0 27E26G16E04G27G32E12E09G26G04G31S36S25
                                G29S23S48R01R21E24E21R19G18E01R09R10
                                E31R08R20
 127571029.863 7                  24275929.434
        46.000
 120963101.057 6  94256982.89044  23018507.488    23018506.666    23018505.782
        41.000          26.750
 142303773.904 6                  27079512.215
        39.000
 122033447.675 6  95091033.47945  23222183.447    23222182.938    23222185.655
        41.500          31.250
 128180226.006 6  99880700.37944  24391893.722    24391893.660    24391898.484
        39.750          24.500
 133901672.617 5                  25480641.076
        34.750
 133073861.429 6                  25323111.030
        38.500
 110724428.704 8  86278843.50246  21070136.443    21070136.001    21070137.824
        48.250          41.500
 130395362.162 6 101606776.53843  24813411.195    24813410.936    24813409.921
        37.250          21.250
 106973703.606 8  83356135.59949  20356415.306    20356415.016    20356413.467
        51.000          56.750
 195043951.160 7                  37115630.514
        47.000
 183183549.614 7                  34858424.035
        46.750
 122445428.640 7  95412069.17147  23300570.758    23300570.285    23300568.681
        42.500          42.250
 203905202.109 7                  38801856.791
        43.750
  30758529.664 7                   5852859.751
        44.000
 130427866.077 6                  24399230.801
        37.000
 114004860.958 8                  21304512.294
        50.000
 151217727.949 5                  28775776.398
        33.250
 143823251.565 6                  27368619.936
        38.750
 121908433.242 5                  22789464.497
        35.250
 111376926.682 8  86787225.09446  21194317.041    21194316.881    21194316.974
        48.000          40.000
 127790117.473 7                  24317627.538
        47.000
 108930210.672 8                  20399117.877
        51.000
 107069576.711 8                  20085976.912
        50.750
 131188462.930 7                  24964325.244
        45.250
 129836605.05117                  24246066.434
        42.500
 102509033.394 6                  19169694.420
        41.250
 21 10 19  0 41  0.0000000  0 27E26G16E04G27G32E12E09G26G04G31S36S25
                                G29S23S48R01R21E24E21R19G18E01R09R10
                                E31R08R20
 127600068.623 7                  24281455.462
        46.250
 120902866.802 6  94210047.10644  23007045.462    23007044.658    23007043.341
        40.500          26.500
 142372380.784 6                  27092567.879
        38.250
 121949750.375 6  95025814.90245  23206256.192    23206255.683    23206258.339
        41.500          31.250
 128271279.964 6  99951651.27344  24409221.284    24409221.195    24409226.187
        40.000          25.000
 133808952.638 6                  25462996.393
        37.000
 133103167.215 6                  25328688.063
        39.000
 110692987.591 8  86254343.93546  21064153.407    21064152.965    21064154.864
        48.000          41.750
 130355685.706 6 101575859.81243  24805861.194    24805860.940    24805860.392
        37.000          21.500
 106990048.188 8  83368871.62249  20359525.474    20359525.179    20359523.842
        50.500          56.500
 195043954.156 7                  37115629.611
        46.750
 183178671.206 7                  34857689.374
        45.250
 122537266.089 7  95483630.82247  23318047.145    23318046.667    23318044.614
        42.000          42.000
 203905092.183 7                  38801833.798
        43.500
  30757577.069 7                   5852886.308
        43.750
 130467884.650 5                  24406717.613
        35.500
 113895747.307 8                  21284121.817
        49.000
 151162756.702 5                  28765315.482
        34.750
 143867744.313 6                  27377086.531
        39.000
 122029323.234 5                  22812065.467
        35.750
 111350740.473 7  86766820.32646  21189333.930    21189333.778    21189333.695
        47.500          40.000
 127798443.874 7                  24319211.990
        47.500
 108961869.647 8                  20405046.608
        51.250
 107017155.334 8                  20076142.666
        50.500
 131147971.502 7                  24956619.795
        45.500
 129915592.327 6                  24260817.967
        41.000
 102524478.062 6                  19172582.450
        41.250
 21 10 19  0 41 30.0000000  0 27E26G16E04G27G32E12E09G26G04G31S36S25
                                G29S23S48R01R21E24E21R19G18E01R09R10
                                E31R08R20
 127629511.317 7                  24287058.136
        46.000
 120842688.689 6  94163155.07544  22995594.107    22995593.307    22995590.966
        40.250          26.250
 142441005.525 6                  27105626.640
        38.250
 121866334.590 6  94960815.72045  23190382.543    23190382.020    23190384.692
        41.500          30.500
 128362216.700 6 100022510.85544  24426526.106    24426526.017    24426531.585
        39.750          24.500
 133716284.576 5                  25445362.256
        35.500
 133132778.675 6                  25334322.754
        38.750
 110661672.918 8  86229942.89446  21058194.434    21058194.001    21058196.016
        48.250          41.500
 130316484.265 6 101545313.22643  24798401.360    24798401.097    24798400.612
        37.250          22.000
 107006896.425 8  83382000.11849  20362731.659    20362731.364    20362729.866
        50.500          56.000
 195043958.272 7                  37115631.028
        47.000
 183175391.228 7                  34856952.594
        46.750
 122629161.670 7  95555237.75646  23335533.599    23335533.112    23335531.931
        42.250          41.250
 203904984.723 7                  38801812.692
        42.750
  30758224.108 7                   5852915.172
        43.750
 130508381.038 5                  24414291.658
        35.500
 113787078.122 8                  21263814.130
        49.500
 151107700.910 5                  28754839.468
        34.250
 143912340.030 6                  27385572.821
        39.000
 122150441.424 5                  22834706.203
        35.750
 111325103.073 7  86746843.20946  21184455.184    21184455.024    21184455.240
        47.000          39.750
 127806869.552 7                  24320815.456
        47.250
 108993967.572 8                  20411057.132
        51.250
 106965002.825 8                  20066358.997
        50.750
 131107476.289 7                  24948913.852
        45.750
                                  24275588.718
        32.500
 102540725.200 6                  19175620.902
        41.500
 21 10 19  0 42  0.0000000  0 27E26G16E04G27G32E12E09G26G04G31S36S25
                                G29S23S48R01R21E24E21R19G18E01R09R10
                                E31R08R20
 127659352.208 7                  24292736.624
        45.750
 120782561.906 6  94116303.06244  22984152.314    22984151.496    22984149.814
        41.000          26.250
 142509641.332 6                  27118687.681
        37.750
 121783196.327 6  94896032.75545  23174561.827    23174561.309    23174564.015
        41.750          30.750
 128453028.931 6 100093273.44643  24443806.806    24443806.695    24443812.251
        38.750          23.250
 133623664.612 5                  25427736.873
        33.500
 133162689.603 6                  25340014.753
        39.250
 110630480.535 8  86205637.14346  21052258.591    21052258.158    21052260.398
        48.000          41.500
 130277753.758 6 101515133.60143  24791030.989    24791030.721    24791031.145
        37.500          22.750
 107024243.666 8  83395517.45149  20366032.680    20366032.390    20366030.916
        50.750          56.750
 195043952.156 7                  37115630.268
        47.250
 183172102.570 7                  34856214.937
        47.000
 122721108.703 6  95626884.79446  23353030.583    23353030.087    23353028.849
        41.250          40.500
 203904875.005 7                  38801795.100
        43.000
  30758869.844 7                   5852943.983
        44.000
 130549347.240 5                  24421954.673
        34.750
 113678851.755 8                  21243589.511
        49.500
 151052555.591 6                  28744345.255
        36.000
 143957034.452 6                  27394077.924
        38.750
 122271779.086 5                  22857388.529
        35.750
 111300011.062 7  86727291.07646  21179680.343    21179680.174    21179680.066
        47.250          39.500
 127815390.534 7                  24322436.910
        47.500
 109026501.057 8                  20417150.072
        51.250
 106913117.512 8                  20056625.738
        50.500
 131066973.032 7                  24941206.391
        45.750
 130073865.83816                  24290375.775
        36.000
 102557768.125 6                  19178807.892
        41.500
 21 10 19  0 42 30.0000000  0 27E26G16E04G27G32E12E09G26G04G31S36S25
                                G29S23S48R01R21E24E21R19G18E01R09R10
                                E31R08R20
 127689588.932 7                  24298490.467
        45.750
 120722485.176 6  94069490.05444  22972720.233    22972719.406    22972718.125
        41.000          27.500
 142578284.754 6                  27131749.915
        38.000
 121700335.148 6  94831465.73045  23158793.953    23158793.444    23158795.813
        41.500          30.750
 128543712.666 6 100163935.97743  24461063.491    24461063.389    24461069.003
        39.750          23.750
 133531093.423 6                  25410121.498
        36.750
 133192897.259 6                  25345763.072
        39.500
 110599409.560 8  86181425.99846  21046346.193    21046345.760    21046347.652
        48.000          41.500
 130239493.514 6 101485320.41443  24783750.712    24783750.453    24783750.284
        37.500          22.500
 107042088.731 8  83409422.69049  20369428.484    20369428.189    20369426.805
        50.500          56.500
 195043947.955 7                  37115630.796
        46.500
 183167204.124 7                  34855474.213
        46.500
 122813103.769 6  95698569.25846  23370536.541    23370536.027    23370534.755
        41.250          40.750
 203904761.244 7                  38801774.549
        44.250
  30757909.066 7                   5852970.218
        44.000
 130590778.729 5                  24429704.904
        35.500
 113571070.286 8                  21223447.976
        50.250
 150997319.282 5                  28733834.968
        35.000
 144001826.690 6                  27402601.308
        38.250
 122393330.622 5                  22880111.823
        35.000
 111275464.366 7  86708163.87246  21175009.304    21175009.139    21175008.723
        47.500          39.250
 127824006.250 7                  24324076.339
        47.250
 109059469.449 8                  20423324.145
        51.250
 106861500.421 8                  20046942.467
        50.750
 131026460.772 7                  24933497.094
        46.000
 130153154.215 7                  24305183.536
        42.250
 102575604.016 6                  19182143.379
        41.000
 21 10 19  0 43  0.0000000  0 27E26G16E04G27G32E12E09G26G04G31S36S25
                                G29S23S48R01R21E24E21R19G18E01R09R10
                                E31R08R20
 127720226.092 7                  24304320.590
        46.000
 120662463.935 6  94022720.27344  22961298.724    22961297.897    22961296.537
        41.750          28.000
 142646939.353 6                  27144814.794
        38.750
 121617757.205 6  94767119.32845  23143079.567    23143079.049    23143081.847
        41.750          30.750
 128634270.940 6 100234500.80343  24478295.919    24478295.839    24478301.424
        39.000          23.500
 133438578.534 6                  25392516.596
        36.500
 133223406.012 6                  25351568.820
        39.500
 110568466.251 8  86157314.33346  21040457.858    21040457.425    21040459.236
        48.000          41.000
 130201709.886 6 101455878.63043  24776560.767    24776560.522    24776561.127
        37.500          22.750
 107060437.257 8  83423720.23949  20372920.226    20372919.936    20372918.450
        50.250          55.750
 195043941.283 7                  37115629.982
        47.500
 183163901.338 7                  34854731.566
        46.500
 122905150.394 6  95770293.90346  23388052.645    23388052.145    23388050.601
        41.500          40.500
 203904648.892 7                  38801751.667
        44.000
  30758549.701 7                   5852998.219
        44.250
 130632678.184 6                  24437544.982
        37.000
 113463742.448 8                  21203391.138
        50.250
 150941997.190 6                  28723306.275
        36.250
 144046722.721 6                  27411144.980
        38.500
 122515097.180 5                  22902873.770
        34.500
 111251469.880 7  86689466.96546  21170443.274    21170443.096    21170442.530
        47.500          39.000
 127832723.131 7                  24325735.266
        47.500
 109092879.525 8                  20429580.504
        51.000
 106810160.302 8                  20037311.184
        51.000
 130985945.612 7                  24925787.307
        45.500
 130232536.841 6                  24320007.593
        38.250
 102594236.500 6                  19185627.671
        41.000
 21 10 19  0 43 30.0000000  0 27E26G16E04G27G32E12E09G26G04G31S36S25
                                G29S23S48R01R21E24E21R19G18E01R09R10
                                E31R08R20
 127751263.802 7                  24310226.893
        46.000
 120602499.295 7  93975994.59044  22949888.059    22949887.241    22949885.644
        42.250          28.250
 142715604.199 6                  27157881.600
        38.000
 121535464.610 7  94702995.23745  23127420.064    23127419.546    23127421.979
        42.750          31.500
 128724702.294 6 100304966.72544  24495505.109    24495505.047    24495510.276
        39.500          24.000
 133346123.013 6                  25374922.433
        38.000
 133254215.297 6                  25357431.432
        39.750
 110537652.310 8  86133303.46946  21034594.238    21034593.805    21034595.289
        48.250          41.500
 130164404.606 6 101426809.56443  24769460.585    24769460.340    24769461.429
        36.750          22.500
 107079290.227 8  83438410.85949  20376507.673    20376507.378    20376505.952
        50.750          56.250
 195043940.073 7                  37115629.034
        47.250
 183158991.661 7                  34853989.286
        46.500
 122997248.093 6  95842058.34446  23405578.545    23405578.063    23405576.258
        41.750          41.500
 203904538.853 7                  38801733.052
        43.250
  30759191.502 7                   5853025.411
        44.000
 130675043.815 6                  24445470.564
        37.750
 113356872.823 8                  21183420.705
        49.750
 150886590.409 5                  28712763.480
        34.000
 144091724.196 6                  27419708.315
        39.500
 122637076.341 5                  22925677.570
        34.000
 111228029.954 8  86671202.15846  21165982.657    21165982.474    21165982.082
        48.000          39.500
 127841543.062 7                  24327413.592
        47.250
 109126733.495 8                  20435920.352
        51.000
 106759100.799 8                  20027732.437
        50.250
 130945429.158 7                  24918077.308
        45.500
 130312010.635 6                  24334845.756
        36.250
 102613665.084 6                  19189260.789
        41.000
 21 10 19  0 44  0.0000000  0 27E26G16E04G27G32E12E09G26G04G31S36S25
                                G29S23S48R01R21E24E21R19G18E01R09R10
                                E31R08R20
 127782695.959 7                  24316208.352
        46.000
 120542586.273 7  93929309.11644  22938486.960    22938486.124    22938484.424
        42.500          28.500
 142784272.180 6                  27170948.390
        38.750
 121453453.161 7  94639090.23545  23111813.641    23111813.127    23111815.793
        42.250          31.000
 128814999.161 6 100375327.86944  24512687.546    24512687.453    24512693.800
        39.000          24.000
 133253723.536 5                  25357339.888
        35.000
 133285318.432 6                  25363350.479
        38.250
 110506963.291 8  86109389.95046  21028754.082    21028753.658    21028755.502
        48.500          41.750
 130127573.349 6 101398109.87543  24762452.421    24762452.167    24762452.706
        37.250          22.500
 107098642.753 8  83453490.73349  20380190.411    20380190.116    20380188.566
        50.500          56.250
 195043943.288 7                  37115628.962
        47.250
 183155675.857 7                  34853246.245
        46.250
 123089389.498 6  95913856.84646  23423112.227    23423111.745    23423110.143
        41.750          41.000
 203904426.570 7                  38801711.503
        44.000
  30758229.070 7                   5853052.674
        43.750
 130717867.263 5                  24453480.800
        33.750
 113250459.501 8                  21163534.612
        50.500
 150831093.759 5                  28702203.138
        34.750
 144136826.646 6                  27428291.655
        40.500
 122759258.833 5                  22948519.231
        35.500
 111205140.800 7  86653366.50546  21161626.917    21161626.739    21161626.490
        47.500          39.500
 127850461.892 7                  24329110.714
        47.500
 109161027.100 8                  20442343.047
        51.500
 106708319.935 8                  20018206.136
        50.250
 130904906.905 7                  24910366.221
        45.750
 130391566.699 6                  24349706.040
        40.000
 102633882.826 6                  19193041.749
        41.500
 21 10 19  0 44 30.0000000  0 27E26G16E04G27G32E12E09G26G04G31S36S25
                                G29S23S48R01R21E24E21R19G18E01R09R10
                                E31R08R20
 127814524.859 7                  24322265.052
        45.750
 120482728.255 7  93882666.51044  22927095.868    22927095.028    22927094.111
        42.000          28.250
 142852944.603 6                  27184016.815
        39.250
 121371727.134 7  94575407.70745  23096261.828    23096261.314    23096263.888
        42.250          31.250
 128905162.327 6 100445584.87644  24529845.082    24529844.966    24529850.848
        39.500          24.000
 133161385.597 6                  25339768.636
        36.750
 133316717.294 6                  25369325.267
        39.250
 110476403.204 8  86085576.89846  21022938.640    21022938.216    21022940.402
        48.500          41.750
 130091220.094 6 101369782.64643  24755535.185    24755534.926    24755535.625
        36.000          21.500
 107118498.516 8  83468962.74949  20383968.898    20383968.603    20383967.051
        50.500          56.000
 195043941.026 8                  37115627.943
        48.000
 183152365.413 7                  34852501.443
        46.250
 123181575.850 7  95985690.37146  23440654.492    23440654.001    23440652.605
        42.000          41.000
 203904315.178 7                  38801689.655
        43.250
  30758867.437 7                   5853079.526
        43.750
 130761148.747 5                  24461577.385
        33.500
 113144509.714 8                  21143735.630
        49.750
 150775510.338 5                  28691625.778
        34.000
 144182033.832 6                  27436894.175
        39.750
 122881643.571 5                  22971395.206
        34.500
 111182807.056 7  86635963.65846  21157376.801    21157376.627    21157376.494
        47.500          39.250
 127859483.757 7                  24330827.643
        47.250
 109195764.796 8                  20448847.971
        51.250
 106657824.015 8                  20008733.016
        50.500
 130864382.655 7                  24902654.702
        45.750
 130471204.529 6                  24364577.918
        41.000
 102654890.872 6                  19196969.783
        41.500
 21 10 19  0 45  0.0000000  0 27E26G16E04G27G32E12E09G26G04G31S36S25
                                G29S23S48R01R21E24E21R19G18E01R09R10
                                E31R08R20
 127846745.409 7                  24328396.491
        45.750
 120422920.850 6  93836063.34544  22915714.992    22915714.147    22915712.946
        41.500          27.500
 142921615.422 6                  27197084.647
        38.750
 121290283.109 7  94511944.94045  23080763.279    23080762.765    23080765.535
        42.250          31.250
 128995185.173 6 100515732.50844  24546976.121    24546975.974    24546981.773
        39.250          24.500
 133069106.187 6                  25322208.112
        37.500
 133348406.353 6                  25375355.223
        38.500
 110445968.553 8  86061861.59046  21017147.372    21017146.948    21017148.891
        48.000          41.500
 130055341.358 5 101341825.17143  24748707.194    24748706.913    24748707.247
        35.750          20.250
 107138853.236 8  83484823.56049  20387842.209    20387841.914    20387840.482
        50.750          56.500
 195043934.876 7                  37115627.352
        47.000
 183147439.019 7                  34851755.214
        46.250
 123273801.110 6  96057554.20946  23458204.738    23458204.238    23458202.673
        41.500          41.250
 203904200.766 7                  38801666.921
        42.250
  30759503.948 7                   5853105.516
        44.000
 130804880.823 6                  24469759.119
        37.000
 113039022.068 8                  21124022.674
        50.000
 150719835.848 5                  28681030.926
        35.250
 144227342.115 6                  27445516.063
        39.250
 123004222.704 5                  22994311.994
        35.000
 111161025.843 7  86618991.36546  21153231.590    21153231.412    21153231.707
        47.000          39.250
 127868605.384 7                  24332563.349
        47.000
 109230943.190 8                  20455435.673
        51.000
 106607611.239 8                  19999313.327
        50.250
 130823852.898 7                  24894942.012
        45.750
 130550916.183 6                  24379460.046
        36.000
 102676683.712 6                  19201046.130
        41.250
 21 10 19  0 45 30.0000000  0 27E26G16E04G27G32E12E09G26G04G31S36S25
                                G29S23S48R01R21E24E21R19G18E01R09R10
                                E31R08R20
 127879367.869 7                  24334604.037
        45.750
 120363175.682 6  93789508.68844  22904345.725    22904344.880    22904343.922
        41.000          27.000
 142990293.940 6                  27210153.823
        39.500
 121209133.259 7  94448711.41245  23065320.991    23065320.468    23065323.180
        43.500          31.500
 129085076.598 6 100585777.75344  24564081.785    24564081.642    24564087.240
        39.250          24.500
 132976898.566 5                  25304661.484
        34.750
 133380395.448 6                  25381443.073
        39.250
 110415671.369 8  86038253.40146  21011381.900    21011381.476    21011383.530
        48.500          41.750
 130019949.118 6 101314246.78543  24741971.567    24741971.290    24741972.644
        38.000          21.500
 107159718.063 8  83501081.86549  20391812.667    20391812.372    20391811.002
        51.250          57.000
 195043942.855 7                  37115628.689
        47.250
 183144112.158 7                  34851010.438
        46.500
 123366074.945 6  96129455.89746  23475763.618    23475763.109    23475761.934
        41.250          41.000
 203904094.628 7                  38801648.274
        43.250
  30758548.887 7                   5853135.283
        44.250
 130849071.917 5                  24478024.715
        35.250
 112934011.108 8                  21104399.294
        49.500
 150664081.514 5                  28670421.148
        33.250
 144272763.205 6                  27454159.833
        39.000
 123127003.725 5                  23017263.992
        35.000
 111139809.691 8  86602459.36646  21149194.621    21149194.461    21149194.243
        48.000          39.500
 127877838.905 7                  24334320.354
        47.000
 109266574.714 8                  20462108.628
        51.500
 106557696.462 8                  19989949.375
        50.750
 130783329.459 7                  24887230.794
        45.250
 130630708.725 6                  24394362.697
        41.500
 102699270.625 6                  19205268.719
        40.750
 21 10 19  0 46  0.0000000  0 27E26G16E04G27G32E12E09G26G04G31S36S25
                                G29S23S48R01R21E24E21R19G18E01R09R10
                                E31R08R20
 127912374.260 7                  24340885.120
        46.000
 120303475.589 6  93742989.13044  22892985.297    22892984.439    22892982.714
        40.250          26.000
 143058961.226 6                  27223220.747
        39.250
 121128261.260 7  94385694.33245  23049931.212    23049930.689    23049933.532
        42.000          31.750
 129174817.198 6 100655705.48744  24581159.184    24581159.055    24581164.367
        39.500          24.750
 132884747.786 5                  25287125.770
        35.500
 133412665.977 6                  25387583.714
        38.500
 110385495.328 8  86014739.60746  21005639.495    21005639.075    21005641.260
        48.500          41.750
 129985027.029 6 101287034.75443  24735326.957    24735326.689    24735326.919
        37.500          21.250
 107181076.041 8  83517724.41149  20395876.850    20395876.555    20395875.367
        50.750          56.000
 195043941.493 7                  37115628.689
        47.000
 183140772.456 7                  34850263.471
        46.500
 123458378.547 6  96201380.77246  23493328.816    23493328.316    23493326.651
        41.750          41.000
 203903979.405 7                  38801628.327
        42.750
  30759181.079 7                   5853160.892
        44.250
 130893701.367 5                  24486372.992
        32.750
 112829463.393 8                  21084861.989
        49.500
 150608230.193 5                  28659793.467
        35.250
 144318280.769 6                  27462821.109
        38.750
 123249965.342 5                  23040250.438
        35.000
 111119142.804 7  86586355.36346  21145261.878    21145261.709    21145261.612
        47.250          39.500
 127887168.256 7                  24336095.636
        47.250
 109302643.336 8                  20468862.639
        50.750
 106508065.203 8                  19980639.020
        50.500
 130742796.014 7                  24879517.431
        45.750
 130710560.734 7                  24409276.185
        43.500
 102722632.608 6                  19209637.978
        41.250
 21 10 19  0 46 30.0000000  0 27E26G16E04G27G32E12E09G26G04G31S36S25
                                G29S23S48R01R21E24E21R19G18E01R09R10
                                E31R08R20
 127945773.337 7                  24347240.630
        46.000
 120243830.610 6  93696512.53844  22881635.238    22881634.362    22881632.792
        40.750          26.500
 143127625.042 6                  27236286.836
        39.500
 121047677.818 7  94322902.07945  23034596.926    23034596.421    23034598.746
        42.500          31.250
 129264414.193 6 100725521.28844  24598208.671    24598208.537    24598214.619
        38.750          24.250
 132792665.621 6                  25269603.220
        36.750
 133445226.323 6                  25393779.986
        39.000
 110355450.911 8  85991328.38246  20999922.342    20999921.922    20999923.745
        48.750          41.500
 129950585.443 6 101260197.14443  24728772.591    24728772.310    24728772.875
        36.750          20.750
 107202937.211 8  83534759.10449  20400037.046    20400036.751    20400035.541
        51.250          56.750
 195043939.120 7                  37115627.518
        47.000
 183135833.767 7                  34849514.899
        46.500
 123550719.681 6  96273334.90846  23510900.335    23510899.835    23510898.603
        41.000          41.250
 203903864.819 7                  38801602.150
        43.500
  30759813.454 7                   5853187.749
        44.500
 130938776.348 5                  24494806.562
        34.750
 112725391.924 8                  21065413.735
        50.250
 150552291.652 5                  28649148.498
        34.500
 144363905.000 6                  27471503.354
        39.500
 123373112.735 5                  23063271.240
        35.750
 111099036.197 7  86570687.94946  21141435.401    21141435.236    21141435.504
        47.500          39.500
 127896604.031 7                  24337891.356
        47.500
 109339159.565 8                  20475701.009
        50.750
 106458729.455 8                  19971383.437
        50.500
 130702262.886 7                  24871804.296
        45.750
                                  24424195.564
        32.500
 102746777.807 6                  19214152.583
        41.500
 21 10 19  0 47  0.0000000  0 27E26G16E04G27G32E12E09G26G04G31S36S25
                                G29S23S48R01R21E24E21R19G18E01R09R10
                                E31R08R20
 127979564.223 7                  24353670.861
        45.750
 120184241.003 6  93650079.10844  22870295.243    22870294.358    22870293.231
        41.750          27.500
 143196283.653 6                  27249352.230
        38.750
 120967384.237 7  94260335.85545  23019317.396    23019316.882    23019319.127
        43.000          31.750
 129353865.397 6 100795223.47744  24615230.627    24615230.511    24615237.134
        38.750          25.500
 132700653.808 6                  25252094.144
        39.500
 133478075.050 6                  25400030.413
        39.500
 110325538.995 8  85968020.40247  20994230.238    20994229.823    20994231.696
        48.750          42.250
 129916625.165 6 101233734.58343  24722310.845    24722310.573    24722310.285
        36.500          21.500
 107225301.445 8  83552185.75549  20404292.822    20404292.527    20404291.238
        50.500          56.500
 195043936.559 7                  37115627.424
        47.250
 183132491.862 7                  34848763.886
        46.500
 123643096.419 6  96345316.76946  23528479.152    23528478.661    23528477.539
        40.750          41.250
 203903752.713 7                  38801583.355
        42.500
  30760447.279 7                   5853215.084
        44.250
 130984293.753 5                  24503322.226
        35.000
 112621799.601 8                  21046055.036
        50.750
 150496266.056 5                  28638487.149
        35.250
 144409636.663 6                  27480205.881
        39.750
 123496443.375 5                  23086328.406
        34.750
 111079491.199 8  86555458.14446  21137716.080    21137715.915    21137716.009
        48.000          40.000
 127906147.345 7                  24339707.420
        47.250
 109376124.574 8                  20482623.592
        50.750
 106409693.401 8                  19962184.370
        50.500
 130661730.868 7                  24864091.281
        45.500
 130870445.83616                  24439134.858
        38.250
 102771703.643 6                  19218814.126
        41.000
 21 10 19  0 47 30.0000000  0 27E26G16E04G27G32E12E09G26G04G31S36S25
                                G29S23S48R01R21E24E21R19G18E01R09R10
                                E31R08R20
 128013746.546 7                  24360175.510
        45.750
 120124707.235 7  93603689.16244  22858966.426    22858965.555    22858964.215
        43.000          28.750
 143264935.689 6                  27262416.137
        38.250
 120887381.595 7  94197996.32445  23004093.294    23004092.785    23004094.795
        42.500          31.750
 129443169.080 6 100864810.72344  24632224.673    24632224.580    24632230.623
        39.500          25.250
 132608715.216 6                  25234598.297
        38.250
 133511211.379 6                  25406336.354
        38.750
 110295760.985 8  85944816.76947  20988563.580    20988563.160    20988565.300
        48.500          42.250
 129883147.388 6 101207647.98043  24715939.897    24715939.629    24715939.444
        37.000          21.500
 107248169.611 8  83570005.09249  20408644.443    20408644.148    20408642.891
        50.500          56.250
 195043931.622 7                  37115628.372
        47.500
 183127548.153 7                  34848012.756
        47.750
 123735507.705 6  96417325.54346  23546064.161    23546063.679    23546063.107
        40.500          41.000
 203903642.245 7                  38801561.471
        44.000
  30759482.849 7                   5853241.650
        44.500
 131030251.153 6                  24511919.047
        37.750
 112518691.255 8                  21026786.873
        49.500
 150440153.875 5                  28627809.110
        34.750
 144455476.853 6                  27488929.167
        39.500
 123619953.261 5                  23109417.468
        34.750
 111060509.646 7  86540667.41746  21134104.346    21134104.190    21134103.564
        47.500          40.000
 127915799.742 7                  24341544.398
        47.250
 109413540.311 8                  20489630.226
        50.750
 106360960.273 8                  19953042.149
        50.500
 130621201.213 7                  24856378.740
        45.500
 130950482.005 7                  24454081.853
        44.000
 102797409.534 6                  19223622.080
        41.000
 21 10 19  0 48  0.0000000  0 27E26G16E04G27G32E12E09G26G04G31S36S25
                                G29S23S48R01R21E24E21R19G18E01R09R10
                                E31R08R20
 128048314.999 7                  24366753.700
        45.750
 120065225.163 7  93557339.53644  22847647.512    22847646.649    22847644.816
        42.750          29.000
 143333575.022 6                  27275478.093
        38.500
 120807666.340 7  94135880.63545  22988923.736    22988923.204    22988925.267
        42.000          31.500
 129532318.708 6 100934278.00644  24649189.222    24649189.120    24649194.913
        38.750          24.250
 132516846.748 6                  25217116.195
        39.500
 133544629.690 6                  25412695.759
        38.500
 110266113.411 8  85921714.77347  20982922.031    20982921.611    20982923.575
        48.500          42.250
 129850148.449 6 101181934.52043  24709660.653    24709660.403    24709660.937
        37.000          21.750
 107271537.404 8  83588213.75549  20413091.160    20413090.865    20413089.719
        50.750          56.250
 195043933.000 7                  37115627.630
        47.250
 183124191.639 7                  34847257.978
        46.250
 123827947.658 6  96489356.65546  23563654.769    23563654.291    23563653.893
        41.000          41.250
 203903528.792 7                  38801541.407
        42.750
  30760117.250 7                   5853268.113
        43.250
 131076641.042 5                  24520597.222
        30.750
 112416065.187 8                  21007608.911
        50.000
 150383950.913 5                  28617114.541
        35.000
 144501421.943 6                  27497672.137
        40.250
 123743634.127 5                  23132537.563
        34.000
 111042088.381 8  86526313.26646  21130598.299    21130598.139    21130597.942
        48.000          39.750
 127925557.898 7                  24343401.015
        47.250
 109451403.114 8                  20496720.716
        50.750
 106312528.488 8                  19943956.562
        50.750
 130580670.349 7                  24848666.097
        45.750
 131030568.304 5                  24469037.219
        34.250
 102823888.665 6                  19228572.612
        41.500
 21 10 19  0 48 30.0000000  0 27E26G16E04G27G32E12E09G26G04G31S36S25
                                G29S23S48R01R21E24E21R19G18E01R09R10
                                E31R08R20
 128083269.751 7                  24373405.367
        45.250
 120005796.345 7  93511031.37044  22836338.617    22836337.750    22836336.964
        42.750          29.000
 143402200.928 6                  27288537.080
        36.750
 120728240.593 7  94073990.53845  22973809.515    22973808.957    22973811.026
        42.500          31.250
 129621313.215 6 101003624.43145  24666124.067    24666123.974    24666130.347
        39.500          32.250
 132425051.906 6                  25199647.943
        38.500
 133578329.390 6                  25419108.275
        38.500
 110236598.178 8  85898715.89746  20977305.367    20977304.952    20977306.801
        49.000          41.750
 129817630.145 6 101156595.56243  24703472.833    24703472.579    24703471.344
        37.500          20.750
 107295405.850 8  83606812.53849  20417633.294    20417632.999    20417631.729
        50.750          56.000
 195043930.461 7                  37115626.856
        47.250
 183120822.673 7                  34846504.125
        46.500
 123920415.234 6  96561409.31046  23581251.282    23581250.809    23581249.567
        41.250          40.750
 203903414.431 7                  38801519.071
        43.250
  30760748.880 7                   5853297.031
        44.250
 131123461.267 5                  24529355.871
        35.500
 112313926.500 8                  20988521.286
        50.250
 150327658.236 6                  28606401.602
        36.750
 144547473.593 6                  27506435.499
        40.000
 123867483.408 5                  23155688.150
        33.250
 111024229.813 8  86512397.60646  21127200.102    21127199.946    21127199.585
        48.250          39.500
 127935423.908 7                  24345278.696
        47.250
 109489715.146 8                  20503895.305
        50.750
 106264401.955 8                  19934928.021
        50.500
 130540140.076 7                  24840953.201
        45.500
 131110701.913 6                  24484000.056
        37.750
 102851140.060 6                  19233669.145
        41.250
 21 10 19  0 49  0.0000000  0 27E26G16E04G27G32E12E09G26G04G31S36S25
                                G29S23S48R01R21E24E21R19G18E01R09R10
                                E31R08R20
 128118610.209 7                  24380130.564
        45.750
 119946421.115 7  93464764.94945  22825039.405    22825038.542    22825038.104
        42.500          30.250
 143470811.831 6                  27301593.023
        37.000
 120649105.864 7  94012327.30145  22958750.417    22958749.867    22958752.234
        42.250          31.500
 129710150.875 7 101072848.82345  24683029.153    24683029.055    24683035.477
        43.000          33.750
 132333332.553 6                  25182194.397
        37.250
 133612309.823 6                  25425574.750
        39.500
 110207216.557 8  85875821.13847  20971714.191    20971713.776    20971715.596
        48.250          42.000
 129785593.460 6 101131631.91043  24697376.795    24697376.541    24697376.348
        36.500          22.000
 107319775.183 8  83625801.62049  20422270.640    20422270.341    20422268.954
        50.500          56.250
 195043928.517 7                  37115626.606
        47.500
 183115849.212 7                  34845746.994
        47.000
 124012908.998 6  96633482.36246  23598852.331    23598851.844    23598850.571
        41.250          41.500
 203903299.612 7                  38801495.345
        44.500
  30759779.318 7                   5853322.353
        44.250
 131170708.798 6                  24538194.787
        38.750
 112212277.754 8                  20969526.177
        50.250
 150271276.349 5                  28595673.234
        34.750
 144593632.678 6                  27515219.092
        39.500
 123991497.786 5                  23178872.182
        34.250
 111006935.345 7  86498921.49946  21123909.210    21123909.067    21123908.470
        47.500          39.500
 127945399.158 7                  24347176.822
        47.500
 109528477.493 8                  20511154.268
        50.250
 106216584.640 8                  19925957.635
        50.750
 130499611.522 7                  24833241.040
        46.000
 131190879.495 7                  24498974.245
        43.000
 102879162.459 6                  19238909.262
        41.250
 21 10 19  0 49 30.0000000  0 27E26G16E04G27G32E12E09G26G04G31S36S25
                                G29S23S48R01R21E24E21R19G18E01R09R10
                                E31R08R20
 128154333.199 7                  24386928.183
        45.750
 119887097.725 7  93418538.91444  22813751.283    22813750.429    22813749.318
        42.250          29.250
 143539403.784 6                  27314645.794
        36.500
 120570260.607 7  93950889.67045  22943746.675    22943746.134    22943748.375
        42.750          32.000
 129798827.002 6 101141947.47646  24699902.945    24699902.820    24699908.630
        38.000          38.250
 132241688.532 6                  25164754.918
        38.750
 133646567.116 6                  25432093.626
        39.500
 110177967.175 8  85853029.42147  20966148.194    20966147.774    20966149.857
        48.250          42.000
 129754036.773 6 101107042.25043  24691371.437    24691371.201    24691371.178
        37.250          21.500
 107344643.112 8  83645179.21849  20427002.839    20427002.535    20427001.111
        50.000          55.750
 195043920.056 7                  37115625.845
        47.000
 183112473.462 7                  34844989.246
        46.000
 124105425.689 6  96705573.29046  23616457.318    23616456.840    23616455.770
        41.500          41.250
 203903181.532 7                  38801473.644
        43.250
  30760405.320 7                   5853348.544
        44.000
 131218378.403 5                  24547112.637
        34.500
 112111120.340 8                  20950622.482
        50.500
 150214802.962 6                  28584926.279
        36.000
 144639897.682 6                  27524023.294
        40.500
 124115671.161 5                  23202084.578
        34.750
 110990204.078 7  86485884.27546  21120725.206    21120725.063    21120724.626
        47.750          40.000
 127955482.451 7                  24349095.539
        47.250
 109567688.981 8                  20518497.449
        51.000
 106169077.169 8                  19917045.548
        51.000
 130459083.263 7                  24825528.662
        45.500
 131271094.439 5                  24513957.155
        32.500
 102907951.299 6                  19244293.360
        41.500
 21 10 19  0 50  0.0000000  0 27E26G16E04G27G32E12E09G26G04G31S36S25
                                G29S23S48R01R21E24E21R19G18E01R09R10
                                E31R08R20
 128190445.998 7                  24393800.242
        46.000
 119827834.396 7  93372359.67444  22802473.586    22802472.737    22802471.792
        42.750          28.250
 143607983.137 6                  27327696.481
        37.750
 120491714.001 7  93889684.78245  22928799.183    22928798.638    22928801.230
        42.250          31.500
 129887347.856 6 101210925.27845  24716748.223    24716748.063    24716753.362
        36.000          35.000
 132150130.487 6                  25147331.768
        38.000
 133681108.054 6                  25438666.660
        38.750
 110148859.197 8  85830347.88846  20960609.078    20960608.658    20960610.943
        48.250          41.750
 129722968.965 6 101082833.55343  24685459.833    24685459.588    24685459.188
        36.750          21.750
 107370018.223 8  83664952.02049  20431831.592    20431831.288    20431829.900
        50.500          56.000
 195043923.661 7                  37115625.859
        46.750
 183109094.475 7                  34844232.160
        46.500
 124197971.937 6  96777687.24546  23634068.550    23634068.063    23634066.566
        41.500          40.500
 203903069.612 7                  38801452.784
        44.000
  30761037.776 7                   5853373.777
        44.250
 131266475.460 5                  24556110.599
        33.250
 112010466.104 8                  20931813.112
        51.000
 150158246.513 5                  28574163.918
        34.750
 144686277.544 6                  27532848.380
        38.000
 124240008.014 5                  23225327.972
        34.500
 110974045.301 7  86473293.10646  21117649.983    21117649.840    21117649.482
        47.750          39.750
 127965683.115 7                  24351036.601
        47.500
 109607359.191 8                  20525926.355
        50.250
 106121890.639 8                  19908193.409
        50.750
 130418564.311 7                  24817818.262
        45.500
 131351351.144 6                  24528942.290
        39.500
 102937512.732 6                  19249821.858
        41.750
 21 10 19  0 50 30.0000000  0 27E26G16E04G27G32E12E09G26G04G31S36S25
                                G29S23S48R01R21E24E21R19G18E01R09R10
                                E31R08R20
 128226938.274 7                  24400744.681
        45.750
 119768622.628 7  93326220.64444  22791206.044    22791205.213    22791204.131
        43.000          29.000
 143676538.825 6                  27340742.263
        37.750
 120413457.420 7  93828705.85445  22913907.752    22913907.198    22913909.274
        42.250          31.250
 129975700.941 6 101279772.05245  24733561.846    24733561.672    24733565.715
        38.250          30.500
 132058650.880 6                  25129924.185
        36.750
 133715921.978 6                  25445291.893
        39.000
 110119884.180 8  85807769.96147  20955095.307    20955094.887    20955097.017
        48.250          42.000
 129692381.250 6 101058998.92743  24679638.880    24679638.648    24679638.240
        37.250          22.250
 107395891.221 8  83685112.77849  20436754.960    20436754.656    20436753.318
        50.250          55.250
 195043920.580 7                  37115625.005
        47.500
 183104107.268 7                  34843473.773
        46.250
 124290536.510 6  96849815.48346  23651683.141    23651682.650    23651680.940
        41.750          41.000
 203902954.144 7                  38801429.205
        43.500
  30760064.425 7                   5853401.734
        43.750
 131314991.28815                  24565184.047
        33.000
 111910308.353 8                  20913096.924
        51.000
 150101597.704 5                  28563383.702
        35.000
 144732763.486 6                  27541694.948
        39.750
 124364495.043 5                  23248599.778
        33.750
 110958450.799 8  86461141.61846  21114682.656    21114682.518    21114681.989
        48.000          40.000
 127975992.683 7                  24352998.550
        47.250
 109647479.388 8                  20533439.863
        50.750
 106075018.627 8                  19899400.400
        51.000
 130378046.129 7                  24810107.916
        46.000
 131431636.688 6                  24543936.441
        36.750
 102967835.450 6                  19255492.504
        41.250
 21 10 19  0 51  0.0000000  0 27E26G16E04G27G32E12E09G26G04G31S36S25
                                G29S23S48R01R21E24E21R19G18E01R09R10
                                E31R08R20
 128263814.674 7                  24407761.934
        45.500
 119709467.759 7  93280125.94144  22779949.404    22779948.564    22779946.754
        43.000          28.000
 143745074.630 6                  27353783.793
        37.500
 120335497.427 7  93767958.00345  22899072.260    22899071.710    22899073.655
        42.500          31.750
 130063891.009 5 101348492.06946  24750342.716    24750342.533    24750347.764
        35.750          36.500
 131967257.269 6                  25112532.462
        37.000
 133751013.362 6                  25451969.638
        38.500
 110091048.650 8  85785300.72547  20949608.181    20949607.761    20949609.562
        48.250          42.000
 129662279.777 6 101035543.23443  24673910.623    24673910.395    24673910.592
        38.000          23.000
 107422267.276 8  83705665.53349  20441774.275    20441773.971    20441772.441
        50.250          55.750
 195043921.082 8                  37115624.647
        48.000
 183100723.586 7                  34842711.880
        46.750
 124383123.358 7  96921961.07546  23669301.767    23669301.280    23669299.607
        42.500          41.250
 203902841.372 7                  38801408.448
        43.500
  30760693.351 7                   5853427.620
        44.750
 131363920.901 5                  24574339.824
        35.750
 111810657.299 8                  20894474.852
        49.250
 150044862.262 5                  28552587.356
        35.000
 144779361.746 6                  27550562.646
        40.500
 124489134.528 5                  23271898.266
        33.750
 110943427.362 7  86449435.10746  21111823.369    21111823.226    21111822.815
        47.500          40.000
 127986417.960 7                  24354982.311
        47.000
 109688056.038 8                  20541038.055
        50.750
 106028470.485 8                  19890668.136
        51.000
 130337535.143 7                  24802398.883
        45.750
 131511952.298 6                  24558933.981
        39.750
 102998922.624 6                  19261305.677
        41.750
 21 10 19  0 51 30.0000000  0 27E26G16E04G27G32E12E09G26G04G31S36S25
                                G29S23S48R01R21E24E21R19G18E01R09R10
                                E31R08R20
 128301066.200 7                  24414850.563
        45.750
 119650362.130 7  93234069.58544  22768701.880    22768701.031    22768698.409
        42.500          26.500
 143813580.729 6                  27366820.940
        38.500
 120257826.809 7  93707435.63245  22884291.774    22884291.193    22884293.436
        42.750          31.750
 130151906.838 6 101417076.20445  24767091.393    24767091.201    24767096.159
        41.750          35.500
 131875943.607 6                  25095155.760
        37.500
 133786372.537 6                  25458698.163
        38.750
 110062345.510 8  85762934.65147  20944146.146    20944145.726    20944147.677
        48.500          42.000
 129632657.154 6 101012460.65343  24668273.219    24668273.000    24668272.833
        37.750          22.000
 107449138.647 8  83726604.26249  20446887.662    20446887.363    20446885.822
        50.500          55.750
 195043913.170 7                  37115624.638
        47.000
 183095733.220 7                  34841950.403
        46.750
 124475722.680 7  96994116.40046  23686922.945    23686922.458    23686920.474
        42.000          41.000
 203902723.326 7                  38801385.540
        44.000
  30761316.437 7                   5853453.900
        43.750
 131413256.303 5                  24583567.735
        30.250
 111711508.124 8                  20875945.857
        50.250
 149988032.303 5                  28541773.384
        35.250
 144826064.919 6                  27559449.858
        40.000
 124613914.383 5                  23295227.126
        33.500
 110928968.049 7  86438168.16346  21109072.005    21109071.867    21109071.556
        47.750          39.750
 127996951.892 7                  24356986.858
        47.750
 109729082.265 8                  20548721.206
        50.500
 105982240.846 8                  19881995.363
        50.750
 130297024.164 7                  24794689.979
        46.000
 131592287.685 6                  24573937.509
        38.000
 103030764.175 6                  19267259.940
        41.250
 21 10 19  0 52  0.0000000  0 27E26G16E04G27G32E12E09G26G04G31S36S25
                                G29S23S48R01R21E24E21R19G18E01R09R10
                                E31R08R20
 128338703.666 7                  24422012.883
        45.500
 119591317.776 6  93188060.95444  22757465.772    22757464.927    22757462.841
        41.750          27.250
 143882067.407 6                  27379853.585
        38.500
 120180458.168 7  93647148.51745  22869568.974    22869568.398    22869570.668
        43.000          32.250
 130239758.650 6 101485532.68245  24783808.299    24783808.147    24783813.226
        37.750          35.000
 131784723.742 6                  25077797.225
        37.250
 133822010.034 6                  25465479.810
        38.250
 110033787.526 8  85740681.68347  20938711.639    20938711.219    20938713.296
        48.750          42.000
 129603525.774 6 100989760.84743  24662729.663    24662729.449    24662729.121
        38.250          22.500
 107476517.039 8  83747938.05249  20452097.643    20452097.339    20452095.728
        50.250          55.250
 195043915.524 7                  37115623.475
        47.250
 183092336.352 7                  34841187.670
        46.750
 124568344.907 6  97066289.56546  23704548.786    23704548.299    23704546.108
        41.250          40.750
 203902611.538 7                  38801365.140
        43.250
  30760347.182 7                   5853480.846
        44.250
 131463007.170 4                  24592876.792
        27.250
 111612874.623 8                  20857514.331
        51.250
 149931119.700 5                  28530942.933
        35.500
 144872885.522 7                  27568359.568
        42.000
 124738842.696 5                  23318580.080
        33.000
 110915085.719 7  86427350.81146  21106430.194    21106430.051    21106429.770
        47.750          39.750
 128007607.435 7                  24359014.830
        47.250
 109770570.604 8                  20556490.717
        50.500
 105936344.431 8                  19873385.144
        51.000
 130256525.807 7                  24786983.339
        46.000
 131672650.920 6                  24588942.961
        36.750
 103063369.442 6                  19273357.443
        41.750
 21 10 19  0 52 30.0000000  0 27E26G16E04G27G32E12E09G26G04G31S36S25
                                G29S23S48R01R21E24E21R19G18E01R09R10
                                E31R08R20
 128376712.917 7                  24429245.596
        45.500
 119532321.948 6  93142090.18444  22746239.418    22746238.551    22746237.624
        41.750          28.250
 143950519.550 6                  27392880.014
        38.750
 120103379.209 7  93587087.08245  22854900.847    22854900.266    22854902.847
        43.250          32.250
                                  24800492.450    24800492.352    24800496.930
        37.750          25.500
 131693586.772 6                  25060454.263
        36.500
 133857911.209 6                  25472311.316
        38.000
 110005362.457 8  85718532.28947  20933302.588    20933302.173    20933304.081
        48.750          42.250
 129574872.873 6 100967433.89843  24657278.245    24657278.035    24657277.297
        38.250          22.750
 107504389.071 8  83769656.49649  20457401.535    20457401.236    20457399.703
        50.500          55.500
 195043913.195 8                  37115622.273
        48.000
 183088925.396 7                  34840422.083
        46.750
 124660975.252 6  97138469.03646  23722175.521    23722175.025    23722173.571
        41.250          40.750
 203902492.581 7                  38801341.955
        43.750
  30760968.715 7                   5853507.139
        43.750
                                  24602255.094
        30.000
 111514747.288 8                  20839176.993
        51.250
 149874111.432 5                  28520095.124
        34.500
 144919810.923 6                  27577289.034
        41.750
 124863902.481 5                  23341959.082
        33.750
 110901768.240 8  86416973.58646  21103895.875    21103895.746    21103895.349
        48.000          40.000
 128018372.382 7                  24361063.146
        47.000
 109812508.711 8                  20564343.932
        50.250
 105890771.792 8                  19864835.988
        50.750
 130216027.689 7                  24779276.789
        45.500
 131753022.496 5                  24603953.250
        35.250
 103096723.246 6                  19279594.644
        41.500
 21 10 19  0 53  0.0000000  0 25E26G16E04G27G32E12E09G26G04G31S36S25
                                G29S23S48R21E24E21R19G18E01R09R10E31
                                R20
 128415098.511 7                  24436550.211
        46.000
 119473380.499 6  93096161.79644  22735023.060    22735022.197    22735021.985
        41.500          28.500
 144018940.865 6                  27405900.246
        39.750
 120026596.457 7  93527256.49345  22840289.857    22840289.281    22840291.396
        43.000          32.000
 130414954.27716 101622063.62655  24817140.196    24817140.245    24817145.934
        36.500          33.000
 131602540.096 6                  25043128.475
        37.500
 133894079.884 6                  25479194.332
        38.000
 109977076.863 8  85696491.57247  20927920.115    20927919.695    20927921.379
        48.500          42.000
 129546704.619 6 100945484.58443  24651917.120    24651916.897    24651916.568
        36.750          21.500
 107532760.553 8  83791764.14149  20462800.408    20462800.104    20462798.633
        50.500          55.750
 195043904.969 7                  37115622.375
        47.000
 183083919.316 7                  34839656.546
        46.750
 124753617.090 6  97210657.47346  23739804.644    23739804.144    23739802.620
        40.750          40.500
 203902373.443 7                  38801318.179
        43.500
  30761589.303 7                   5853531.473
        43.750
 111417134.956 8                  20820936.223
        49.750
 149817013.273 5                  28509229.237
        35.500
 144966847.428 6                  27586239.876
        38.500
 124989096.247 5                  23365363.416
        33.000
 110889022.299 7  86407041.71346  21101470.363    21101470.225    21101469.833
        47.250          39.750
 128029253.431 7                  24363133.834
        47.500
 109854902.901 8                  20572283.343
        49.750
 105845530.783 8                  19856348.803
        51.000
 130175536.318 7                  24771571.664
        46.500
 103130829.050 6                  19285972.743
        41.750
 21 10 19  0 53 30.0000000  0 25E26G16E04G27G32E12E09G26G04G31S36S25
                                G29S23S48R21E24E21R19G18E01R09R10E31
                                R20
 128453867.054 7                  24443927.658
        45.750
 119414501.549 7  93050282.12044  22723818.723    22723817.856    22723816.908
        42.250          29.250
 144087337.400 6                  27418916.010
        40.250
 119950118.515 7  93467663.47745  22825736.255    22825735.683    22825737.668
        43.000          32.500
 130502277.58115 101690111.63954  24833758.548    24833758.155    24833763.561
        33.000          29.750
 131511592.952 6                  25025821.418
        38.250
 133930522.622 6                  25486128.887
        39.500
 109948939.365 8  85674566.25047  20922565.642    20922565.227    20922566.978
        48.500          42.250
 129519029.131 6 100923919.24343  24646651.166    24646650.930    24646650.240
        37.500          22.500
 107561638.525 8  83814266.44649  20468295.822    20468295.518    20468294.006
        50.500          56.250
 195043902.842 7                  37115621.901
        46.500
 183080504.845 7                  34838890.302
        46.500
 124846277.184 6  97282860.14146  23757436.995    23757436.508    23757435.208
        40.500          40.750
 203902261.635 7                  38801297.006
        43.000
  30762214.566 7                   5853558.938
        44.000
 111320049.138 8                  20802793.204
        51.500
 149759833.057 5                  28498348.249
        34.500
 145014003.276 6                  27595213.411
        36.000
 125114427.614 5                  23388791.886
        33.750
 110876856.528 7  86397561.91746  21099155.205    21099155.053    21099154.834
        47.500          40.000
 128040259.269 7                  24365228.096
        47.000
 109897762.215 8                  20580309.909
        50.750
 105800632.846 8                  19847926.500
        51.000
 130135060.160 7                  24763869.145
        46.250
 103165692.087 6                  19292492.219
        41.750
 21 10 19  0 54  0.0000000  0 25E26G16E04G27G32E12E09G26G04G31S36S25
                                G29S23S48R21E24E21R19G18E01R09R10E31
                                R20
 128493004.265 7                  24451375.364
        45.750
 119355672.199 7  93004441.03645  22712624.532    22712623.678    22712622.143
        43.500          30.500
 144155694.054 6                  27431923.467
        40.000
 119873932.928 7  93408298.40245  22811238.476    22811237.913    22811239.760
        42.750          32.500
 130589417.181 6 101758013.15746  24850340.237    24850339.831    24850344.195
        41.500          38.000
 131420734.183 6                  25008531.194
        38.750
 133967224.716 6                  25493113.176
        39.250
 109920937.612 8  85652746.70747  20917237.111    20917236.696    20917238.570
        48.500          42.250
 129491833.505 6 100902727.83443  24641476.227    24641475.999    24641475.392
        36.750          22.250
 107591009.633 8  83837153.00149  20473885.016    20473884.712    20473883.155
        49.750          54.500
 195043896.990 7                  37115622.984
        46.500
 183077072.701 7                  34838121.724
        47.500
 124938940.667 6  97355065.42946  23775070.266    23775069.784    23775068.443
        39.750          40.250
 203902143.487 7                  38801275.355
        43.000
  30761233.890 7                   5853584.797
        44.250
 111223478.547 8                  20784746.610
        51.500
 149702557.641 5                  28487449.171
        35.500
 145061265.789 5                  27604207.109
        31.500
 125239879.762 5                  23412246.063
        32.250
 110865258.586 7  86388524.58046  21096948.479    21096948.327    21096947.856
        47.500          40.250
 128051377.651 8                  24367343.916
        48.000
 109941073.662 8                  20588420.905
        50.250
 105756066.865 8                  19839566.061
        50.750
 130094586.778 7                  24756167.323
        46.750
 103201296.262 6                  19299149.194
        41.500
 21 10 19  0 54 30.0000000  0 26E26G16E04G27G32E12E09G08G26G04G31S36
                                S25G29S23S48R21E24E21R19G18E01R09R10
                                E31R20
 128532514.455 7                  24458893.944
        46.000
 119296897.749 7  92958642.72745  22701440.012    22701439.158    22701437.810
        44.000          31.000
 144224014.418 6                  27444924.678
        40.000
 119798045.399 7  93349165.47345  22796797.328    22796796.747    22796798.932
        43.000          33.000
 130676373.499 6 101825771.73745  24866886.923    24866886.561    24866890.732
        36.000          35.000
 131329970.935 6                  24991259.436
        39.250
 134004189.868 6                  25500147.313
        39.500
 134126355.61115                  25523395.739
        34.000
 109893077.961 8  85631037.88947  20911935.697    20911935.282    20911937.108
        49.000          42.500
 129465123.611 6 100881914.90443  24636392.978    24636392.742    24636392.638
        37.000          22.500
 107620879.302 8  83860428.07749  20479568.832    20479568.528    20479567.150
        50.750          56.250
 195043893.514 7                  37115621.508
        47.000
 183072045.312 7                  34837352.842
        46.250
 125031611.428 6  97427276.38846  23792704.939    23792704.457    23792703.047
        40.250          40.750
 203902024.606 7                  38801251.230
        43.750
  30761854.082 7                   5853610.335
        43.750
 111127432.061 8                  20766798.437
        51.250
 149645192.482 5                  28476532.641
        35.250
 145108641.067 4                  27613221.852
        27.500
 125365454.122 5                  23435717.972
        34.000
 110854234.829 8  86379934.66946  21094850.549    21094850.402    21094849.999
        48.000          40.500
 128062614.973 7                  24369482.117
        47.500
 109984843.418 8                  20596617.289
        50.000
 105711842.275 8                  19831269.484
        51.500
 130054122.388 7                  24748467.281
        46.500
 103237645.064 6                  19305947.486
        41.750
 21 10 19  0 55  0.0000000  0 26E26G16E04G27G32E12E09G08G26G04G31S36
                                S25G29S23S48R21E24E21R19G18E01R09R10
                                E31R20
 128572400.161 7                  24466483.813
        45.500
 119238182.192 7  92912890.29845  22690266.821    22690265.972    22690264.612
        44.250          30.750
 144292300.279 6                  27457919.231
        39.750
 119722460.734 7  93290268.62845  22782414.154    22782413.578    22782415.507
        43.000          33.000
 130763148.756 6 101893389.01045  24883399.936    24883399.601    24883403.455
        38.750          31.000
 131239308.882 6                  24974007.215
        38.750
 134041420.232 6                  25507232.175
        38.250
                                  25506311.104
        26.000
 109865364.975 8  85609443.35747  20906662.082    20906661.667    20906663.536
        48.750          42.500
 129438903.386 6 100861483.53043  24631403.378    24631403.142    24631402.589
        37.250          21.500
 107651250.928 8  83884094.25249  20485348.481    20485348.182    20485346.763
        50.250          54.500
 195043897.222 7                  37115619.523
        47.500
 183068609.152 7                  34836582.502
        47.500
 125124291.305 6  97499494.45346  23810340.954    23810340.485    23810339.622
        41.000          40.500
 203901909.792 7                  38801230.294
        44.000
  30762476.196 7                   5853635.586
        44.250
 111031916.541 8                  20748948.867
        50.750
 149587741.449 5                  28465600.698
        35.000
 145156133.251 4                  27622260.340
        28.750
 125491150.829 5                  23459215.284
        34.250
 110843789.737 7  86371795.67046  21092863.099    21092862.943    21092862.363
        47.750          40.500
 128073975.978 7                  24371644.144
        47.250
 110029076.072 8                  20604900.364
        50.500
 105667964.889 8                  19823037.965
        51.000
 130013671.473 7                  24740769.654
        46.250
 103274739.389 6                  19312884.081
        41.750
 21 10 19  0 55 30.0000000  0 26E26G16E04G27G32E12E09G08G26G04G31S36
                                S25G29S23S48R21E24E21R19G18E01R09R10
                                E31R20
 128612653.072 7                  24474143.514
        45.750
 119179518.767 7  92867178.48845  22679103.526    22679102.681    22679101.698
        43.750          30.000
 144360542.996 6                  27470905.382
        40.250
 119647172.187 7  93231602.45745  22768087.005    22768086.442    22768088.272
        44.000          33.750
 130849733.566 5 101960858.05044  24899876.724    24899876.385    24899880.458
        34.750          27.500
 131148743.073 6                  24956772.858
        39.500
 134078907.154 6                  25514365.477
        39.000
 133946906.67516                  25489248.998
        38.500
 109837792.414 8  85587958.24447  20901415.372    20901414.948    20901416.539
        48.500          42.250
 129413165.975 6 100841428.40643  24626506.051    24626505.788    24626506.381
        38.250          23.000
 107682116.870 8  83908145.60549  20491221.996    20491221.692    20491220.387
        50.250          55.250
 195043890.662 7                  37115619.853
        47.500
 183063563.211 7                  34835810.230
        47.000
 125216971.532 6  97571712.79546  23827977.997    23827977.528    23827976.265
        40.750          40.250
 203901791.487 7                  38801207.426
        43.750
  30761493.501 7                   5853662.058
        44.500
 110936927.744 8                  20731198.098
        50.750
 149530197.358 5                  28454650.026
        35.750
                                  27631319.511
        24.750
 125616959.200 5                  23482734.379
        33.000
 110833916.978 8  86364102.65646  21090983.903    21090983.743    21090983.794
        48.000          40.250
 128085454.435 7                  24373828.464
        47.500
 110073765.093 8                  20613269.539
        50.750
 105624431.310 8                  19814871.466
        51.000
 129973227.688 7                  24733073.484
        46.250
 103312569.222 6                  19319958.568
        41.500
 21 10 19  0 56  0.0000000  0 26E26G16E04G27G32E12E09G08G26G04G31S36
                                S25G29S23S48R21E24E21R19G18E01R09R10
                                E31R20
 128653272.683 7                  24481873.311
        45.500
 119120908.380 7  92821508.04745  22667950.153    22667949.308    22667948.666
        43.000          30.250
 144428741.276 6                  27483883.146
        40.000
 119572181.296 7  93173168.30745  22753816.373    22753815.819    22753817.831
        43.500          33.500
 130936126.085 6 102028177.37244  24916315.990    24916315.669    24916319.516
        37.750          26.250
 131058275.999 6                  24939557.363
        38.500
 134116649.652 6                  25521547.378
        38.000
                                  25472216.717
        25.500
 109810361.821 8  85566583.75547  20896195.308    20896194.884    20896196.581
        48.750          42.500
 129387912.329 6 100821750.20043  24621700.438    24621700.188    24621700.321
        36.750          22.000
 107713477.582 8  83932582.52449  20497189.902    20497189.603    20497188.201
        50.750          56.500
 195043879.643 7                  37115618.579
        47.500
 183060110.959 7                  34835035.866
        46.750
 125309651.040 6  97643930.57046  23845614.154    23845613.685    23845612.769
        41.000          40.250
 203901669.611 7                  38801182.501
        43.000
  30762105.763 7                   5853687.774
        44.500
 110842469.280 8                  20713546.116
        51.250
 149472560.924 6                  28443682.219
        36.000


 125742875.825 5                  23506272.650
        30.000
 110824617.970 7  86356856.72246  21089214.575    21089214.419    21089214.091
        47.750          40.250
 128097051.942 7                  24376035.368
        47.000
 110118911.730 8                  20621724.004
        50.500
 105581244.551 8                  19806769.546
        51.000
 129932792.423 7                  24725378.768
        46.000
 103351132.971 6                  19327169.608
        41.500
 21 10 19  0 56 30.0000000  0 26E26G16E04G27G32E12E09G08G26G04G31S36
                                S25G29S23S48R21E24E21R19G18E01R09R10
                                E31R20
 128694269.026 7                  24489674.634
        45.500
 119062362.402 7  92775887.80044  22656809.698    22656808.840    22656807.480
        42.000          29.500
 144496904.245 6                  27496854.128
        38.750
 119497499.641 7  93114975.03545  22739604.924    22739604.370    22739605.861
        43.750          33.750
 131022335.682 6 102095353.81245  24932720.754    24932720.468    24932724.481
        39.500          33.000
 130967921.066 6                  24922362.862
        38.750
 134154657.484 6                  25528780.368
        38.750
 133768087.47216                  25455219.581
        38.500
 109783085.336 8  85545329.35247  20891004.760    20891004.340    20891006.190
        48.750          42.500
 129363153.972 6 100802457.96843  24616988.420    24616988.157    24616988.850
        37.500          22.250
 107745344.028 8  83957413.50249  20503253.913    20503253.614    20503252.133
        50.250          55.000
 195043886.749 8                  37115617.560
        48.000
 183056664.797 7                  34834263.411
        47.000
 125402339.591 6  97716155.39946  23863252.125    23863251.665    23863250.852
        40.750          40.000
 203901556.518 7                  38801161.820
        43.500
  30762727.541 7                   5853716.446
        44.750
 110748555.692 8                  20695996.688
        51.500
 149414843.495 5                  28432698.868
        35.750
                                  27649502.421
        18.750
 125868908.712 4                  23529835.922
        28.250
 110815904.643 7  86350067.15046  21087556.482    21087556.322    21087555.808
        47.500          40.500
 128108780.702 7                  24378267.346
        47.250
 110164527.994 8                  20630266.102
        50.250
 105538419.528 8                  19798735.976
        51.250
 129892377.686 7                  24717688.095
        46.500
 103390439.162 6                  19334520.664
        41.500
 21 10 19  0 57  0.0000000  0 26E26G16E04G27G32E12E09G08G26G04G31S36
                                S25G29S23S48R21E24E21R19G18E01R09R10
                                E31R20
 128735625.630 7                  24497544.622
        45.750
 119003866.033 7  92730306.23244  22645677.779    22645676.916    22645675.680
        42.750          29.750
 144565014.578 6                  27509815.291
        37.250
 119423112.258 7  93057010.86045  22725449.170    22725448.625    22725450.152
        43.250          33.750
 131108344.885 6 102162374.39646  24949086.872    24949086.631    24949091.948
        40.000          39.750
 130877665.004 6                  24905186.987
        39.250
 134192913.550 6                  25536060.298
        38.250
 133678905.974 5 104165399.03152  25438248.410    25438248.263    25438255.986
        33.000          16.000
 109755948.566 8  85524183.81447  20885840.641    20885840.221    20885842.230
        49.000          42.500
 129338875.790 6 100783539.89743  24612369.072    24612368.849    24612369.700
        38.250          23.250
 107777700.762 8  83982626.51949  20509411.107    20509410.803    20509409.307
        50.250          55.250
 195043884.024 7                  37115617.197
        47.750
 183051606.599 7                  34833487.039
        47.000
 125495020.377 6  97788374.18546  23880888.741    23880888.276    23880887.240
        40.750          39.750
 203901436.042 7                  38801137.476
        43.750
  30761743.406 7                   5853739.833
        44.250
 110655174.196 8                  20678545.823
        51.250
 149357029.799 5                  28421697.085
        35.500
                                  27658625.242
        22.000


 110807762.422 7  86343722.59146  21086007.112    21086006.960    21086006.445
        47.750          40.250
 128120626.328 7                  24380521.374
        47.000
 110210598.925 8                  20638894.253
        50.750
 105495943.147 8                  19790767.250
        51.000
 129851969.010 7                  24709998.677
        46.250
 103430469.912 6                  19342006.273
        41.500
 21 10 19  0 57 30.0000000  0 26E26G16E04G27G32E12E09G08G26G04G31S36
                                S25G29S23S48R21E24E21R19G18E01R09R10
                                E31R20
 128777350.428 7                  24505484.336
        45.500
 118945428.668 7  92684770.64245  22634557.628    22634556.765    22634555.309
        43.000          30.000
 144633080.017 6                  27522767.620
        37.500
 119349029.403 7  92999283.93945  22711351.847    22711351.320    22711352.714
        44.750          34.000
 131194160.767 6 102229244.16845  24965417.320    24965417.101    24965421.978
        36.000          34.500
 130787517.049 6                  24888032.022
        38.500
 134231425.647 6                  25543388.553
        38.750
 133589883.515 5 104096031.32642  25421309.096    25421308.775    25421315.284
        31.750          16.000
 109728961.621 8  85503155.02247  20880705.262    20880704.847    20880706.742
        49.000          42.500
 129315087.201 6 100765003.31443  24607842.744    24607842.548    24607842.705
        38.250          23.500
 107810556.161 8  84008228.11549  20515663.398    20515663.094    20515661.502
        50.750          56.250
 195043875.015 7                  37115615.936
        47.250
 183048133.244 7                  34832710.421
        46.750
 125587700.935 6  97860592.79546  23898524.989    23898524.529    23898523.735
        41.750          40.000
 203901317.182 7                  38801117.994
        43.250
  30762358.572 7                   5853764.087
        44.500
 110562336.847 8                  20661197.041
        51.250
 149299129.121 5                  28410679.170
        35.000


                                  23577011.205
        21.750
 110800201.228 8  86337830.78246  21084568.388    21084568.232    21084567.611
        48.000          40.500
 128132599.036 7                  24382799.554
        47.000
 110257134.392 8                  20647608.824
        50.750
 105453828.005 8                  19782866.728
        51.500
 129811576.356 7                  24702312.216
        46.250
 103471231.576 7                  19349629.850
        42.000
 21 10 19  0 58  0.0000000  0 25E26G16E04G27G32E12E09G08G26G04G31S36
                                G29S23S48R21E24E21R19G18E01R09R10E31
                                R20
 128819439.313 7                  24513493.647
        45.000
 118887047.456 7  92639278.79344  22623447.930    22623447.076    22623445.679
        43.250          29.750
 144701095.916 6                  27535710.217
        36.750
 119275248.663 7  92941792.37645  22697311.646    22697311.114    22697312.705
        43.250          33.250
 131279778.374 5 102295959.59245  24981710.506    24981710.301    24981713.566
        32.750          33.750
 130697477.060 6                  24870897.677
        38.250
 134270189.228 6                  25550764.953
        37.500
 133501012.74716 104026789.60853  25404397.294    25404396.740    25404404.538
        37.000          21.750
 109702122.466 8  85482241.39247  20875597.962    20875597.542    20875599.246
        48.750          42.250
 129291785.370 6 100746846.01943  24603407.819    24603407.623    24603407.603
        38.250          22.750
 107843906.821 8  84034215.60249  20522009.697    20522009.393    20522007.965
        50.000          55.000
 195043871.266 7                  37115614.975
        47.000
 125680376.934 6  97932807.84346  23916161.310    23916160.850    23916159.435
        41.250          39.250
 203901198.178 7                  38801092.854
        43.250
  30762972.368 7                   5853791.216
        44.500
 110470043.721 8                  20643949.770
        51.000
 149241138.657 5                  28399643.323
        34.000




 110793218.768 8  86332389.93746  21083239.446    21083239.294    21083238.882
        48.250          40.750
 128144696.856 7                  24385101.955
        47.000
 110304132.032 8                  20656409.810
        50.500
 105412073.868 8                  19775033.890
        51.500
 129771197.638 7                  24694628.376
        46.250
 103512718.315 6                  19357387.134
        41.500
 21 10 19  0 58 30.0000000  0 25E26G16E04G27G32E12E09G08G26G04G31S36
                                G29S23S48S25R21E24R19G18E01R09R10E31
                                R20
 128861891.912 7                  24521572.119
        45.000
 118828723.523 7  92593831.59244  22612349.214    22612348.374    22612346.437
        43.500          29.500
 144769061.227 6                  27548643.776
        37.000
 119201771.589 7  92884537.46545  22683329.718    22683329.200    22683330.795
        44.000          34.250
 131365196.624 6 102362519.99444  24997963.324    24997963.123    24997967.122
        40.000          28.750
 130607548.042 6                  24853784.527
        38.000
 134309203.348 6                  25558189.016
        37.750
                                  25387518.529
        34.250
 109675432.830 8  85461444.26647  20870518.973    20870518.553    20870520.243
        48.750          42.250
 129268971.342 6 100729068.82143  24599066.736    24599066.531    24599066.395
        38.250          22.750
 107877753.249 8  84060589.40549  20528450.604    20528450.300    20528448.805
        50.250          55.250
 195043869.729 7                  37115616.504
        46.250
 125773047.084 6  98005018.34746  23933795.636    23933795.163    23933793.667
        41.000          39.250
 203901079.660 7                  38801071.341
        43.000
  30763586.731 7                   5853816.369
        43.750
 183039521.73417                  34831153.782
        47.000
 110378298.446 8                  20626804.555
        51.250
 149183059.360 5                  28388591.794
        35.500


 110786816.444 7  86327401.14446  21082021.147    21082020.991    21082020.521
        47.750          40.750
 128156921.525 7                  24387428.052
        46.750
 110351592.959 8                  20665297.817
        50.250
 105370684.737 8                  19767269.306
        51.250
 129730834.436 7                  24686947.547
        46.000
 103554928.304 6                  19365280.178
        41.500
 21 10 19  0 59  0.0000000  0 26E26G16E04G27G32E12E09G08G26G04G31S36
                                G29S23S48S25R21E24E21R19G18E01R09R10
                                E31R20
 128904704.891 7                  24529719.137
        45.000
 118770455.267 7  92548427.72944  22601261.077    22601260.255    22601258.346
        43.000          29.000
 144836971.998 5                  27561566.372
        35.250
 119128596.703 7  92827517.99645  22669405.250    22669404.727    22669406.475
        44.000          34.000
 131450410.921 5 102428921.27545  25014178.800    25014178.595    25014181.780
        34.000          30.250
 130517729.959 6                  24836692.507
        38.500
 134348464.498 6                  25565660.689
        38.000
 133323767.714 4 103888663.81253  25370665.304    25370664.777    25370673.117
        29.250          23.250
 109648891.655 8  85440762.82747  20865468.473    20865468.053    20865469.639
        48.750          42.500
 129246643.236 6 100711670.27843  24594817.734    24594817.520    24594817.191
        39.250          23.750
 107912093.210 8  84087347.79449  20534985.145    20534984.841    20534983.522
        49.750          55.000
 195043862.106 8                  37115614.242
        48.000
 125865708.494 6  98077222.02646  23951428.457    23951427.984    23951426.151
        40.750          39.000
 203900960.192 7                  38801046.635
        43.250
  30762597.677 7                   5853841.156
        44.000
 183036044.908 7                  34830373.667
        46.500
 110287101.750 8                  20609762.363
        51.250
 149124889.313 5                  28377522.228
        35.250
                                  27695342.097
        20.000


 110780992.964 7  86322863.39546  21080912.874    21080912.718    21080912.270
        47.500          40.750
 128169272.010 7                  24389778.335
        47.000
 110399515.948 8                  20674272.218
        50.500
 105329661.817 8                  19759573.639
        51.250
 129690485.567 7                  24679269.413
        46.500
 103597856.806 6                  19373308.656
        41.250
 21 10 19  0 59 30.0000000  0 24E26G16E04G27G32E12E09G08G26G04G31S36
                                G29S23S48S25R21E24G18E01R09R10E31R20
 128947878.068 7                  24537934.798
        45.500
 118712244.081 7  92503068.35544  22590184.031    22590183.213    22590182.039
        42.500          29.500
 144904827.128 6                  27574479.194
        37.750
 119055725.570 7  92770735.21245  22655538.238    22655537.711    22655539.875
        44.000          34.500
 131535420.096 6 102495162.67846  25030355.121    25030354.911    25030359.663
        40.750          37.250
 130428025.186 6                  24819622.001
        38.500
 134387971.913 6                  25573178.649
        37.750
 133235361.28716 103819799.47952  25353845.979    25353845.345    25353852.268
        36.250          16.000
 109622500.852 8  85420198.56047  20860446.388    20860445.977    20860447.671
        48.500          42.500
 129224802.066 6 100694651.14943  24590662.291    24590662.072    24590660.778
        36.500          22.250
 107946926.961 8  84114490.97749  20541614.070    20541613.766    20541612.180
        49.750          55.500
 195043859.472 7                  37115614.814
        46.500
 125958360.003 6  98149417.97746  23969059.481    23969059.021    23969057.061
        40.750          38.750
 203900840.828 7                  38801024.479
        43.500
  30763208.730 7                   5853867.377
        44.250
 183030958.174 7                  34829591.554
        47.000
 110196457.564 8                  20592823.383
        51.000
 149066629.580 5                  28366435.666
        35.000
 110775749.818 7  86318777.85446  21079915.188    21079915.032    21079914.459
        47.500          40.250
 128181750.263 7                  24392152.885
        47.000
 110447902.416 8                  20683333.511
        50.250
 105289008.526 8                  19751946.763
        51.250
 129650152.885 7                  24671594.273
        46.500
 103641501.966 6                  19381470.495
        41.750
 21 10 19  1  0  0.0000000  0 26E26G16E04G27G32E12E09G08G26G04G31S36
                                G29S23S48S25R21E24E21R19G18E01R09R10
                                E31R20
 128991408.875 7                  24546218.460
        46.000
 118654088.784 7  92457752.51945  22579117.725    22579116.898    22579114.930
        44.000          30.750
 144972623.615 6                  27587380.267
        36.500
 118983157.576 7  92714188.65745  22641729.160    22641728.633    22641730.700
        44.000          35.000
 131620220.749 5 102561241.47346  25046491.946    25046491.723    25046496.171
        35.250          36.000
 130338434.387 6                  24802573.219
        38.750
 134427722.714 6                  25580742.934
        38.500
 133147130.61416 103751037.18553  25337055.655    25337054.931    25337062.748
        37.250          20.750
 109596260.093 8  85399751.21347  20855452.996    20855452.585    20855454.184
        48.500          42.750
 129203446.754 6 100678010.60843  24586597.622    24586597.426    24586596.618
        36.750          21.750
 107982252.863 8  84142017.63049  20548336.041    20548335.742    20548334.513
        48.750          54.250
 195043856.276 7                  37115612.829
        47.000
 126050999.002 6  98221604.19146  23986688.033    23986687.577    23986685.870
        40.500          39.000
 203900719.572 7                  38801002.098
        43.250
  30763816.404 7                   5853891.859
        43.750
 183027459.233 7                  34828809.065
        46.750
 110106367.317 8                  20575987.967
        51.500
 149008279.014 5                  28355331.831
        34.750




 110771086.282 7  86315143.96446  21079027.662    21079027.506    21079027.110
        47.000          40.750
 128194355.952 7                  24394551.867
        47.250
 110496751.655 8                  20692481.467
        50.500
 105248727.033 8                  19744390.150
        51.250
 129609835.886 7                  24663922.277
        46.500
 103685859.271 7                  19389765.348
        42.000
 21 10 19  1  0 30.0000000  0 24E26G16E04G27G32E12E09G08G26G04G31S36
                                G29S23S48S25R21E24G18E01R09R10E31R20
 129035298.140 7                  24554570.268
        45.250
 118595991.789 7  92412482.15045  22568062.221    22568061.390    22568060.014
        44.000          31.750
 145040361.949 5                  27600270.283
        35.250
 118910895.483 7  92657880.54845  22627978.012    22627977.476    22627979.499
        44.000          35.250
 131704813.174 5 102627158.11845  25062588.692    25062588.478    25062591.955
        35.500          30.000
 130248961.728 6                  24785546.928
        38.500
 134467717.517 6                  25588353.836
        37.500
 133059060.432 6 103682392.31752  25320296.997    25320296.595    25320300.812
        36.250          16.750
 109570172.429 8  85379423.15048  20850488.731    20850488.320    20850490.030
        48.250          48.250
 129182579.398 6 100661750.32143  24582626.734    24582626.515    24582626.041
        37.750          22.500
 108018072.520 8  84169929.03049  20555152.463    20555152.159    20555150.813
        50.000          55.250
 195043848.152 7                  37115611.572
        47.500
 126143626.011 6  98293781.06846  24004314.387    24004313.936    24004312.555
        40.250          39.000
 203900598.130 7                  38800977.513
        43.250
  30762824.835 7                   5853916.516
        44.250
 183023953.200 7                  34828025.891
        46.750
 110016835.874 8                  20559256.535
        51.500
 148949839.900 5                  28344211.073
        34.000
 110767005.012 7  86311963.78746  21078250.968    21078250.808    21078250.528
        47.000          40.500
 128207092.170 7                  24396975.444
        47.000
 110546066.186 8                  20701716.906
        50.500
 105208821.977 8                  19736904.341
        51.250
 129569537.551 7                  24656253.671
        46.500
 103730928.130 7                  19398193.751
        42.000
 21 10 19  1  1  0.0000000  0 24E26G16E04G27G32E12E09G08G26G04G31S36
                                G29S23S48S25R21E24G18E01R09R10E31R20
 129079540.186 7                  24562989.136
        45.000
 118537949.036 7  92367254.04045  22557016.916    22557016.085    22557015.433
        44.250          32.250
 145108035.699 6                  27613148.268
        36.500
 118838934.875 7  92601807.21845  22614284.621    22614284.085    22614285.987
        43.250          34.750
 131789190.477 6 102692906.86645  25078644.952    25078644.769    25078647.745
        36.750          31.000
 130159604.578 6                  24768542.583
        39.000
 134507950.079 6                  25596009.237
        37.250
 132971148.513 5 103613889.92842  25303565.878    25303565.382    25303572.691
        32.750          17.250
 109544234.378 8  85359211.67848  20845553.070    20845552.646    20845554.454
        48.500          48.500
 129162195.547 6 100645866.74343  24578748.369    24578748.146    24578746.882
        37.500          20.750
 108054380.992 8  84198221.31749  20562061.757    20562061.449    20562060.159
        50.000          55.000
 195043841.455 7                  37115609.909
        46.500
 126236235.252 6  98365944.08646  24021937.561    24021937.110    24021935.908
        40.250          39.000
 203900473.360 7                  38800953.348
        43.000
  30763428.390 7                   5853939.876
        44.250
 183018846.471 7                  34827240.035
        47.000
 109927861.350 8                  20542629.541
        51.750
 148891307.776 5                  28333073.087
        35.750
 110763502.035 7  86309234.21946  21077584.474    21077584.309    21077583.769
        47.000          40.250
 128219955.358 7                  24399423.042
        47.250
 110595841.665 8                  20711037.694
        50.250
 105169292.317 8                  19729488.520
        51.000
 129529254.243 7                  24648588.148
        46.250
 103776700.981 7                  19406753.434
        42.000
 21 10 19  1  1 30.0000000  0 25E26G16E04G27G32E12E09G08G26G04G31S36
                                G29S23S48S25R21E24E21G18E01R09R10E31
                                R20
 129124143.298 7                  24571476.908
        44.750
 118479970.348 7  92322075.87545  22545983.596    22545982.756    22545982.093
        43.500          31.750
 145175652.462 6                  27626015.798
        39.000
 118767286.701 7  92545977.57145  22600650.084    22600649.539    22600651.684
        43.750          34.750
 131873360.386 6 102758493.95445  25094661.726    25094661.552    25094665.137
        38.750          34.000
 130070374.412 6                  24751562.444
        39.250
 134548428.386 6                  25603712.733
        38.500
 132883405.863 5 103545519.39143  25286868.948    25286868.327    25286875.733
        35.500          20.000
 109518456.485 8  85339125.00748  20840647.537    20840647.108    20840649.035
        48.750          53.250
 129142304.865 6 100630367.47643  24574961.769    24574961.564    24574962.351
        37.000          21.500
 108091187.339 8  84226901.57949  20569065.598    20569065.285    20569064.191
        49.500          54.500
 195043844.375 7                  37115609.529
        47.750
 126328834.927 6  98438099.64646  24039558.332    24039557.876    24039557.159
        40.250          39.500
 203900354.495 7                  38800929.671
        43.250
  30764038.103 7                   5853965.502
        43.750
 183015339.202 7                  34826455.118
        46.500
 109839456.302 8                  20526108.835
        51.250
 148832692.404 5                  28321919.164
        34.750
                                  27741735.834
        18.250
 110760587.420 7  86306963.11346  21077029.839    21077029.674    21077029.104
        47.500          40.000
 128232956.117 7                  24401897.247
        47.000
 110646088.342 8                  20720447.545
        50.000
 105130150.428 8                  19722145.628
        51.250
 129488996.398 7                  24640927.312
        46.250
 103823184.857 7                  19415445.942
        42.000
 21 10 19  1  2  0.0000000  0 25E26G16E04G27G32E12E09G08G26G04G31S36
                                G29S23S48S25R21E24E21G18E01R09R10E31
                                R20
 129169098.292 7                  24580031.777
        45.500
 118422048.157 7  92276941.71945  22534961.239    22534960.390    22534959.987
        43.750          31.000
 145243203.100 6                  27638869.839
        37.250
 118695943.145 7  92490385.34745  22587073.792    22587073.269    22587075.046
        43.500          34.500
 131957313.322 5 102823911.97845  25110637.930    25110637.770    25110640.961
        35.750          33.000
 129981264.815 6                  24734605.543
        39.750
 134589142.833 6                  25611460.271
        38.500
 132795824.235 5 103477274.35142  25270201.532    25270200.817    25270208.735
        35.500          13.000
 109492831.795 8  85319157.71248  20835771.376    20835770.938    20835772.462
        48.250          53.000
 129122899.379 6 100615246.29943  24571270.093    24571269.901    24571270.244
        37.000          21.000
 108128482.851 8  84255962.96449  20576162.996    20576162.683    20576161.336
        49.500          54.750
 195043838.724 7                  37115608.773
        47.000
 126421415.234 6  98510240.13046  24057175.925    24057175.465    24057174.409
        39.500          38.500
 203900232.634 7                  38800906.316
        43.250
  30763043.756 7                   5853991.921
        43.750
 183010218.448 7                  34825669.216
        46.750
 109751615.539 8                  20509693.827
        51.500
 148773986.069 5                  28310747.281
        35.750


 110758253.703 7  86305144.65346  21076585.575    21076585.410    21076584.920
        47.250          40.250
 128246087.493 7                  24404395.927
        47.250
 110696798.735 8                  20729944.166
        49.500
 105091390.953 8                  19714874.351
        51.250
 129448756.994 7                  24633269.994
        46.500
 103870368.680 6                  19424269.688
        41.500
 21 10 19  1  2 30.0000000  0 25E26G16E04G27G32E12E09G08G26G04G31S36
                                G29S23S48S25R21R22E24G18E01R09R10E31
                                R20
 129214407.758 7                  24588653.489
        45.250
 118364186.846 7  92231855.00045  22523950.969    22523950.133    22523948.634
        43.500          31.500
 145310689.405 6                  27651712.531
        38.750
 118624908.573 7  92435033.86245  22573555.871    22573555.335    22573557.376
        43.750          34.750
 132041050.786 6 102889162.08745  25126572.250    25126572.081    25126575.655
        38.000          32.750
 129892281.645 6                  24717672.553
        39.750
 134630095.632 6                  25619253.310
        38.750
 132708409.325 5 103409159.52643  25253569.357    25253568.660    25253574.375
        33.250          19.500
 109467365.234 8  85299313.63648  20830925.263    20830924.816    20830926.078
        48.500          53.250
 129103983.080 6 100600506.30843  24567670.891    24567670.699    24567670.418
        36.000          21.000
 108166271.073 8  84285408.27949  20583353.760    20583353.443    20583352.246
        49.500          54.750
 195043830.564 7                  37115608.652
        47.500
 126513979.021 6  98582367.70546  24074790.252    24074789.770    24074788.420
        39.000          37.250
 203900113.113 7                  38800884.146
        43.250
  30763649.093 7                   5854016.099
        44.250
 183006695.325 7                  34824879.743
        47.000
 109664345.653 8                  20493385.215
        51.500
 131226102.87715                  24583072.114
        34.000
 148715192.838 5                  28299559.710
        35.250
 110756505.296 7  86303782.28046  21076253.006    21076252.841    21076252.433
        47.250          40.750
 128259354.370 7                  24406920.635
        47.250
 110747977.131 8                  20739528.439
        49.500
 105053021.087 8                  19707676.318
        51.500
 129408540.817 7                  24625617.042
        46.500
 103918253.540 6                  19433224.970
        41.750
 21 10 19  1  3  0.0000000  0 24E26G16E04G27G32E12E09G08G26G04G31S36
                                G29S23S48S25R21E24G18E01R09R10E31R20
 129260066.348 7                  24597342.180
        45.000
 118306382.583 7  92186812.75745  22512950.726    22512949.899    22512948.460
        44.000          31.750
 145378105.451 6                  27664541.216
        37.750
 118554179.257 7  92379920.21645  22560096.490    22560095.949    22560097.917
        43.500          34.250
 132124566.638 5 102954239.50844  25142464.737    25142464.527    25142468.334
        34.500          27.500
 129803422.744 6                  24700763.060
        39.500
 134671281.048 6                  25627090.640
        38.000
 132621157.333 5 103341171.21342  25236962.673    25236962.021    25236970.311
        30.250          13.500
 109442053.642 8  85279590.31448  20826108.659    20826108.203    20826109.693
        48.500          53.000
 129085551.827 6 100586144.26243  24564163.167    24564162.989    24564162.672
        37.000          21.500
 108204547.268 8  84315233.85349  20590637.590    20590637.273    20590636.023
        49.750          55.250
 195043823.137 7                  37115607.351
        47.250
 126606520.429 6  98654477.89046  24092399.885    24092399.434    24092398.278
        37.750          37.500
 203899992.483 7                  38800860.781
        43.250
  30764250.795 7                   5854040.214
        43.750
 183003173.828 7                  34824092.169
        47.250
 109577644.758 8                  20477182.576
        51.250
 148656308.621 6                  28288354.210
        36.000
 110755338.411 7  86302873.04246  21076031.074    21076030.905    21076030.086
        47.500          40.250
 128272753.600 7                  24409470.255
        47.000
 110799619.667 8                  20749199.520
        50.250
 105015039.608 8                  19700551.178
        51.250
 129368344.600 7                  24617968.007
        46.250
 103966831.597 6                  19442308.330
        41.500
 21 10 19  1  3 30.0000000  0 25E26G16E04G27G32E12E09G08G26G04G31S36
                                G29S23S48S25R21R22E24G18E01R09R10E31
                                R20
 129306073.452 7                  24606097.051
        45.000
 118248636.557 7  92141815.87545  22501962.095    22501961.268    22501960.262
        43.250          31.000
 145445450.051 6                  27677356.955
        38.500
 118483756.315 7  92325045.13845  22546695.850    22546695.318    22546696.934
        43.500          34.000
 132207859.961 6 103019143.48645  25158315.074    25158314.846    25158318.143
        40.500          32.000
 129714690.946 6                  24683877.831
        39.750
 134712698.218 6                  25634972.563
        38.250
 132534070.538 6 103273311.96043  25220391.198    25220390.617    25220397.610
        36.500          20.750
 109416898.836 8  85259989.16748  20821321.787    20821321.327    20821323.210
        48.500          53.000
 129067606.337 6 100572160.73343  24560747.735    24560747.552    24560747.765
        37.500          21.750
 108243311.604 8  84345439.78449  20598014.101    20598013.784    20598012.711
        50.500          55.500
 195043814.285 8                  37115605.464
        48.000
 126699038.960 6  98726570.23946  24110006.336    24110005.880    24110004.058
        39.250          36.750
 203899870.427 7                  38800837.238
        43.250
  30764852.178 7                   5854063.690
        44.000
 182998044.381 7                  34823299.699
        47.000
 109491516.700 8                  20461088.039
        51.500
 130967763.81315                  24534675.023
        32.000
 148597334.528 5                  28277131.730
        34.750
 110754754.256 8  86302417.88746  21075919.709    21075919.531    21075918.653
        48.000          40.000
 128286286.946 7                  24412045.545
        47.000
 110851727.478 8                  20758957.102
        49.500
 104977450.926 8                  19693499.629
        51.000
 129328170.035 7                  24610323.153
        46.000
 104016101.191 6                  19451523.135
        41.750
