     2.11           OBSERVATION DATA    M (MIXED)           RINEX VERSION / TYPE
teqc  2019Feb25                         20230504 17:05:29UTCPGM / RUN BY / DATE
Linux2.6.32-573.12.1.el6.x86_64|x86_64|gcc|Win64-MinGW64|=+ COMMENT
BIT 2 OF LLI FLAGS DATA COLLECTED UNDER A/S CONDITION       COMMENT
CVBB                                                        MARKER NAME
CVBB                                                        MARKER NUMBER
RFGH                SEGAL                                   OBSERVER / AGENCY
3055330             SEPT POLARX5        5.3.2               REC # / TYPE / VERS
1909270038          TWIVP6050_CONE  NONE                    ANT # / TYPE
  6378137.0000        0.0000        0.0000                  APPROX POSITION XYZ
        0.1190        0.0000        0.0000                  ANTENNA: DELTA H/E/N
     1     1                                                WAVELENGTH FACT L1/2
     7    L1    L2    C1    P1    P2    S1    S2            # / TYPES OF OBSERV
 SNR is mapped to RINEX snr flag value [0-9]                COMMENT
  L1 & L2: min(max(int(snr_dBHz/6), 0), 9)                  COMMENT
  2021    10    14    11     4   30.0000000     GPS         TIME OF FIRST OBS
    18                                                      LEAP SECONDS
                                                            END OF HEADER
 21 10 14 11  4 30.0000000  0 22G01G17S36G04G19G06G07G09G30S23S48E26
                                E07R05S25E13R20R19R21R04R06G02
 144197307.51716 112361564.28956  27439835.336    27439835.305    27439841.585
        37.000          36.000
 128045388.45218  99775626.33256  24366227.054    24366226.826    24366226.897
        48.250          41.500
 213183379.39517                  40567448.107
        46.500
 131005984.40517 102082588.19356  24929609.918    24929609.579    24929610.336
        46.000          37.000
 125924885.65418  98123277.93757  23962708.964    23962708.432    23962706.633
        48.250          42.000
 131482938.74117 102454244.41056  25020371.413    25020371.435    25020373.372
        46.500          39.250
 143565913.01116 111869558.44956  27319684.434    27319684.198    27319689.083
        40.250          38.750
 124530018.35618  97036384.19659  23697274.720    23697274.340    23697276.077
        51.250          56.000
 152544030.40715 118865517.10955  29028162.769    29028162.090    29028173.322
        35.750          31.250
 221994730.37117                  42244192.867
        43.250
  48767660.04117                   9280181.652
        44.000
 138995896.26318                  26450039.661
        48.750
 142622989.94018                  27140252.451
        49.000
 123496141.34818                  23102506.918
        52.750
 208694239.09118                  39713204.014
        48.500
 148772611.78317                  28310486.820
        45.750
 121922877.00116                  22800192.076
        41.250
 130202873.25916                  24340052.257
        41.000
 143298821.25717                  26778810.046
        45.250
 139844881.27717                  26115045.230
        46.500
 131905585.48616                  24719048.514
        40.250
 151528426.71616                  28834901.189
        37.750
 21 10 14 11  5  0.0000000  0 23G01G17S36G04G19G06G07G28G09G30S23S48
                                E26E07R05S25E13R20R19R21R04R06G02
 126946010.534 6  98918994.84745  24157022.341    24157022.243    24157029.736
        37.000          35.000
 110767112.970 8  86312035.01046  21078280.682    21078280.365    21078280.238
        48.500          41.250
 195851449.221 7                  37269290.485
        46.500
 113736644.060 7  88625959.33546  21643363.710    21643363.406    21643364.025
        46.250          36.750
 108610822.444 8  84631800.09246  20667952.301    20667951.260    20667949.908
        48.500          41.750
 114084190.045 7  88896777.89946  21709499.915    21709499.871    21709502.199
        47.250          39.500
 126160620.204 6  98306992.78346  24007567.515    24007567.194    24007572.142
        40.750          38.750
 132048718.23615 102895127.30753  25128035.966    25128036.404    25128040.866
        32.750          20.000
 107191966.177 8  83526213.66449  20397953.140    20397952.702    20397954.291
        51.750          56.250
 135135488.812 5 105300419.64644  25715427.407    25715426.576    25715437.928
        32.750          27.250
 204662912.918 7                  38946056.499
        43.250
  31435475.988 7                   5981983.795
        43.750
 121640424.511 8                  23147403.215
        49.000
 125321817.081 8                  23847948.924
        49.250
 105913109.985 8                  19813237.203
        52.250
 191363322.594 8                  36415262.648
        48.250
 131489521.040 7                  25021624.003
        46.000
 104243660.218 6                  19494089.103
        41.000
 112648354.261 6                  21058420.267
        40.500
 125525664.985 7                  23457470.316
        44.250
 122290212.293 7                  22836834.054
        45.250
 114240576.024 6                  21408632.822
        39.750
 134112243.909 6 104503040.06253  25520711.554    25520710.884    25520709.631
        37.500          22.500
 21 10 14 11  5 30.0000000  0 24G01G17S36G04G19G06G07G09G30S23S48E26
                                E07R05S25E13R20R19R21R04R06G03E08G02
 127026806.190 5  98981952.12745  24172397.749    24172397.633    24172404.851
        35.500          34.250
 110821223.387 8  86354198.93546  21088577.636    21088577.315    21088577.196
        48.500          41.750
 195851446.052 7                  37269290.847
        46.750
 113799626.784 7  88675036.77046  21655349.114    21655348.833    21655349.110
        46.250          37.250
 108629315.465 8  84646210.21947  20671471.485    20671470.403    20671468.990
        48.250          42.000
 114017550.305 7  88844850.82646  21696818.543    21696818.503    21696821.129
        46.750          40.000
 126087273.255 6  98249839.48046  23993609.815    23993609.435    23993614.603
        40.500          39.250
 107186402.125 8  83521878.03649  20396894.145    20396893.707    20396895.433
        51.500          56.750
 135058662.756 5 105240555.11344  25700807.900    25700807.203    25700819.863
        35.000          29.000
 204663024.172 7                  38946076.706
        43.000
  31435222.780 7                   5981940.948
        43.750
 121617141.348 8                  23142972.532
        48.750
 125352859.794 8                  23853856.033
        48.750
 105961007.980 8                  19822197.504
        52.500
 191364339.369 8                  36415478.561
        48.250
 131538604.439 7                  25030964.295
        45.500
 104201824.064 6                  19486266.164
        40.750
 112737245.515 6                  21075038.552
        40.500
 125401710.463 7                  23434305.724
        42.250
 122396952.228 7                  22856767.836
        45.750
 114175628.342 6                  21396462.542
        40.000
 125444158.99216  97748709.93056  23871229.869    23871229.695    23871233.428
        37.000          37.250
 134000036.635 6                  25499359.477
        36.500
 134027930.521 6 104437341.36843  25504667.769    25504666.786    25504665.494
        37.750          23.250
 21 10 14 11  6  0.0000000  0 24G01G17S36G04G19G06G07G09G30S23S48E26
                                E07R05S25E13R20R19R21R04R06G03E08G02
 127107850.345 6  99045103.05145  24187820.025    24187819.905    24187827.343
        36.000          34.500
 110875864.317 8  86396776.24246  21098975.177    21098974.851    21098975.261
        48.250          41.500
 195851498.852 7                  37269300.810
        46.500
 113863079.900 7  88724480.73846  21667423.751    21667423.465    21667424.016
        45.750          36.750
 108648497.024 8  84661156.87047  20675121.573    20675120.482    20675118.970
        48.250          42.000
 113951123.888 7  88793089.98746  21684178.098    21684178.058    21684180.509
        46.750          39.750
 126013974.578 6  98192723.78646  23979661.091    23979660.711    23979666.020
        40.500          38.750
 107181450.247 8  83518019.42949  20395951.911    20395951.473    20395953.160
        51.500          56.500
 134981652.887 5 105180547.27444  25686153.597    25686152.900    25686165.104
        35.750          28.750
 204663191.775 7                  38946108.911
        43.250
  31435024.314 7                   5981911.162
        44.000
 121594166.326 8                  23138600.624
        49.000
 125384254.798 8                  23859830.342
        49.000
 106009370.298 8                  19831244.844
        52.250
 191365427.870 8                  36415707.257
        48.500
 131588006.577 7                  25040365.263
        45.750
 104160688.202 6                  19478573.618
        40.750
 112826721.650 6                  21091764.426
        40.750
 125277871.405 6                  23411163.533
        41.750
 122503716.910 7                  22876704.791
        45.250
 114111180.715 6                  21384385.572
        40.250
 125514156.288 6  97803253.21146  23884549.728    23884549.599    23884553.900
        38.500          38.500
 134079491.841 6                  25514479.557
        36.750
 133943583.527 6 104371616.48843  25488616.633    25488615.583    25488615.740
        37.000          23.250
 21 10 14 11  6 30.0000000  0 25G01G17S36G04G19G06G07G09G30E19S23S48
                                E26E07R05S25E13R20R19R21R04R06G03E08
                                G02
 127189083.398 6  99108401.15145  24203279.076    24203278.956    24203285.702
        36.500          34.750
 110930974.831 8  86439719.45946  21109462.538    21109462.217    21109462.553
        48.500          41.750
 195851549.875 7                  37269309.226
        46.500
 113926942.125 7  88774243.50346  21679576.236    21679575.955    21679576.495
        46.250          36.750
 108668307.173 8  84676593.33147  20678891.088    20678889.984    20678888.696
        48.500          42.000
 113884853.857 7  88741451.00046  21671567.371    21671567.331    21671569.496
        47.000          40.000
 125940668.398 6  98135602.25146  23965711.653    23965711.269    23965715.832
        40.500          39.000
 107177051.157 8  83514591.56949  20395114.936    20395114.498    20395116.081
        51.500          56.500
 134904402.091 5 105120351.77444  25671452.743    25671452.046    25671464.833
        35.250          28.500
 145504722.47015                  27688629.466
        31.750
 204663357.234 7                  38946140.463
        43.000
  31434823.930 7                   5981879.919
        43.750
 121571441.849 8                  23134276.226
        49.000
 125415941.783 8                  23865860.060
        49.000
 106058133.397 8                  19840366.938
        52.250
 191366518.372 8                  36415936.432
        48.250
 131637668.478 7                  25049815.392
        45.250
 104120195.664 6                  19471001.411
        41.000
 112916719.642 6                  21108588.871
        41.000
 125154091.056 7                  23388032.939
        43.000
 122610443.775 7                  22896635.646
        44.500
 114047173.629 6                  21372389.685
        40.000
 125584122.962 6  97857772.61546  23897864.783    23897864.645    23897868.259
        38.000          37.500
 134158984.003 6                  25529606.432
        37.000
 133859144.997 6 104305820.27643  25472548.283    25472547.233    25472547.702
        38.000          23.250
 21 10 14 11  7  0.0000000  0 25G01G17S36G04G19G06G07G09G30E19S23S48
                                E26E07R05S25E13R20R19R21R04R06G03E08
                                G02
 127270491.306 6  99171835.50745  24218770.915    24218770.795    24218778.283
        36.750          35.750
 110986539.287 8  86483016.39947  21120036.167    21120035.846    21120036.111
        48.250          42.000
 195851583.332 7                  37269317.167
        46.500
 113991197.535 7  88824312.64346  21691803.735    21691803.454    21691803.749
        46.250          37.000
 108688731.352 8  84692508.26047  20682777.968    20682776.860    20682775.354
        48.500          42.250
 113818728.748 7  88689924.94646  21658984.172    21658984.137    21658986.216
        47.000          40.250
 125867343.387 6  98078466.03846  23951758.542    23951758.158    23951762.416
        40.250          39.250
 107173190.825 8  83511583.52349  20394380.294    20394379.856    20394381.402
        51.250          56.750
 134826898.632 5 105059959.33645  25656704.644    25656703.902    25656715.651
        35.500          31.500
 145424450.383 5                  27673353.677
        33.250
 204663506.163 7                  38946169.229
        43.000
  31434611.244 7                   5981846.046
        44.000
 121548955.816 8                  23129997.267
        49.000
 125447905.909 8                  23871942.658
        48.750
 106107280.638 8                  19849561.142
        52.250
 191367606.771 8                  36416164.525
        48.250
 131687576.529 7                  25059312.767
        45.500
 104080335.515 6                  19463547.059
        41.250
 113007224.047 6                  21125507.634
        41.000
 125030359.451 7                  23364910.607
        44.500
 122717116.975 7                  22916556.185
        43.750
 113983593.501 6                  21360474.700
        40.250
 125654045.359 6  97912257.51246  23911169.928    23911169.803    23911174.260
        37.250          37.500
 134238498.135 6                  25544737.531
        36.500
 133774602.593 6 104239943.12643  25456459.903    25456458.853    25456458.983
        38.000          22.750
 21 10 14 11  7 30.0000000  0 25G01G17S36G04G19G06G07G09G30E19S23S48
                                E26E07R05S25E13R20R19R21R04R06G03E08
                                G02
 127352065.424 6  99235399.34645  24234293.914    24234293.803    24234300.850
        36.750          34.750
 111042547.370 7  86526659.02246  21130694.028    21130693.711    21130694.063
        47.750          41.750
 195851592.562 7                  37269317.954
        46.500
 114055835.756 7  88874680.07646  21704103.947    21704103.675    21704104.414
        45.500          37.000
 108709760.841 7  84708894.85947  20686779.631    20686778.514    20686777.206
        47.750          42.000
 113752742.647 7  88638507.21046  21646427.298    21646427.263    21646429.475
        46.500          40.250
 125793994.521 6  98021311.22846  23937800.173    23937799.793    23937804.805
        40.750          40.000
 107169860.795 8  83508988.69949  20393746.503    20393746.065    20393747.715
        51.000          56.750
 134749136.099 5 104999365.03144  25641907.067    25641906.339    25641918.341
        33.500          29.500
 145344278.595 5                  27658098.401
        32.500
 204663631.226 7                  38946193.988
        43.250
  31434376.072 7                   5981807.148
        44.000
 121526701.559 8                  23125762.401
        49.000
 125480137.862 8                  23878076.187
        49.000
 106156800.579 8                  19858824.822
        52.250
 191368672.954 8                  36416390.052
        48.250
 131737722.614 7                  25068855.277
        45.750
 104041103.505 6                  19456210.812
        41.250
 113098224.243 6                  21142519.565
        41.000
 124906671.849 7                  23341795.922
        45.250
 122823725.565 7                  22936464.353
        44.750
 113920432.433 6                  21348638.932
        40.500
 125723915.424 6  97966701.63746  23924466.305    23924466.189    23924469.749
        37.500          38.750
 134318024.775 6                  25559871.068
        37.250
 133689949.417 6 104173979.66443  25440351.176    25440350.161    25440348.917
        36.500          21.000
 21 10 14 11  8  0.0000000  0 25G01G17S36G04G19G06G07G09G30E19S23S48
                                E26E07R05S25E13R20R19R21R04R06G03E08
                                G02
 127433838.442 6  99299118.18445  24249855.455    24249855.353    24249862.069
        37.250          34.500
 111099030.584 8  86570671.87746  21141442.488    21141442.171    21141442.453
        48.000          41.250
 195851614.326 7                  37269321.125
        46.500
 114120887.703 7  88925369.89346  21716482.645    21716482.382    21716483.390
        45.250          36.750
 108731427.994 8  84725778.33747  20690902.854    20690901.732    20690900.342
        48.250          42.000
 113686930.868 7  88587225.31446  21633903.751    21633903.716    21633906.245
        47.000          40.500
 125720657.224 6  97964165.43746  23923844.672    23923844.297    23923849.202
        41.000          40.000
 107167093.791 8  83506832.60149  20393220.033    20393219.595    20393221.312
        51.250          56.750
 134671149.735 5 104938596.38244  25627067.698    25627066.996    25627078.769
        33.000          26.750
 145264241.335 5                  27642867.800
        31.250
 204663765.834 7                  38946218.926
        43.250
  31434150.534 7                   5981770.498
        43.750
 121504713.741 8                  23121578.326
        48.750
 125512669.517 8                  23884266.874
        49.000
 106206723.977 8                  19868163.726
        52.500
 191369756.259 8                  36416618.096
        48.250
 131788139.887 7                  25078449.624
        45.250
 104002535.647 6                  19448997.738
        41.250
 113189752.042 6                  21159630.292
        40.750
 124783065.591 7                  23318696.819
        44.000
 122930301.182 7                  22956366.890
        45.000
 113857724.431 6                  21336887.595
        40.250
 125793765.874 6  98021130.47246  23937758.560    23937758.462    23937761.741
        37.500          37.000
 134397595.752 6                  25575012.877
        37.250
 133605219.577 6 104107956.45643  25424227.798    25424226.792    25424225.216
        37.000          21.750
 21 10 14 11  8 30.0000000  0 25G01G17S36G04G19G06G07G09G30E19S23S48
                                E26E07R05S25E13R20R19R21R04R06G03E08
                                G02
 127515807.414 6  99362989.70345  24265453.655    24265453.548    24265461.262
        37.250          34.750
 111155984.472 8  86615051.48846  21152280.616    21152280.303    21152280.387
        48.500          41.250
 195851639.616 7                  37269326.106
        46.750
 114186348.506 7  88976378.29446  21728939.759    21728939.496    21728940.235
        46.000          37.000
 108753729.189 8  84743155.87547  20695146.651    20695145.520    20695144.202
        48.250          42.000
 113621293.087 7  88536079.00146  21621413.262    21621413.231    21621415.585
        47.250          40.500
 125647332.064 6  97907029.08946  23909891.003    23909890.623    23909895.495
        41.250          39.750
 107164886.881 8  83505112.94149  20392800.082    20392799.644    20392801.355
        51.500          56.750
 134592939.191 5 104877652.96344  25612185.154    25612184.461    25612195.045
        34.000          28.250
 145184337.313 5                  27627660.840
        32.250
 204663906.772 7                  38946245.130
        43.250
  31433931.475 7                   5981735.884
        43.750
 121482991.345 8                  23117444.805
        49.250
 125545497.139 8                  23890513.762
        49.000
 106257045.183 8                  19877577.835
        52.500
 191370857.487 8                  36416849.708
        48.500
 131838825.858 7                  25088094.676
        45.750
 103964632.712 6                  19441910.479
        41.250
 113281802.212 6                  21176836.731
        41.000
 124659542.020 7                  23295613.848
        43.500
 123036839.101 7                  22976261.670
        45.000
 113795467.381 6                  21325219.570
        40.750
 125863594.496 6  98075542.27246  23951046.795    23951046.697    23951049.995
        37.250          37.250
 134477207.247 6                  25590162.300
        38.000
 133520411.821 6 104041872.52943  25408089.541    25408088.549    25408087.304
        37.250          21.500
 21 10 14 11  9  0.0000000  0 25G01G17S36G04G19G06G07G09G30E19S23S48
                                E26E07R05S25E13R20R19R21R04R06G03E08
                                G02
 127597958.241 6  99427002.92545  24281086.469    24281086.358    24281094.739
        38.500          35.750
 111213393.365 8  86659785.64946  21163205.234    21163204.921    21163204.999
        48.250          41.250
 195851651.797 7                  37269330.081
        46.500
 114252202.270 7  89027692.90346  21741471.075    21741470.830    21741471.868
        46.000          37.000
 108776650.143 8  84761016.34147  20699508.361    20699507.230    20699506.060
        48.250          42.000
 113555817.867 7  88485059.35146  21608953.672    21608953.646    21608955.812
        47.000          40.500
 125574008.145 6  97849893.72046  23895938.053    23895937.664    23895942.137
        40.750          39.250
 107163226.011 8  83503818.76949  20392484.031    20392483.593    20392485.211
        51.500          56.750
 134514492.605 6 104816525.63444  25597256.391    25597255.681    25597267.383
        36.000          29.500
 145104554.062 5                  27612479.316
        32.500
 204664041.043 7                  38946270.211
        43.000
  31433706.608 7                   5981697.673
        44.000
 121461522.206 8                  23113359.321
        49.500
 125578605.899 8                  23896813.967
        49.250
 106307747.276 8                  19887062.581
        52.750
 191371964.225 8                  36417080.488
        48.500
 131889766.974 7                  25097788.543
        45.750
 103927383.794 6                  19434944.388
        41.750
 113374359.172 6                  21194140.320
        41.250
 124536090.851 7                  23272543.382
        42.250
 123143323.208 7                  22996147.951
        45.750
 113733647.600 6                  21313634.944
        41.000
 125933387.364 6  98129926.26346  23964327.683    23964327.590    23964331.156
        37.750          36.250
 134556844.333 6                  25605316.927
        38.250
 133435514.017 6 103975718.43343  25391933.861    25391932.855    25391932.253
        37.250          22.500
 21 10 14 11  9 30.0000000  0 26G01G17S36G04G19G06G07G09G30E19S23S48
                                E26E07R05S25E13R20R19R21R04R06G03E08
                                G20G02
 127680305.891 6  99491169.51745  24296757.299    24296757.192    24296765.544
        38.500          35.750
 111271270.975 8  86704885.03646  21174219.078    21174218.765    21174218.803
        48.000          41.250
 195851684.556 7                  37269335.461
        46.750
 114318462.218 7  89079324.01446  21754080.071    21754079.839    21754080.614
        45.750          36.750
 108800205.442 8  84779371.10047  20703990.877    20703989.742    20703988.603
        48.250          42.250
 113490522.923 7  88434180.17946  21596528.600    21596528.574    21596530.559
        47.250          40.750
 125500703.846 6  97792773.63746  23881988.589    23881988.200    23881992.490
        40.750          39.750
 107162126.191 8  83502961.77949  20392274.569    20392274.131    20392275.743
        51.250          56.500
 134435827.437 5 104755228.01745  25582286.924    25582286.187    25582298.179
        34.750          30.250
 145024908.342 5                  27597322.719
        31.750
 204664183.863 7                  38946297.904
        43.250
  31433492.915 7                   5981663.980
        44.000
 121440323.303 8                  23109325.290
        49.250
 125612010.006 8                  23903170.597
        49.000
 106358842.949 8                  19896621.326
        52.500
 191373082.417 8                  36417315.508
        48.250
 131940978.667 7                  25107533.943
        45.750
 103890808.099 7                  19428104.044
        42.000
 113467436.545 6                  21211539.882
        41.500
 124412731.423 7                  23249492.048
        44.500
 123249767.189 7                  23016024.604
        44.750
 113672281.242 6                  21302134.569
        41.500
 126003160.031 6  98184294.47446  23977605.041    23977604.965    23977608.499
        37.750          36.500
 134636521.188 6                  25620478.893
        37.750
 131758420.92516                  25072793.800
        36.000
 133350542.788 6 103909507.13543  25375764.455    25375763.472    25375762.781
        37.250          22.250
 21 10 14 11 10  0.0000000  0 26G01G17S36G04G19G06G07G09G30E19S23S48
                                E26E07R05S25E13R20R19R21R04R06G03E08
                                G20G02
 127762837.419 6  99555479.36945  24312463.019    24312462.912    24312471.162
        39.000          35.750
 111329602.665 8  86750338.25346  21185319.244    21185318.931    21185318.966
        48.000          41.000
 195851709.479 7                  37269339.928
        46.500
 114385113.622 7  89131260.16446  21766763.396    21766763.168    21766763.830
        46.000          37.000
 108824381.681 8  84798209.70647  20708591.571    20708590.427    20708589.120
        48.000          42.000
 113425398.022 7  88383433.51446  21584135.890    21584135.868    21584138.119
        47.500          41.000
 125427409.437 6  97735661.26446  23868040.960    23868040.580    23868044.855
        41.250          40.000
 107161574.505 8  83502531.91049  20392169.542    20392169.104    20392170.682
        51.500          56.500
 134356933.246 5 104693751.89244  25567273.307    25567272.574    25567285.144
        35.000          29.750
 144945388.789 5                  27582190.330
        31.750
 204664323.495 7                  38946324.135
        43.000
  31433278.532 7                   5981628.001
        43.750
 121419383.717 8                  23105340.526
        49.000
 125645695.808 8                  23909580.853
        49.000
 106410316.603 8                  19906250.445
        52.500
 191374200.108 8                  36417551.265
        48.250
 131992448.497 7                  25117328.234
        45.500
 103854895.782 6                  19421389.742
        41.500
 113561018.860 6                  21229034.935
        41.250
 124289455.081 7                  23226454.054
        45.750
 123356156.009 7                  23035891.564
        44.250
 113611355.915 6                  21290717.907
        41.000
 126072899.854 6  98238637.10146  23990876.007    23990875.931    23990879.877
        38.000          36.500
 134716224.198 6                  25635645.957
        38.000
 131692522.628 5 102617556.28453  25060253.095    25060253.002    25060255.126
        35.750          18.000
 133265487.186 6 103843230.07743  25359579.005    25359578.031    25359577.618
        37.500          22.750
 21 10 14 11 10 30.0000000  0 26G01G17S36G04G19G06G07G09G30E19S23S48
                                E26E07R05S25E13R20R19R21R04R06G03E08
                                G20G02
 127845557.851 6  99619936.41845  24328204.066    24328203.968    24328212.400
        39.750          35.250
 111388391.778 8  86796147.90246  21196506.292    21196505.984    21196506.264
        48.000          41.000
 195851737.926 7                  37269345.267
        46.250
 114452159.649 7  89183503.81146  21779521.785    21779521.557    21779522.161
        46.000          36.750
 108849183.082 8  84817535.45447  20713310.941    20713309.797    20713308.587
        48.000          42.000
 113360450.875 7  88332825.36046  21571776.834    21571776.812    21571779.216
        47.500          40.750
 125354133.323 6  97678563.13746  23854096.800    23854096.407    23854100.905
        41.250          40.000
 107161575.936 8  83502533.03749  20392170.128    20392169.690    20392171.093
        51.500          56.500
 134277817.711 5 104632103.28845  25552218.821    25552218.057    25552229.938
        34.750          30.000
 144866002.130 5                  27567083.812
        33.500
 204664465.448 7                  38946352.096
        42.750
  31433067.048 7                   5981592.224
        43.500
 121398710.327 8                  23101406.667
        49.000
 125679667.516 8                  23916045.514
        48.750
 106462170.719 8                  19915950.759
        52.750
 191375332.099 8                  36417788.901
        48.000
 132044181.922 7                  25127172.917
        45.250
 103819655.253 6                  19414798.422
        41.750
 113655109.530 6                  21246623.877
        41.250
 124166271.043 7                  23203434.484
        45.750
 123462493.271 7                  23055751.021
        45.750
 113550877.401 6                  21279384.198
        40.750
 126142612.476 6  98292958.53446  24004142.578    24004142.507    24004146.081
        37.000          36.000
 134795957.444 6                  25650818.845
        38.000
 131626649.102 6 102566226.26543  25047718.925    25047718.371    25047719.648
        36.500          20.000
 133180353.657 6 103776892.31243  25343377.995    25343377.016    25343377.126
        37.750          23.000
 21 10 14 11 11  0.0000000  0 26G01G17S36G04G19G06G07G09G30E19S23S48
                                E26E07R05S25E13R20R19R21R04R06G03E08
                                G20G02
 127928462.459 6  99684536.98745  24343981.093    24343981.000    24343988.902
        39.500          34.750
 111447632.100 8  86842309.14346  21207779.544    21207779.236    21207779.564
        48.000          41.250
 195851760.885 7                  37269349.381
        46.750
 114519593.761 7  89236049.85846  21792354.296    21792354.082    21792354.613
        45.750          36.500
 108874604.702 8  84837344.48647  20718148.397    20718147.248    20718146.189
        48.500          42.250
 113295679.507 7  88282354.17146  21559451.081    21559451.064    21559453.166
        47.250          40.750
 125280873.623 6  97621477.80546  23840155.584    23840155.195    23840160.376
        41.500          40.750
 107162125.717 8  83502961.45349  20392274.621    20392274.183    20392275.676
        51.500          56.750
 134198478.529 6 104570280.42845  25537121.659    25537120.850    25537132.484
        36.500          32.000
 144786745.252 5                  27552002.359
        32.750
 204664604.703 7                  38946378.483
        43.250
  31432855.737 7                   5981556.876
        44.000
 121378300.487 8                  23097522.716
        49.000
 125713919.664 8                  23922563.444
        48.750
 106514397.981 8                  19925720.796
        52.500
 191376475.671 8                  36418028.249
        48.250
 132096174.682 7                  25137066.854
        45.000
 103785085.365 6                  19408333.901
        41.750
 113749702.477 6                  21264307.204
        41.000
 124043178.816 7                  23180431.990
        44.750
 123568772.556 7                  23075597.049
        45.250
 113490841.447 6                  21268133.457
        40.750
 126212293.639 6  98347255.44046  24017402.234    24017402.154    24017405.967
        37.750          36.000
 134875715.463 6                  25665996.335
        37.000
 131560795.707 6 102514911.97143  25035186.945    25035186.235    25035188.078
        37.250          19.250
 133095139.414 6 103710491.63143  25327162.411    25327161.432    25327160.993
        37.500          23.750
 21 10 14 11 11 30.0000000  0 26G01G17S36G04G19G06G07G09G30E19S23S48
                                E26E07R05S25E13R20R19R21R04R06G03E08
                                G20G02
 128011550.315 6  99749280.31345  24359792.447    24359792.358    24359799.933
        40.250          35.250
 111507321.371 8  86888820.20746  21219138.041    21219137.733    21219138.183
        48.250          41.250
 195851781.360 7                  37269352.784
        46.750
 114587413.240 7  89288896.18646  21805259.836    21805259.622    21805260.074
        46.000          36.250
 108900645.041 8  84857635.63847  20723103.963    20723102.810    20723101.588
        48.250          42.250
 113231085.769 7  88232021.40046  21547159.367    21547159.350    21547161.172
        47.500          40.750
 125207632.780 6  97564407.16746  23826218.421    23826218.050    23826222.601
        41.500          40.250
 107163222.914 8  83503816.42649  20392483.265    20392482.827    20392484.411
        51.500          56.750
 134118917.439 5 104508284.65445  25521980.934    25521980.112    25521993.318
        35.000          31.500
 144707618.977 5                  27536944.680
        32.750
 204664742.719 7                  38946404.677
        43.500
  31432642.462 7                   5981521.760
        44.000
 121358155.217 8                  23093689.226
        49.250
 125748450.629 8                  23929134.467
        49.000
 106566994.820 8                  19935560.120
        52.500
 191379219.334 8                  36418267.065
        48.500
 132148426.395 7                  25147009.865
        45.000
 103751188.591 6                  19401995.000
        41.500
 113844794.737 6                  21282083.255
        41.000
 123920181.797 7                  23157446.391
        43.250
 123674991.385 7                  23095432.796
        44.250
 113431248.126 6                  21256965.368
        41.250
 126281942.812 6  98401527.42745  24030656.462    24030656.395    24030659.767
        37.250          35.250
 134955496.652 6                  25681178.446
        38.750
 131494962.062 6 102463613.02143  25022659.306    25022658.582    25022659.919
        37.250          19.000
 133009845.103 6 103644028.58043  25310930.937    25310929.967    25310929.656
        37.750          23.500
 21 10 14 11 12  0.0000000  0 26G01G17S36G04G19G06G07G09G30E19S23S48
                                E26E07R05S25E13R20R19R21R04R06G03E08
                                G20G02
 128094827.765 6  99814171.39045  24375639.714    24375639.621    24375647.448
        40.500          35.000
 111567464.268 8  86935684.74446  21230582.889    21230582.581    21230582.957
        48.000          41.250
 195851806.709 7                  37269358.396
        46.750
 114655622.675 7  89342046.38646  21818239.701    21818239.500    21818239.996
        46.000          36.500
 108927309.983 8  84878413.49247  20728177.960    20728176.807    20728175.694
        48.500          42.250
 113166678.767 7  88181834.13746  21534903.105    21534903.083    21534905.362
        47.500          41.250
 125134420.554 6  97507358.82946  23812286.610    23812286.235    23812290.268
        41.500          40.000
 107164873.844 8  83505102.87649  20392797.518    20392797.080    20392798.561
        51.500          56.750
 134039143.274 5 104446122.83544  25506800.806    25506799.979    25506812.826
        32.750          29.500
 144628631.331 5                  27521913.714
        34.500
 204664886.330 7                  38946432.500
        43.250
  31432435.222 7                   5981486.881
        44.000
 121338282.892 8                  23089907.701
        49.000
 125783266.029 8                  23935759.609
        49.000
 106619965.497 8                  19945469.589
        52.500
 191380379.759 8                  36418510.374
        48.250
 132200943.891 7                  25157003.694
        45.250
 103717975.033 6                  19395784.049
        41.750
 113940390.672 6                  21299955.521
        41.000
 123797290.589 7                  23134480.785
        42.000
 123781154.489 7                  23115257.895
        44.500
 113372104.461 6                  21245881.687
        40.750
 126351566.939 6  98455779.89946  24043904.683    24043904.607    24043908.500
        37.750          36.000
 135035306.605 6                  25696365.666
        38.000
 131429154.654 6 102412334.51943  25010136.614    25010135.836    25010136.631
        36.000          19.000
 132924479.046 6 103577509.60043  25294687.008    25294686.061    25294684.774
        37.500          22.500
 21 10 14 11 12 30.0000000  0 26G01G17S36G04G19G06G07G09G30E19S23S48
                                E26E07R05S25E13R20R19R21R04R06G03E08
                                G20G02
 128178291.812 6  99879207.84446  24391523.053    24391522.964    24391531.081
        40.500          36.000
 111628056.327 8  86982899.27946  21242113.158    21242112.845    21242113.049
        48.000          41.000
 195851833.155 7                  37269364.312
        46.750
 114724217.223 7  89395496.66746  21831292.498    21831292.297    21831293.118
        45.750          36.250
 108954595.766 8  84899675.11747  20733370.213    20733369.064    20733367.901
        48.500          42.250
 113102458.269 7  88131792.20446  21522682.469    21522682.447    21522684.364
        47.500          41.000
 125061237.343 6  97450333.10746  23798360.132    23798359.743    23798363.838
        41.000          40.000
 107167075.420 8  83506818.40349  20393216.369    20393215.931    20393217.458
        51.250          56.500
 133959155.651 5 104383794.72544  25491580.330    25491579.459    25491591.646
        34.750          29.000
 144549781.039 5                  27506909.754
        34.750
 204665031.402 7                  38946459.875
        43.750
  31432231.490 7                   5981452.611
        44.000
 121318682.487 8                  23086177.808
        49.250
 125818362.083 8                  23942438.178
        49.000
 106673304.087 8                  19955447.847
        52.500
 191381543.408 8                  36418754.284
        48.500
 132253724.611 7                  25167047.933
        45.000
 103685444.966 6                  19389701.067
        41.250
 114036485.604 6                  21317918.288
        41.000
 123674506.789 7                  23111536.078
        45.000
 123887257.429 7                  23135072.101
        43.500
 113313408.072 6                  21234881.973
        41.000
 126421163.591 6  98510010.96746  24057149.257    24057149.186    24057152.789
        38.250          36.500
 135115141.501 6                  25711557.523
        37.250
 131363370.803 5 102361074.40343  24997618.412    24997617.594    24997619.388
        35.250          18.250
 132839040.255 6 103510933.95043  25278428.574    25278427.640    25278426.554
        37.500          23.000
 21 10 14 11 13  0.0000000  0 26G01G17S36G04G19G06G07G09G30E19S23S48
                                E26E07R05S25E13R20R19R21R04R06G03E08
                                G20G02
 128261935.260 6  99944384.09846  24407439.908    24407439.824    24407449.257
        40.250          36.500
 111689088.775 8  87030456.97046  21253727.326    21253727.009    21253727.195
        48.000          41.000
 195851857.762 7                  37269368.801
        46.500
 114793187.934 7  89449240.06346  21844417.581    21844417.385    21844417.916
        45.500          36.250
 108982494.786 8  84921414.58947  20738679.554    20738678.405    20738676.907
        48.250          42.250
 113038419.878 7  88081892.17346  21510496.276    21510496.259    21510498.177
        47.250          40.750
 124988079.492 6  97393327.14746  23784438.334    23784437.937    23784442.474
        41.000          40.000
 107169820.407 8  83508957.36849  20393738.697    20393738.259    20393739.851
        51.500          56.500
 133878950.044 5 104321296.72445  25476317.689    25476316.831    25476329.126
        35.500          32.000
 144471062.612 5                  27491929.122
        33.500
 204665172.558 7                  38946487.474
        43.000
  31432025.207 7                   5981417.280
        43.750
 121299348.860 8                  23082498.834
        49.000
 125853730.927 8                  23949168.552
        48.750
 106727000.853 8                  19965492.788
        52.250
 191382721.289 8                  36419000.652
        48.250
 132306761.894 7                  25177140.392
        45.000
 103653594.357 6                  19383744.906
        41.500
 114133070.461 6                  21335974.829
        41.500
 123551827.422 7                  23088611.366
        46.500
 123993291.338 7                  23154873.041
        44.250
 113255152.447 6                  21223965.526
        41.000
 126490726.029 6  98564215.37546  24070386.381    24070386.314    24070390.285
        37.750          36.000
 135194993.509 6                  25726753.045
        38.250
 131297603.511 6 102309827.18143  24985103.437    24985102.637    24985104.036
        37.000          20.000
 132753523.486 6 103444297.53243  25262154.805    25262153.844    25262153.268
        38.250          23.500
 21 10 14 11 13 30.0000000  0 26G01G17S36G04G19G06G07G09G30E19S23S48
                                E26E07R05S25E13R20R19R21R04R06G03E08
                                G20G02
 128345762.056 6 100009703.21846  24423392.267    24423392.178    24423401.176
        40.750          36.250
 111750564.111 8  87078359.77046  21265425.704    21265425.387    21265425.670
        48.000          40.750
 195851881.903 7                  37269372.982
        46.500
 114862536.980 7  89503278.26946  21857614.047    21857613.851    21857614.591
        45.500          36.000
 109011010.341 8  84943634.47647  20744105.821    20744104.672    20744103.440
        48.250          42.000
 112974570.384 7  88032139.33046  21498346.104    21498346.078    21498347.974
        47.500          40.500
 124914954.104 6  97336346.47546  23770522.696    23770522.290    23770526.928
        41.500          39.500
 107173112.642 8  83511522.75949  20394365.215    20394364.777    20394366.312
        51.500          56.500
 133798532.947 5 104258633.90645  25461015.142    25461014.306    25461026.371
        34.250          31.500
 144392481.688 5                  27476975.868
        34.250
 204665314.435 7                  38946512.497
        43.000
  31431818.696 7                   5981383.842
        43.500
 121280287.931 8                  23078871.555
        48.750
 125889375.771 8                  23955951.580
        48.750
 106781057.332 8                  19975605.369
        52.750
 191383905.021 8                  36419247.633
        48.250
 132360060.125 7                  25187282.742
        44.750
 103622430.766 6                  19377916.949
        41.500
 114230147.691 6                  21354122.134
        41.000
 123429260.860 7                  23065706.502
        46.000
 124099258.758 7                  23174662.505
        44.250
 113197342.309 6                  21213131.436
        41.500
 126560258.817 6  98618396.65646  24083618.151    24083618.093    24083621.870
        37.500          36.750
 135274865.866 6                  25741952.054
        37.750
 131231857.238 6 102258596.36243  24972593.154    24972592.314    24972593.201
        37.750          20.500
 132667934.450 6 103377604.79043  25245868.385    25245867.433    25245866.049
        38.500          23.500
 21 10 14 11 14  0.0000000  0 26G01G17S36G04G19G06G07G09G30E19S23S48
                                E26E07R05S25E13R20R19R21R04R06G03E08
                                G20G02
 128429777.262 6 100075169.13445  24439380.629    24439380.540    24439388.697
        39.750          35.500
 111812485.860 8  87126610.42446  21277209.133    21277208.820    21277209.004
        48.000          40.750
 195851917.250 7                  37269378.594
        46.750
 114932267.616 7  89557613.81346  21870883.477    21870883.276    21870883.813
        45.750          36.000
 109040147.169 8  84966338.46747  20749650.328    20749649.175    20749648.257
        48.250          42.250
 112910917.698 7  87982539.83746  21486233.473    21486233.451    21486235.382
        47.250          41.000
 124841869.516 6  97279397.59846  23756615.249    23756614.847    23756619.305
        40.750          39.750
 107176957.126 8  83514518.46949  20395096.865    20395096.427    20395097.932
        51.250          56.500
 133717912.150 6 104195812.38345  25445672.250    25445671.432    25445684.471
        36.250          31.250
 144314045.063 5                  27462050.227
        33.500
 204665463.090 7                  38946541.473
        43.250
  31431620.772 7                   5981349.951
        44.000
 121261506.742 8                  23075297.606
        48.750
 125925300.965 8                  23962787.962
        48.750
 106835476.098 8                  19985785.379
        52.750
 191385110.391 8                  36419498.424
        48.500
 132413624.849 7                  25197476.055
        44.500
 103591962.760 6                  19372218.822
        41.500
 114327720.281 6                  21372361.623
        41.000
 123306816.713 7                  23042824.935
        45.000
 124205163.372 7                  23194439.914
        44.250
 113139983.418 6                  21202382.334
        41.250
 126629767.563 6  98672559.22346  24096845.582    24096845.529    24096849.524
        37.000          36.250
 135354763.021 6                  25757156.182
        37.000
 131166137.194 6 102207385.93743  24960086.320    24960085.475    24960086.314
        36.000          19.000
 132582279.986 6 103310861.05344  25229568.490    25229567.547    25229566.337
        38.000          24.000
 21 10 14 11 14 30.0000000  0 26G01G17S36G04G19G06G07G09G30E19S23S48
                                E26E07R05S25E13R20R19R21R04R06G03E08
                                G20G02
 128513964.591 6 100140769.15145  24455401.026    24455400.933    24455409.010
        40.000          35.000
 111874835.561 7  87175194.54546  21289073.936    21289073.628    21289073.757
        47.750          40.750
 195851940.867 7                  37269384.179
        46.250
 115002361.737 7  89612232.57446  21884221.882    21884221.686    21884222.547
        45.250          36.500
 109069887.938 8  84989513.06247  20755309.977    20755308.824    20755307.833
        48.250          42.500
 112847448.289 7  87933083.16646  21474155.512    21474155.490    21474158.043
        47.000          41.000
 124768812.873 6  97222470.49946  23742713.461    23742713.064    23742716.923
        41.500          40.000
 107181337.396 8  83517931.67049  20395930.285    20395929.847    20395931.554
        51.250          56.500
 133637074.011 5 104132821.51145  25430289.523    25430288.705    25430301.642
        35.500          31.000
 144235738.107 5                  27447147.819
        33.750
 204665602.974 7                  38946567.529
        42.750
  31431416.297 7                   5981312.568
        43.500
 121242991.068 8                  23071774.232
        49.250
 125961489.477 8                  23969674.427
        49.000
 106890238.448 8                  19996029.688
        52.750
 191386313.697 8                  36419748.616
        48.000
 132467440.261 7                  25207716.506
        44.750
 103562177.121 6                  19366649.172
        41.500
 114425770.167 6                  21390691.320
        41.250
 123184482.696 7                  23019963.669
        42.750
 124310987.104 7                  23214200.605
        44.000
 113083059.885 6                  21191715.096
        41.000
 126699236.636 6  98726690.85546  24110065.051    24110065.007    24110068.933
        37.750          36.000
 135434667.951 6                  25772361.826
        38.500
 131100427.222 6 102156183.36743  24947582.170    24947581.272    24947582.110
        37.500          20.000
 132496545.833 6 103244055.22644  25213254.162    25213253.206    25213251.796
        37.750          24.250
 21 10 14 11 15  0.0000000  0 26G01G17S36G04G19G06G07G09G30E19S23S48
                                E26E07R05S25E13R20R19R21R04R06G03E08
                                G20G02
 128598332.889 6 100206510.17945  24471456.220    24471456.122    24471464.169
        40.250          35.500
 111937620.791 8  87224118.04146  21301021.627    21301021.319    21301021.391
        48.250          40.750
 195851958.845 7                  37269388.329
        46.250
 115072826.427 7  89667140.10546  21897630.720    21897630.524    21897631.508
        46.000          36.500
 109100240.982 8  85013164.75747  20761085.787    20761084.629    20761083.676
        48.250          42.250
 112784173.864 7  87883778.42646  21462114.839    21462114.817    21462117.274
        47.500          41.250
 124695796.548 6  97165574.81746  23728818.732    23728818.335    23728822.143
        41.250          39.750
 107186262.172 8  83521769.16149  20396867.532    20396867.094    20396868.686
        51.500          56.750
 133556030.067 5 104069670.24545  25414867.747    25414866.925    25414879.798
        35.250          31.500
 144157571.368 5                  27432273.538
        33.250
 204665743.495 7                  38946594.337
        43.000
  31431213.865 7                   5981278.884
        43.500
 121224751.727 8                  23068303.390
        48.750
 125997949.460 8                  23976612.609
        48.500
 106945350.801 8                  20006339.507
        52.250
 191387521.627 8                  36419999.733
        48.250
 132521515.685 7                  25218006.946
        44.750
 103533086.106 6                  19361209.182
        41.500
 114524303.895 6                  21409111.436
        40.750
 123062272.399 7                  22997126.505
        44.750
 124416737.687 7                  23233948.959
        43.000
 113026581.257 6                  21181131.401
        41.000
 126768675.404 6  98780798.88045  24123278.967    24123278.932    24123282.255
        37.000          35.250
 135514588.808 6                  25787570.320
        39.000
 131034736.843 6 102104996.11143  24935081.114    24935080.220    24935082.436
        36.000          19.000
 132410742.635 6 103177195.59744  25196926.038    25196925.077    25196924.136
        38.500          24.500
 21 10 14 11 15 30.0000000  0 26G01G17S36G04G19G06G07G09G30E19S23S48
                                E26E07R05S25E13R20R19R21R04R06G03E08
                                G20G02
 128682887.916 6 100272396.68446  24487546.338    24487546.240    24487555.509
        39.000          36.000
 112000845.947 8  87273384.33746  21313052.818    21313052.510    21313052.878
        48.000          40.750
 195851991.346 7                  37269393.449
        46.500
 115143665.699 7  89722339.52546  21911110.844    21911110.648    21911111.635
        45.500          36.000
 109131211.451 8  85037297.56447  20766979.266    20766978.108    20766977.028
        48.250          42.250
 112721103.114 7  87834632.38946  21450112.585    21450112.568    21450114.925
        47.500          41.250
 124622829.696 6  97108717.69646  23714932.992    23714932.577    23714936.928
        41.250          40.000
 107191737.123 8  83526035.35549  20397909.308    20397908.875    20397910.444
        51.250          56.750
 133474788.757 6 104006365.19845  25399408.978    25399408.191    25399419.829
        36.500          32.250
 144079552.406 5                  27417426.813
        34.000
 204665890.309 7                  38946622.821
        43.000
  31431019.488 7                   5981245.914
        43.750
 121206796.531 8                  23064886.734
        49.000
 126034685.979 8                  23983603.325
        49.000
 107000816.264 8                  20016715.999
        52.500
 191388745.760 8                  36420254.352
        48.250
 132575857.361 7                  25228348.072
        45.250
 103504698.881 6                  19355900.668
        41.500
 114623325.771 6                  21427622.383
        40.250
 122940196.406 7                  22974313.833
        46.250
 124522419.598 7                  23253684.523
        43.250
 112970554.233 6                  21170631.762
        41.500
 126838090.394 6  98834888.39545  24136488.043    24136487.999    24136491.777
        36.750          34.750
 135594530.703 6                  25802782.907
        39.250
 130969072.058 6 102053828.76343  24922586.448    24922585.532    24922586.630
        36.500          20.000
 132324878.338 6 103110288.36744  25180586.800    25180585.839    25180584.536
        38.000          24.000
 21 10 14 11 16  0.0000000  0 26G01G17S36G04G19G06G07G09G30E19S23S48
                                E26E07R05S25E13R20R19R21R04R06G03E08
                                G20G02
 128767622.231 6 100338422.90446  24503671.531    24503671.424    24503680.345
        39.250          36.750
 112064502.102 8  87322986.47546  21325166.413    21325166.114    21325166.360
        48.000          40.500
 195852024.665 7                  37269398.801
        46.750
 115214870.269 7  89777823.58546  21924660.988    21924660.792    21924661.841
        45.250          36.250
 109162791.349 8  85061905.25047  20772988.852    20772987.694    20772986.464
        48.250          42.000
 112658231.445 7  87785641.48246  21438148.716    21438148.699    21438150.786
        47.500          41.250
 124549908.127 6  97051895.85346  23701057.129    23701056.727    23701060.504
        41.500          40.500
 107197754.590 8  83530724.28649  20399054.382    20399053.949    20399055.524
        51.500          56.500
 133393345.300 6 103942902.63245  25383910.263    25383909.468    25383921.096
        36.500          32.000
 144001675.411 5                  27402607.740
        32.000
 204666037.536 7                  38946651.498
        43.500
  31430825.585 7                   5981212.713
        44.000
 121189120.028 8                  23061523.034
        49.000
 126071690.850 8                  23990645.081
        48.750
 107056625.104 8                  20027155.899
        52.500
 191389987.716 8                  36420511.323
        48.750
 132630458.296 7                  25238738.262
        45.000
 103477011.153 6                  19350722.315
        41.750
 114722826.278 6                  21446223.527
        40.250
 122818251.317 7                  22951525.780
        47.500
 124628023.716 7                  23273404.322
        44.250
 112914971.666 6                  21160214.606
        41.250
 126907474.687 6  98888953.97245  24149691.435    24149691.391    24149695.200
        36.750          34.500
 135674485.606 6                  25817997.593
        39.250
 130903425.656 6 102002675.75743  24910093.649    24910092.702    24910094.106
        36.250          20.000
 132238947.228 6 103043329.06143  25164234.449    25164233.466    25164232.094
        38.000          22.750
 21 10 14 11 16 30.0000000  0 26G01G17S36G04G19G06G07G09G30E19S23S48
                                E26E07R05S25E13R20R19R21R04R06G03E08
                                G20G02
 128852530.135 6 100404584.36246  24519829.603    24519829.487    24519838.549
        39.000          36.750
 112128581.717 8  87372918.57946  21337360.382    21337360.087    21337360.359
        48.250          40.500
 195852043.105 7                  37269405.066
        46.750
 115286432.692 7  89833586.49445  21938278.926    21938278.734    21938279.487
        45.750          35.750
 109194973.965 8  85086982.58347  20779113.107    20779111.949    20779110.620
        48.750          42.000
 112595556.065 7  87736803.53246  21426222.081    21426222.064    21426223.985
        47.750          41.000
 124477029.587 6  96995107.54346  23687188.139    23687187.742    23687192.035
        41.000          40.000
 107204308.755 8  83535831.42549  20400301.676    20400301.243    20400302.839
        51.750          56.500
 133311696.793 6 103879280.28245  25368373.129    25368372.307    25368385.298
        36.750          31.750
 143923936.449 5                  27387813.596
        31.000
 204666179.725 7                  38946677.464
        43.250
  31430628.127 7                   5981176.448
        44.000
 121171718.579 8                  23058211.553
        49.000
 126108957.735 8                  23997736.777
        48.500
 107112769.022 8                  20037658.889
        52.500
 191391225.576 8                  36420767.641
        48.500
 132685313.332 7                  25249176.780
        44.750
 103450020.313 6                  19345675.088
        41.500
 114822797.888 6                  21464911.877
        39.750
 122696436.062 7                  22928760.781
        46.250
 124733543.220 7                  23293110.196
        43.750
 112859828.546 6                  21149880.848
        41.500
 126976823.343 6  98942991.79145  24162888.157    24162888.108    24162891.951
        37.000          34.750
 135754447.194 6                  25833214.020
        38.250
 130837792.291 6 101951532.89143  24897604.308    24897603.369    24897604.207
        37.250          20.000
 132152945.739 6 102976314.93143  25147869.551    25147868.577    25147866.707
        38.250          23.000
 21 10 14 11 17  0.0000000  0 26G01G17S36G04G19G06G07G09G30E19S23S48
                                E26E07R05S25E13R20R19R21R04R06G03E08
                                G20G02
 128937612.319 6 100470881.62246  24536020.578    24536020.467    24536029.454
        38.500          37.000
 112193083.784 8  87423179.87046  21349634.784    21349634.494    21349634.703
        48.250          40.750
 195852067.283 7                  37269409.202
        46.500
 115358351.912 7  89889627.42545  21951964.628    21951964.436    21951965.090
        45.250          35.750
 109227759.357 8  85112529.61547  20785352.043    20785350.890    20785349.450
        48.500          42.250
 112533080.610 7  87688121.36746  21414333.449    21414333.432    21414335.474
        47.750          41.500
 124404198.337 6  96938356.07846  23673328.878    23673328.489    23673332.276
        41.000          39.750
 107211400.144 8  83541357.18149  20401651.152    20401650.719    20401652.312
        51.250          56.500
 133229846.760 6 103815500.89145  25352797.862    25352797.040    25352810.480
        37.000          33.250
 143846337.960 5                  27373047.318
        32.750
 204666319.001 7                  38946703.632
        43.000
  31430428.657 7                   5981141.368
        43.500
 121154594.898 8                  23054953.098
        49.250
 126146486.619 8                  24004878.275
        48.750
 107169246.424 8                  20048224.156
        52.500
 191392467.081 8                  36421025.103
        48.000
 132740423.611 7                  25259664.078
        45.000
 103423730.504 6                  19340758.389
        41.500
 114923239.024 6                  21483689.004
        39.000
 122574755.711 7                  22906021.096
        44.000
 124838977.086 7                  23312799.429
        44.500
 112805126.145 6                  21139630.363
        41.750
 127046137.612 6  98997002.83045  24176078.018    24176077.969    24176082.186
        36.000          34.250
 135834415.600 6                  25848431.651
        37.000
 130772173.185 6 101900401.16543  24885117.205    24885116.280    24885117.715
        37.000          20.500
 132066876.582 6 102909248.07044  25131490.526    25131489.565    25131488.249
        39.000          24.000
 21 10 14 11 17 30.0000000  0 26G01G17S36G04G19G06G07G09G30E19S23S48
                                E26E07R05S25E13R20R19R21R04R06G03E08
                                G20G02
 129022878.255 6 100537322.04446  24552246.277    24552246.161    24552256.149
        38.000          37.000
 112258016.296 7  87473776.57446  21361990.991    21361990.705    21361991.022
        47.750          41.000
 195852096.831 7                  37269414.336
        46.750
 115430635.620 7  89945952.37046  21965719.823    21965719.622    21965720.498
        44.750          36.000
 109261156.340 8  85138553.21147  20791707.061    20791705.903    20791704.708
        48.250          42.250
 112470817.412 8  87639604.59646  21402485.029    21402485.012    21402487.172
        48.000          41.750
 124331427.123 6  96881651.38946  23659480.607    23659480.227    23659483.943
        40.500          39.500
 107219037.996 8  83547308.75449  20403104.581    20403104.148    20403105.562
        51.500          56.750
 133147807.320 6 103751573.92345  25337186.962    25337186.153    25337197.899
        36.250          31.750
 143768891.096 5                  27358310.494
        31.500
 204666465.475 7                  38946731.320
        43.250
  31430238.066 7                   5981108.510
        43.500
 121137760.466 8                  23051749.599
        48.750
 126184286.263 8                  24012071.296
        48.500
 107226064.333 8                  20058852.823
        52.250
 191393725.546 8                  36421286.241
        48.500
 132795799.052 7                  25270201.710
        44.500
 103398154.413 6                  19335976.157
        41.500
 115024157.801 6                  21502555.193
        38.500
 122453224.664 7                  22883310.071
        43.750
 124944334.237 7                  23332474.595
        44.750
 112750874.535 6                  21129463.606
        41.000
 127115427.782 5  99050995.07945  24189263.593    24189263.558    24189267.620
        35.750          35.000
 135914399.685 5                  25863651.939
        34.750
 130706577.934 6 101849288.02743  24872634.805    24872633.866    24872635.704
        37.000          21.750
 131980751.177 6 102842137.39044  25115101.137    25115100.181    25115099.207
        38.250          24.250
 21 10 14 11 18  0.0000000  0 26G01G17S36G04G19G06G07G09G30E19S23S48
                                E26E07R05S25E13R20R19R21R04R06G03E08
                                G20G02
 129108320.825 6 100603900.11046  24568505.429    24568505.313    24568515.358
        37.750          36.000
 112323370.332 8  87524701.73846  21374427.706    21374427.425    21374427.566
        48.000          40.750
 195852124.324 7                  37269419.737
        46.750
 115503274.955 7  90002554.42446  21979542.475    21979542.270    21979543.428
        45.500          36.000
 109295157.059 8  85165047.25647  20798177.458    20798176.300    20798174.972
        48.250          42.250
 112408762.327 7  87591249.99146  21390676.402    21390676.389    21390678.404
        47.750          41.500
 124258712.338 6  96824990.68046  23645642.805    23645642.412    23645646.735
        41.500          39.750
 107227215.041 8  83553680.47549  20404660.508    20404660.075    20404661.531
        51.500          56.250
 133065574.239 6 103687496.02445  25321538.891    25321538.091    25321549.612
        36.250          31.750
 143691590.466 5                  27343600.032
        32.250
 204666612.483 7                  38946760.368
        43.500
  31430049.161 7                   5981074.222
        43.500
 121121210.234 8                  23048600.138
        49.000
 126222348.890 8                  24019314.417
        48.750
 107283213.143 8                  20069543.916
        52.250
 191394995.431 8                  36421547.474
        48.750
 132851433.034 7                  25280788.607
        44.500
 103373288.239 7                  19331325.791
        42.000
 115125544.811 6                  21521508.023
        38.250
 122331840.364 7                  22860627.055
        45.250
 125049605.723 7                  23352133.700
        46.000
 112697067.333 6                  21119379.946
        40.750
 127184687.342 6  99104963.43945  24202442.952    24202442.921    24202447.401
        36.500          34.250
 135994391.763 5                  25878873.507
        32.750
 130640999.898 6 101798188.29043  24860155.693    24860154.763    24860156.501
        37.500          20.750
 131894564.556 6 102774979.01344  25098700.627    25098699.697    25098698.807
        38.000          24.500
 21 10 14 11 18 30.0000000  0 26G01G17S36G04G19G06G07G09G30E19S23S48
                                E26E07R05S25E13R20R19R21R04R06G03E08
                                G20G02
 129193937.252 6 100670613.61545  24584798.783    24584798.663    24584808.117
        37.750          35.250
 112389141.889 7  87575952.23946  21386943.569    21386943.288    21386943.584
        47.750          40.750
 195852155.231 7                  37269424.795
        46.750
 115576265.545 7  90059430.18646  21993432.159    21993431.954    21993433.035
        45.500          36.000
 109329757.681 8  85192008.74947  20804761.548    20804760.381    20804759.525
        48.250          42.250
 112346915.673 8  87543057.79346  21378907.396    21378907.379    21378909.058
        48.000          41.500
 124186054.983 7  96768374.71146  23631817.075    23631816.686    23631820.389
        42.000          40.500
 107235928.395 8  83560470.10749  20406318.730    20406318.297    20406319.474
        51.500          56.250
 132983147.820 5 103623267.46645  25305852.645    25305851.841    25305865.262
        35.500          32.000
 143614435.266 5                  27328917.930
        33.750
 204666758.264 7                  38946788.240
        43.500
  31429861.131 7                   5981040.488
        44.250
 121104943.614 8                  23045504.726
        49.250
 126260671.222 8                  24026606.792
        49.000
 107340687.837 8                  20080295.540
        52.250
 191397871.683 8                  36421811.814
        48.750
 132907323.436 7                  25291424.356
        45.000
 103349132.249 6                  19326808.512
        41.500
 115227395.753 6                  21540547.545
        38.250
 122210604.716 7                  22837971.163
        47.000
 125154787.927 7                  23371775.165
        44.500
 112643702.199 6                  21109379.089
        41.250
 127253914.453 6  99158906.53745  24215617.354    24215617.337    24215621.297
        37.000          35.250
 136074388.649 5                  25894097.346
        31.000
 130575437.198 6 101747100.49443  24847679.552    24847678.618    24847679.373
        38.500          22.000
 131808316.283 6 102707772.59944  25082288.213    25082287.270    25082286.910
        38.000          24.750
 21 10 14 11 19  0.0000000  0 26G01G17S36G04G19G06G07G09G30E19S23S48
                                E26E07R05S25E13R20R19R21R04R06G03E08
                                G20G02
 129279728.506 6 100737463.35446  24601125.005    24601124.898    24601134.293
        37.000          36.500
 112455329.791 8  87627527.16446  21399538.913    21399538.632    21399538.798
        48.000          41.000
 195852184.524 7                  37269428.904
        46.750
 115649606.196 7  90116578.72846  22007388.534    22007388.333    22007389.291
        45.250          36.250
 109364958.603 8  85219438.01147  20811460.136    20811458.974    20811457.971
        48.500          42.500
 112285281.024 8  87495030.79847  21367178.663    21367178.650    21367180.448
        48.250          42.000
 124113458.881 6  96711806.47846  23618002.126    23618001.737    23618005.651
        41.250          40.500
 107245178.466 8  83567677.95549  20408078.939    20408078.506    20408079.809
        51.500          56.750
 132900531.304 5 103558890.79145  25290132.298    25290131.494    25290144.083
        35.250          32.500
 143537427.675 5                  27314264.055
        33.500
 204666904.159 7                  38946814.600
        43.250
  31429674.557 7                   5981007.890
        44.000
 121088963.245 8                  23042463.711
        49.250
 126299253.146 8                  24033948.754
        48.750
 107398486.598 8                  20091108.574
        52.250
 191399163.374 8                  36422076.601
        48.750
 132963471.306 7                  25302108.915
        44.750
 103325690.214 6                  19322424.646
        41.750
 115329708.758 6                  21559674.445
        37.750
 122089523.002 7                  22815344.659
        46.750
 125259880.173 7                  23391400.584
        44.750
 112590780.397 6                  21099461.868
        41.250
 127323110.472 6  99212825.46045  24228784.596    24228784.583    24228788.982
        36.750          35.250
 136154390.384 4                  25909321.156
        28.750
 130509890.449 6 101696025.14743  24835205.883    24835204.931    24835206.904
        37.250          21.750
 131722008.644 6 102640519.91744  25065864.070    25065863.109    25065863.258
        38.250          25.500
 21 10 14 11 19 30.0000000  0 26G01G17S36G04G19G06G07G09G30E19S23S48
                                E26E07R05S25E13R20R19R21R04R06G03E08
                                G20G02
 129365696.197 6 100804450.54646  24617484.545    24617484.438    24617494.153
        38.000          37.000
 112521934.147 8  87679426.60046  21412213.092    21412212.811    21412213.291
        48.000          40.750
 195852211.895 7                  37269435.361
        46.500
 115723296.938 7  90174000.06046  22021411.216    22021411.015    22021412.331
        46.000          36.250
 109400760.489 8  85247335.55647  20818273.107    20818271.945    20818270.573
        48.500          42.000
 112223863.135 8  87447172.70446  21355491.196    21355491.183    21355493.017
        48.000          41.750
 124040929.512 6  96655290.24646  23604200.088    23604199.704    23604203.670
        41.500          40.500
 107254966.746 8  83575305.18749  20409941.514    20409941.081    20409942.428
        51.500          56.500
 132817729.435 6 103494369.69645  25274375.266    25274374.462    25274387.436
        36.500          32.750
 143460571.344 5                  27299638.704
        34.250
 204667052.941 7                  38946843.044
        43.250
  31429492.619 7                   5980973.566
        43.750
 121073272.947 8                  23039478.014
        49.000
 126338095.798 8                  24041340.280
        48.500
 107456608.709 8                  20101981.269
        52.250
 191400468.309 8                  36422342.184
        48.750
 133019878.859 7                  25312843.001
        44.500
 103302967.200 6                  19318176.117
        41.750
 115432483.817 6                  21578887.772
        37.750
 121968601.635 7                  22792747.360
        46.500
 125364883.190 7                  23411009.675
        46.250
 112538304.172 6                  21089627.415
        41.250
 127392277.868 5  99266722.05845  24241946.766    24241946.749    24241951.194
        35.750          34.250
 136234398.359 4                  25924546.338
        26.500
 130444361.949 6 101644963.99343  24822735.699    24822734.738    24822737.529
        38.000          21.500
 131635645.905 6 102573224.30944  25049429.653    25049428.697    25049428.851
        39.250          25.750
 21 10 14 11 20  0.0000000  0 26G01G17S36G04G19G06G07G09G30E19S23S48
                                E26E07R05S25E13R20R19R21R04R06G03E08
                                G20G02
 129451831.059 6 100871568.00346  24633875.506    24633875.386    24633886.035
        37.500          37.250
 112588944.042 8  87731642.03446  21424964.800    21424964.519    21424964.865
        48.000          40.500
 195852238.415 7                  37269441.004
        46.500
 115797326.870 7  90231685.69246  22035498.769    22035498.573    22035499.288
        46.000          36.000
 109437153.571 8  85275693.77146  20825198.283    20825197.112    20825195.802
        48.500          41.750
 112162655.793 8  87399478.67646  21343844.104    21343844.091    21343845.769
        48.250          41.750
 123968461.340 7  96598821.70646  23590409.967    23590409.583    23590413.468
        42.000          40.500
 107265283.810 8  83583344.46049  20411904.741    20411904.308    20411905.734
        51.500          56.500
 132734735.924 5 103429699.26245  25258581.951    25258581.156    25258594.242
        35.750          31.500
 143383858.799 5                  27285040.877
        35.250
 204667196.189 7                  38946870.482
        43.500
  31429305.834 7                   5980939.425
        43.750
 121057865.590 8                  23036546.087
        49.250
 126377189.323 8                  24048779.573
        48.500
 107515042.796 8                  20112912.788
        52.500
 191401767.235 8                  36422609.672
        48.750
 133076537.412 7                  25323624.877
        44.500
 103280956.693 6                  19314059.688
        41.500
 115535709.638 6                  21598183.823
        38.250
 121847835.822 7                  22770178.603
        44.500
 125469786.250 7                  23430599.388
        46.250
 112486264.888 6                  21079875.703
        41.000
 127461408.311 6  99320589.81845  24255101.918    24255101.887    24255105.858
        36.500          34.250
 136314402.550 4                  25939770.437
        24.250
 130378842.819 6 101593910.17343  24810268.397    24810267.409    24810270.105
        37.250          21.500
 131549220.887 6 102505880.16544  25032983.260    25032982.326    25032982.375
        40.000          26.000
 21 10 14 11 20 30.0000000  0 26G01G17S36G04G19G06G07G09G30E19S23S48
                                E26E07R05S25E13R20R19R21R04R06G03E08
                                G20G02
 129538144.963 6 100938824.94346  24650301.340    24650301.224    24650311.995
        37.000          36.250
 112656369.818 8  87784181.53046  21437795.456    21437795.175    21437795.484
        48.250          40.250
 195852272.659 7                  37269446.053
        46.500
 115871706.048 7  90289643.46646  22049652.681    22049652.485    22049653.458
        45.750          36.000
 109474148.555 8  85304521.00346  20832238.336    20832237.169    20832235.907
        48.250          41.500
 112101673.814 8  87351960.24946  21332239.449    21332239.436    21332241.206
        48.000          41.750
 123896069.548 6  96542412.67246  23576634.025    23576633.641    23576637.499
        41.750          40.750
 107276141.200 8  83591804.76549  20413970.913    20413970.480    20413971.749
        51.250          56.250
 132651565.458 6 103364890.96445  25242755.970    25242755.188    25242767.721
        36.000          32.500
 143307303.604 5                  27270472.511
        34.750
 204667345.844 7                  38946898.519
        43.000
  31429127.493 7                   5980908.173
        43.750
 121042754.994 8                  23033670.670
        49.000
 126416544.883 8                  24056268.730
        48.500
 107573798.475 8                  20123904.058
        52.500
 191403086.564 8                  36422878.998
        48.500
 133133459.255 7                  25334456.620
        44.250
 103259674.221 6                  19310080.247
        41.250
 115639396.384 6                  21617567.917
        38.250
 121727242.584 7                  22747642.852
        44.500
 125574600.399 7                  23450172.121
        44.500
 112434674.891 6                  21070207.674
        41.500
 127530514.394 6  99374438.62745  24268252.409    24268252.378    24268256.346
        36.750          33.500
                                  25954995.085
        22.250
 130313345.105 6 101542873.03743  24797804.135    24797803.174    24797806.177
        37.250          21.250
 131462747.384 6 102438498.24644  25016528.358    25016527.442    25016526.670
        40.000          26.000
 21 10 14 11 21  0.0000000  0 26G01G17S36G04G19G06G07G09G30E19S23S48
                                E26E07R05S25E13R20R19R21R04R06G03E08
                                G20G02
 129624624.349 6 101006210.80846  24666758.001    24666757.894    24666769.113
        36.000          37.000
 112724196.087 8  87837033.09946  21450702.442    21450702.165    21450702.398
        48.000          40.750
 195852294.949 7                  37269451.817
        46.500
 115946419.129 7  90347861.42046  22063870.090    22063869.898    22063871.026
        45.500          36.250
 109511730.857 8  85333805.87647  20839390.057    20839388.886    20839387.668
        48.000          42.000
 112040906.620 7  87304609.19147  21320675.814    21320675.797    21320677.841
        47.750          42.250
 123823743.871 7  96486055.15346  23562871.078    23562870.707    23562874.064
        42.000          41.000
 107287525.077 8  83600675.31749  20416137.226    20416136.793    20416138.076
        51.000          56.500
 132568207.270 6 103299936.37845  25226892.962    25226892.162    25226905.002
        36.000          32.750
 143230893.828 5                  27255932.362
        35.750
 204667489.856 7                  38946926.122
        43.250
  31428944.435 7                   5980871.599
        43.750
 121027929.684 8                  23030849.564
        49.250
 126456148.230 8                  24063805.027
        48.750
 107632859.346 8                  20134952.584
        52.500
 191404405.707 8                  36423149.732
        48.500
 133190631.252 7                  25345336.340
        44.250
 103239108.763 6                  19306233.913
        41.500
 115743528.487 6                  21637033.886
        38.000
 121606812.689 7                  22725138.068
        45.250
 125679310.793 7                  23469726.373
        42.000
 112383520.991 6                  21060621.719
        41.500
 127599583.224 5  99428258.42645  24281396.676    24281396.641    24281399.889
        35.750          32.500
                                  25970221.934
        22.250
 130247856.003 6 101491842.60343  24785342.226    24785341.270    24785343.322
        36.750          21.500
 131376214.141 6 102371069.76144  25000061.541    25000060.661    25000059.714
        38.750          25.250
 21 10 14 11 21 30.0000000  0 26G01G17S36G04G19G06G07G09G30E19S23S48
                                E26E07R05S25E13R20R19R21R04R06G03E08
                                G20G02
 129711278.377 5 101073732.71745  24683248.693    24683248.573    24683259.062
        35.750          35.750
 112792430.690 8  87890202.84446  21463687.205    21463686.933    21463687.073
        48.000          40.750
 195852326.059 7                  37269457.742
        46.500
 116021473.681 7  90406345.45446  22078152.706    22078152.519    22078153.317
        45.500          36.000
 109549909.101 8  85363555.12746  20846655.083    20846653.907    20846652.660
        48.250          41.750
 111980366.509 8  87257435.07747  21309155.473    21309155.456    21309157.546
        48.250          42.250
 123751497.041 7  96429759.06346  23549122.486    23549122.115    23549125.863
        42.000          40.750
 107299444.384 8  83609963.09049  20418405.352    20418404.919    20418406.351
        51.500          56.500
 132484673.582 6 103234845.04345  25210997.053    25210996.231    25211009.314
        37.000          33.750
 143154640.583 5                  27241421.886
        35.500
 204667638.417 7                  38946953.220
        43.250
  31428765.886 7                   5980840.946
        43.750
 121013400.934 8                  23028084.850
        49.000
 126496007.991 8                  24071390.052
        48.750
 107692232.619 8                  20146059.550
        52.500
 191405731.327 8                  36423422.224
        48.250
 133248063.139 7                  25356265.266
        44.250
 103219272.599 6                  19302524.337
        41.750
 115848113.132 6                  21656586.753
        37.750
 121486560.431 7                  22702665.538
        46.500
 125783925.668 6                  23489262.701
        38.500
 112332813.178 6                  21051118.870
        41.250
 127668625.010 5  99482057.13245  24294533.930    24294533.904    24294538.544
        35.000          32.000
                                  25985446.155
        22.500
 130182384.894 6 101440826.19143  24772883.885    24772882.946    24772884.550
        38.000          21.000
 131289632.655 6 102303603.68944  24983585.440    24983584.555    24983584.293
        39.250          24.750
 21 10 14 11 22  0.0000000  0 26G01G17S36G04G19G06G07G09G30E19S23S48
                                E26E07R05S25E13R20R19R21R04R06G03E08
                                G20G02
 129798100.420 6 101141385.54246  24699769.855    24699769.730    24699781.345
        36.500          36.500
 112861064.933 8  87943684.00446  21476747.932    21476747.655    21476747.842
        48.000          40.500
 195852349.602 7                  37269461.645
        46.500
 116096861.204 7  90465088.94846  22092498.266    22092498.079    22092499.177
        45.500          36.000
 109588675.593 8  85393762.74946  20854032.027    20854030.851    20854029.625
        48.500          41.750
 111920049.764 8  87210435.01747  21297677.479    21297677.462    21297679.400
        48.250          42.250
 123679326.052 7  96373522.08346  23535389.022    23535388.647    23535392.178
        42.500          40.750
 107311892.067 8  83619662.58249  20420774.056    20420773.623    20420775.215
        51.250          56.500
 132400960.575 6 103169613.97045  25195067.183    25195066.365    25195079.762
        36.500          33.000
 143078538.770 5                  27226939.549
        35.500
 204667785.821 7                  38946981.758
        43.250
  31428585.942 7                   5980806.300
        44.000
 120999164.055 8                  23025375.694
        49.000
 126536116.748 8                  24079022.549
        48.750
 107751909.147 8                  20157223.280
        52.500
 191407075.971 8                  36423695.610
        48.250
 133305748.618 7                  25367242.581
        44.500
 103200161.934 6                  19298950.510
        41.750
 115953141.366 6                  21676218.746
        37.750
 121366483.547 7                  22680226.999
        47.000
 125888437.288 6                  23508779.516
        36.000
 112282544.878 6                  21041698.665
        41.750
 127737633.755 5  99535830.05645  24307666.069    24307666.038    24307670.819
        35.000          32.750
                                  26000669.941
        20.750
 130116926.018 6 101389819.32643  24760427.678    24760426.704    24760428.183
        37.250          21.250
 131202998.111 6 102236096.28544  24967099.174    24967098.289    24967098.043
        38.500          24.750
 21 10 14 11 22 30.0000000  0 26G01G17S36G04G19G06G07G09G30E19S23S48
                                E26E07R05S25E13R20R19R21R04R06G03E08
                                G20G02
 129885092.948 6 101209171.19246  24716325.127    24716325.020    24716336.383
        36.500          36.250
 112930099.667 8  87997477.22746  21489884.752    21489884.475    21489884.843
        48.000          40.250
 195852374.496 7                  37269469.480
        46.500
 116172582.526 7  90524092.54345  22106907.689    22106907.511    22106908.529
        45.000          35.250
 109628031.786 8  85424429.87646  20861521.499    20861520.323    20861518.887
        48.250          41.500
 111859961.936 8  87163613.33147  21286243.123    21286243.106    21286245.122
        48.250          42.000
 123607237.235 7  96317349.11346  23521670.824    23521670.449    23521673.571
        42.250          40.500
 107324870.317 8  83629775.50249  20423243.690    20423243.257    20423244.915
        51.250          56.250
 132317073.794 6 103104247.49645  25179104.146    25179103.333    25179116.861
        37.750          34.000
 143002592.709 6                  27212487.871
        36.000
 204667934.130 7                  38947011.772
        43.250
  31428410.612 7                   5980773.774
        44.000
 120985223.603 8                  23022722.940
        49.000
 126576476.386 8                  24086702.752
        48.500
 107811889.161 8                  20168443.812
        52.250
 191408432.981 8                  36423972.770
        48.500
 133363690.692 7                  25378268.520
        44.000
 103181782.814 6                  19295514.117
        41.750
 116058613.712 6                  21695936.138
        37.500
 121246589.335 7                  22657822.038
        47.000
 125992847.010 5                  23528277.404
        33.750
 112232719.130 6                  21032362.154
        41.500
 127806612.782 6  99589579.83845  24320792.150    24320792.133    24320796.748
        37.250          34.750


 130051481.965 6 101338823.99643  24747973.497    24747972.509    24747974.732
        38.250          22.000
 131116315.363 6 102168551.31044  24950604.152    24950603.276    24950602.732
        38.500          24.000
 21 10 14 11 23  0.0000000  0 27G01G17S36G04G19G06G07G09G30E19S23S48
                                E26E07R05S25E13R20R19R21R04R06G03E08
                                R07G20G02
 129972257.251 6 101277090.66846  24732912.550    24732912.439    24732924.095
        36.500          36.250
 112999534.342 7  88051582.10046  21503098.139    21503097.871    21503098.000
        47.500          40.250
 195852417.796 7                  37269474.756
        46.750
 116248637.164 7  90583355.86045  22121380.566    22121380.383    22121381.248
        45.250          35.250
 109667977.932 8  85455556.70446  20869123.067    20869121.891    20869120.484
        48.000          41.500
 111800107.363 8  87116973.40647  21274853.154    21274853.137    21274855.608
        48.000          42.250
 123535234.944 7  96261243.56646  23507969.118    23507968.747    23507972.139
        42.250          41.250
 107338380.078 8  83640302.58249  20425814.593    20425814.160    20425815.807
        51.000          56.500
 132233017.477 6 103038748.93645  25163109.169    25163108.347    25163120.879
        37.500          33.750
 142926805.430 5                  27198066.106
        35.250
 204668086.377 7                  38947039.769
        43.250
  31428239.646 7                   5980741.104
        44.000
 120971582.937 8                  23020127.099
        49.250
 126617087.575 8                  24094430.822
        48.250
 107872171.551 8                  20179720.751
        52.250
 191409799.561 8                  36424250.811
        48.500
 133421891.082 7                  25389343.890
        44.000
 103164138.760 6                  19292214.449
        41.500
 116164529.549 6                  21715736.984
        37.750
 121126884.110 7                  22635452.185
        46.250
 126097155.244 5                  23547757.223
        31.750
 112183337.886 6                  21023106.811
        41.500
 127875564.276 6  99643308.18545  24333913.754    24333913.737    24333917.947
        37.000          34.750
                                  26031115.851
        20.000
 133311261.115 5                  24903653.095
        35.500
 129986054.601 6 101287841.70443  24735523.021    24735522.038    24735523.960
        37.250          20.750
 131029588.145 6 102100971.70344  24934100.729    24934099.849    24934098.975
        38.250          24.500
 21 10 14 11 23 30.0000000  0 26G01G17S36G04G19G06G07G09G30E19S23S48
                                E26E07R05S25E13R20R19R21R04R06G03E08
                                G20G02
 130059580.995 6 101345134.38946  24749530.629    24749530.504    24749542.210
        36.250          36.250
 113069355.252 7  88105987.92946  21516384.474    21516384.202    21516384.675
        47.750          40.000
 195852445.280 7                  37269480.440
        46.750
 116325011.065 7  90642867.95945  22135913.683    22135913.505    22135914.603
        45.500          35.250
 109708501.144 8  85487133.19946  20876834.213    20876833.037    20876831.967
        48.250          41.500
 111740476.849 8  87070508.07247  21263505.930    21263505.913    21263508.124
        48.250          42.000
 123463310.585 7  96205198.74646  23494282.040    23494281.674    23494285.849
        42.750          41.250
 107352408.721 8  83651233.98649  20428484.174    20428483.741    20428485.335
        51.250          56.250
 132148782.232 6 102973110.95245  25147079.602    25147078.784    25147091.614
        37.500          34.250
 142851166.374 5                  27183671.672
        34.750
 204668231.090 7                  38947069.447
        43.250
  31428063.253 7                   5980708.162
        43.750
 120958231.821 8                  23017586.587
        49.000
 126657937.353 8                  24102204.255
        48.500
 107932741.800 8                  20191051.769
        52.000
 191411161.715 8                  36424530.073
        48.500
 133480337.973 7                  25400465.931
        44.250
 103147220.565 6                  19289050.614
        41.750
 116270874.361 6                  21735616.596
        37.500
 121007360.190 7                  22613115.872
        45.500
 126201348.506 4                  23567214.087
        29.750
 112134389.016 6                  21013934.275
        41.250
 127944476.863 6  99697006.20945  24347027.891    24347027.860    24347031.995
        36.500          34.250


 129920632.216 6 101236863.24643  24723073.835    24723072.856    24723074.149
        37.500          21.000
 130942805.951 6 102033349.23844  24917587.117    24917586.232    24917584.325
        38.750          24.500
 21 10 14 11 24  0.0000000  0 26G01G17S36G04G19G06G07G09G30E19S23S48
                                E26E07R05S25E13R20R19R21R04R06G03E08
                                G20G02
 130147071.379 6 101413307.94946  24766180.127    24766180.029    24766191.675
        36.000          36.000
 113139567.905 7  88160699.01146  21529745.587    21529745.315    21529745.911
        47.250          40.250
 195852470.160 7                  37269485.837
        46.750
 116401709.720 7  90702633.11445  22150509.296    22150509.113    22150510.122
        45.000          35.500
 109749607.239 8  85519163.88747  20884656.662    20884655.486    20884654.356
        48.000          42.000
 111681080.554 8  87024225.23947  21252203.031    21252203.018    21252204.967
        48.000          42.250
 123391474.881 7  96149223.00246  23480612.270    23480611.890    23480615.665
        42.000          41.250
 107366963.027 8  83662575.00249  20431253.761    20431253.328    20431254.852
        51.000          56.750
 132064378.252 6 102907341.48545  25131018.314    25131017.532    25131030.440
        38.000          34.750
 142775684.411 5                  27169308.389
        35.000
 204668376.670 7                  38947095.485
        43.250
  31427888.410 7                   5980675.228
        44.000
 120945179.414 8                  23015102.770
        49.500
 126699032.266 8                  24110024.339
        48.750
 107993604.708 8                  20202437.262
        52.000
 191412535.234 8                  36424810.435
        48.750
 133539038.911 7                  25411636.627
        44.500
 103131038.011 6                  19286023.841
        41.750
 116377653.410 6                  21755577.957
        37.750
 120888029.532 7                  22590815.592
        45.500
                                  23586650.463
        24.750
 112085880.106 6                  21004843.460
        41.250
 128013358.512 6  99750680.11245  24360135.234    24360135.199    24360139.832
        36.250          34.250


 129855222.309 6 101185894.55543  24710626.804    24710625.821    24710627.486
        37.250          22.250
 130855978.344 6 101965691.38544  24901064.236    24901063.333    24901061.197
        39.000          25.500
 21 10 14 11 24 30.0000000  0 26G01G17S36G04G19G06G07G09G30E19S23S48
                                E26E07R05S25E13R20R19R21R04R06G03E08
                                G20G02
 130234734.068 6 101481615.72146  24782861.212    24782861.110    24782874.105
        36.000          36.000
 113210176.052 7  88215718.26846  21543181.753    21543181.472    21543182.224
        47.000          40.250
 195852499.993 7                  37269490.894
        46.500
 116478737.057 7  90762654.38145  22165167.032    22165166.849    22165167.784
        45.000          35.500
 109791301.017 8  85551652.51147  20892590.568    20892589.392    20892588.557
        48.250          42.250
 111621927.275 8  86978131.77547  21240946.698    21240946.690    21240948.542
        48.000          42.500
 123319737.180 7  96093323.60446  23466960.610    23466960.235    23466964.190
        42.000          41.500
 107382048.287 8  83674329.74949  20434124.424    20434123.991    20434125.491
        50.750          56.750
 131979814.191 6 102841447.29945  25114925.665    25114924.910    25114938.394
        37.000          33.750
 142700366.968 5                  27154975.727
        33.750
 204668528.889 7                  38947123.066
        43.000
  31427722.094 7                   5980643.766
        43.750
 120932433.442 8                  23012677.178
        49.250
 126740377.324 8                  24117891.975
        48.500
 108054763.851 8                  20213878.389
        52.250
 191413926.154 8                  36425093.605
        48.500
 133598000.040 7                  25422856.680
        44.750
 103115600.006 6                  19283137.026
        41.500
 116484870.074 6                  21775621.370
        37.750
 120768902.901 7                  22568554.624
        46.750
                                  23606066.579
        20.750
 112037817.418 6                  20995836.937
        41.500
 128082215.801 5  99804335.05545  24373238.441    24373238.401    24373242.706
        35.000          32.250


 129789831.054 6 101134940.38943  24698183.295    24698182.303    24698183.837
        37.750          22.000
 130769113.320 6 101898004.39644  24884534.364    24884533.457    24884531.723
        39.250          26.000
 21 10 14 11 25  0.0000000  0 26G01G17S36G04G19G06G07G09G30E19S23S48
                                E26E07R05S25E13R20R19R21R04R06G03E08
                                G20G02
 130322557.337 5 101550048.60046  24799574.731    24799574.624    24799586.959
        35.250          36.250
 113281166.389 7  88271035.33346  21556690.884    21556690.598    21556691.220
        46.750          40.000
 195852526.453 7                  37269496.247
        46.500
 116556079.712 7  90822921.34845  22179884.889    22179884.706    22179885.870
        44.500          35.250
 109833569.786 7  85584589.17746  20900634.122    20900632.946    20900631.937
        47.750          41.750
 111563008.399 7  86932220.96947  21229734.772    21229734.764    21229737.049
        47.750          42.500
 123248089.127 7  96037494.09846  23453326.322    23453325.942    23453329.453
        42.000          41.000
 107397652.430 8  83686488.81549  20437093.672    20437093.239    20437094.926
        50.750          56.500
 131895081.442 6 102775421.66745  25098801.602    25098800.878    25098814.264
        36.500          34.000
 142625204.165 5                  27140672.259
        33.500
 204668678.081 7                  38947152.681
        43.250
  31427553.563 7                   5980610.103
        44.000
 120919984.318 8                  23010308.361
        49.000
 126781960.243 8                  24125804.972
        48.500
 108116204.872 8                  20225372.440
        52.000
 191415313.424 8                  36425378.219
        48.750
 133657210.146 7                  25434124.014
        44.750
 103100897.441 6                  19280387.645
        41.750
 116592510.738 6                  21795743.244
        37.500
 120649973.056 7                  22546330.049
        47.250


 111990189.439 6                  20986911.493
        41.250
 128151037.821 5  99857962.51545  24386334.683    24386334.639    24386339.538
        34.000          30.000


 129724447.042 6 101083991.84443  24685741.309    24685740.312    24685741.153
        37.500          20.250
 130682201.432 6 101830280.88744  24867995.533    24867994.639    24867992.922
        38.750          25.250
 21 10 14 11 25 30.0000000  0 25G01G17S36G04G19G06G07G09G30E19S23S48
                                E26E07R05S25E13R20R19R21R04R06G03G20
                                G02
 130410543.386 5 101618608.39145  24816318.681    24816318.561    24816330.780
        33.750          33.250
 113352539.437 7  88326650.61846  21570272.841    21570272.551    21570273.004
        47.500          40.250
 195852557.262 7                  37269502.132
        46.750
 116633738.269 7  90883434.47145  22194662.894    22194662.711    22194663.769
        44.750          35.250
 109876414.303 8  85617974.47946  20908787.330    20908786.159    20908784.868
        48.500          41.750
 111504329.274 8  86886496.97747  21218568.407    21218568.394    21218570.509
        48.250          42.500
 123176537.050 7  95981739.36246  23439710.767    23439710.392    23439713.264
        42.750          40.750
 107413777.298 8  83699053.64149  20440162.222    20440161.789    20440163.483
        51.500          56.750
 131810185.276 6 102709268.72745  25082647.531    25082646.807    25082660.054
        36.750          34.750
 142550199.870 5                  27126399.380
        34.000
 204668826.008 7                  38947180.410
        43.250
  31427385.380 7                   5980578.587
        44.000
 120907836.276 8                  23007996.601
        49.250
 126823782.603 8                  24133763.549
        48.250
 108177928.110 8                  20236919.066
        51.750
 191416722.286 8                  36425663.535
        48.750
 133716671.865 7                  25445439.282
        44.750
 103086935.386 6                  19277776.403
        41.750
 116700575.415 6                  21815945.842
        37.750
 120531247.375 7                  22524142.779
        47.250


 111942998.808 6                  20978067.462
        41.250
 128219827.959 5  99911565.12344  24399425.161    24399425.121    24399429.574
        33.000          26.000
 129659073.324 6 101033051.33543  24673301.108    24673300.102    24673301.041
        37.250          21.250
 130595247.231 6 101762524.40644  24851448.303    24851447.405    24851446.000
        38.500          24.750
 21 10 14 11 26  0.0000000  0 25G01G17S36G04G19G06G07G09G30E19S23S48
                                E26E07R05S25E13R20R19R21R04R06G03G20
                                G02
 130498696.388 6 101687298.14046  24833094.032    24833093.925    24833106.667
        38.250          38.250
 113424297.314 7  88382565.77246  21583927.997    21583927.707    21583928.302
        47.750          40.000
 195852588.826 7                  37269507.734
        46.750
 116711714.998 7  90944195.51845  22209501.374    22209501.191    22209502.589
        45.500          35.250
 109919838.136 8  85651811.19946  20917050.499    20917049.323    20917048.176
        48.750          41.750
 111445897.084 8  86840965.40347  21207449.177    21207449.164    21207451.135
        48.750          42.250
 123105088.344 7  95926065.17446  23426114.189    23426113.800    23426116.960
        43.000          41.000
 107430426.550 8  83712027.07649  20443330.366    20443329.933    20443331.771
        52.000          56.500
 131725132.850 6 102642994.01345  25066462.148    25066461.429    25066474.909
        38.250          34.000
 142475359.964 5                  27112157.728
        33.000
 204668977.592 7                  38947209.753
        43.250
  31427222.008 7                   5980545.332
        44.000
 120895995.468 8                  23005743.252
        48.750
 126865847.921 8                  24141768.417
        48.000
 108239935.366 8                  20248519.157
        52.000
 191418134.485 8                  36425950.189
        48.750
 133776389.755 7                  25456803.060
        44.250
 103073720.789 6                  19275305.815
        41.750
 116809066.543 6                  21836227.976
        38.000
 120412734.858 7                  22501996.649
        47.250


 111896250.263 6                  20969307.350
        41.500
 128288591.175 5  99965146.76543  24412510.736    24412510.696    24412515.312
        32.250          23.500
 129593714.184 6 100982122.19043  24660863.672    24660862.675    24660863.098
        38.000          20.750
 130508257.132 6 101694739.96044  24834894.950    24834894.025    24834892.357
        38.750          24.750
 21 10 14 11 26 30.0000000  0 25G01G17S36G04G19G06G07G09G30R07E19S23
                                S48E26E07R05S25E13R20R19R21R06G03G20
                                G02
 130587010.085 5 101756113.15944  24849899.841    24849899.734    24849913.278
        30.500          28.500
 113496432.415 7  88438774.86346  21597654.994    21597654.699    21597655.396
        47.250          40.250
 195852621.862 7                  37269514.124
        46.750
 116790002.163 7  91005198.46645  22224398.986    22224398.803    22224399.996
        44.500          35.000
 109963834.016 8  85686093.66746  20925422.870    20925421.690    20925420.440
        48.250          41.750
 111387708.851 8  86795623.92747  21196376.346    21196376.338    21196378.257
        48.500          42.750
 123033740.573 7  95870469.63246  23412537.312    23412536.923    23412539.795
        42.750          41.250
 107447593.622 8  83725404.00649  20446597.260    20446596.827    20446598.394
        51.250          56.500
 131639921.087 6 102576595.15445  25050246.960    25050246.258    25050259.339
        37.250          34.500
 132655344.79217                  24781132.082
        43.250
 142400680.077 5                  27097946.366
        33.500
 204669128.394 7                  38947238.188
        43.250
  31427058.762 7                   5980513.038
        44.000
 120884457.814 8                  23003547.781
        49.000
 126908149.410 8                  24149818.005
        48.250
 108302218.511 8                  20260170.242
        51.750
 191421152.055 8                  36426239.087
        48.500
 133836358.114 7                  25468214.794
        44.250
 103061250.220 6                  19272973.930
        41.750
 116917975.765 6                  21856585.838
        37.500
 120294434.211 7                  22479888.185
        46.000
 111849937.811 6                  20960628.007
        41.500
 128357322.327 4 100018703.39243  24425588.914    24425588.865    24425594.186
        29.500          19.250
 129528364.014 6 100931200.02143  24648427.461    24648426.446    24648427.399
        37.000          21.000
 130421227.342 6 101626924.59444  24818333.353    24818332.432    24818331.180
        38.750          25.250
 21 10 14 11 27  0.0000000  0 26G01G17S36G04G19G06G07G09G30R07E19S23
                                S48E26E07R05S25E13R20R19R21R04R06G03
                                G20G02
                                  24866738.519
        23.750
 113568945.447 7  88495278.44846  21611453.862    21611453.567    21611454.305
        47.250          40.250
 195852655.985 7                  37269520.510
        46.750
 116868600.423 7  91066443.83245  22239355.708    22239355.521    22239356.523
        45.000          35.000
 110008403.058 8  85720822.75446  20933904.081    20933902.901    20933901.784
        48.250          41.750
 111329770.097 8  86750476.85147  21185350.812    21185350.804    21185352.975
        48.500          42.750
 122962499.830 7  95814957.48846  23398980.551    23398980.154    23398983.011
        42.750          41.500
 107465280.493 8  83739185.96949  20449963.023    20449962.590    20449963.911
        51.250          56.500
 131554555.463 6 102510076.42245  25034002.623    25034001.921    25034015.065
        36.500          34.250
 132562558.99516                  24763798.064
        37.000
 142326164.395 5                  27083766.599
        34.250
 204669281.117 7                  38947266.833
        43.500
  31426899.868 7                   5980482.403
        44.000
 120873227.789 8                  23001410.880
        49.000
 126950688.892 8                  24157913.113
        48.250
 108364777.122 8                  20271873.074
        52.000
 191422581.185 8                  36426531.115
        48.500
 133896579.786 7                  25479674.782
        44.500
 103049528.432 6                  19270781.252
        41.750
 117027302.605 6                  21877024.103
        37.250
 120176352.818 7                  22457821.532
        45.750
                                  23702837.647
        21.250
 111804064.131 6                  20952031.386
        41.250
 128426024.657 4 100072237.57642  24438662.931    24438662.896    24438667.708
        27.000          15.250
 129463026.292 6 100880287.54043  24635993.401    24635992.377    24635994.308
        36.750          20.500
 130334162.719 6 101559082.08244  24801765.712    24801764.787    24801763.309
        39.500          25.500
 21 10 14 11 27 30.0000000  0 26G01G17S36G04G19G06G07G09G30R07E19S23
                                S48E26E07R05S25E13R20R19R21R04R06G03
                                G20G02


 113641826.743 7  88552068.98746  21625322.509    21625322.214    21625323.329
        47.500          40.000
 195852686.817 7                  37269525.590
        46.750
 116947500.478 7  91127924.35645  22254370.226    22254370.039    22254371.105
        44.500          35.000
 110053536.735 8  85755991.81246  20942492.696    20942491.512    20942490.519
        48.250          41.500
 111272076.338 8  86705520.68447  21174372.064    21174372.056    21174374.333
        48.500          42.750
 122891362.048 7  95759525.57946  23385443.236    23385442.847    23385446.055
        43.000          41.500
 107483479.125 8  83753366.71049  20453426.050    20453425.617    20453427.018
        51.250          56.250
 131469031.571 6 102443434.34745  25017728.096    25017727.390    25017740.483
        37.250          34.000
 132469985.202 6                  24746502.431
        41.500
 142251806.958 5                  27069616.735
        33.750
 204669429.746 7                  38947296.918
        43.500
  31426737.473 7                   5980449.760
        44.000
 120862299.795 8                  22999331.374
        49.000
 126993458.140 8                  24166051.733
        48.250
 108427601.664 8                  20283625.765
        51.750
 191424013.652 8                  36426821.305
        48.750
 133957047.587 7                  25491181.378
        44.000
 103038550.765 6                  19268729.001
        41.500
 117137038.014 6                  21897538.058
        37.250
 120058487.979 7                  22435796.238
        47.750


 111758622.075 6                  20943515.613
        41.500
 128494691.558 3 100125744.17542  24451730.201    24451730.197    24451734.648
        23.750          12.000
 129397693.734 6 100829379.10343  24623561.225    24623560.170    24623561.994
        38.000          20.750
 130247057.590 6 101491208.00044  24785190.135    24785189.219    24785187.607
        39.750          26.000
 21 10 14 11 28  0.0000000  0 25G01G17S36G04G19G06G07G09G30R07E19S23
                                S48E26E07R05S25E13R20R19R21R06G03G20
                                G02


 113715080.977 7  88609150.13146  21639262.562    21639262.254    21639263.308
        47.250          40.250
 195852715.907 7                  37269531.501
        46.750
 117026706.880 7  91189643.58845  22269442.678    22269442.486    22269443.464
        44.500          34.750
 110099239.737 8  85791604.49846  20951189.692    20951188.516    20951187.391
        48.250          41.750
 111214636.911 8  86660762.69247  21163441.728    21163441.724    21163444.046
        48.750          43.000
 122820336.908 7  95704181.44647  23371927.259    23371926.857    23371930.115
        42.750          42.000
 107502195.206 8  83767950.66649  20456987.617    20456987.184    20456988.714
        51.250          56.500
 131383358.614 6 102376676.15045  25001423.863    25001423.135    25001436.929
        36.750          33.000
 132377641.489 7                  24729253.188
        46.000
 142177615.789 5                  27055498.439
        34.500
 204669581.232 7                  38947324.682
        43.250
  31426579.139 7                   5980417.180
        44.000
 120851682.077 8                  22997310.841
        49.000
 127036462.753 8                  24174235.343
        48.500
 108490696.304 8                  20295428.905
        52.000
 191425465.924 8                  36427116.146
        48.750
 134017768.133 7                  25502736.420
        44.250
 103028326.013 7                  19266816.410
        42.000
 117247185.862 6                  21918130.034
        37.500
 119940850.972 8                  22413813.318
        48.500
 111713618.192 6                  20935081.497
        41.750
 128563330.094 4 100179228.66841  24464790.940    24464791.002    24464796.186
        25.250          11.500
 129332372.874 6 100778479.76543  24611131.729    24611130.683    24611130.879
        36.250          20.000
 130159920.907 6 101423309.34644  24768608.419    24768607.489    24768606.268
        40.750          27.000
 21 10 14 11 28 30.0000000  0 25G01G17S36G04G19G06G07G09G30R07E19S23
                                S48E26E07R05S25E13R20R19R21R06G03G20
                                G02


 113788700.833 7  88666516.17446  21653271.905    21653271.597    21653272.669
        47.000          40.000
 195852741.664 7                  37269538.159
        46.750
 117106212.249 7  91251595.79645  22284571.803    22284571.602    22284572.672
        44.500          34.750
 110145505.470 8  85827655.67746  20959993.533    20959992.357    20959991.372
        48.250          41.500
 111157449.284 8  86616200.90747  21152559.358    21152559.354    21152561.382
        48.750          42.750
 122749422.206 7  95648923.37847  23358432.839    23358432.442    23358435.567
        43.000          42.500
 107521422.587 8  83782933.03349  20460646.290    20460645.857    20460647.468
        51.000          56.250
 131297534.083 6 102309799.87145  24985093.255    24985092.518    24985104.788
        36.000          33.750
 132285524.159 7                  24712044.871
        44.250
 142103586.958 5                  27041411.321
        35.000
 204669731.152 7                  38947353.001
        43.250
  31426420.797 7                   5980385.784
        44.000
 120841371.012 8                  22995348.808
        49.000
 127079696.432 8                  24182462.509
        48.250
 108554052.936 8                  20307281.149
        51.750
 191426914.931 8                  36427410.164
        48.750
 134078736.183 7                  25514338.188
        44.000
 103018850.820 7                  19265044.935
        42.000
 117357738.003 6                  21938796.483
        37.000
 119823440.825 7                  22391872.237
        47.750
 111669047.022 6                  20926729.188
        41.750
 128631935.873 4 100232687.57441  24477847.664    24477847.690    24477851.477
        24.750          10.500
 129267058.803 6 100727585.74443  24598702.323    24598701.273    24598702.228
        37.250          21.000
 130072749.330 6 101355383.45844  24752020.290    24752019.383    24752017.849
        41.000          26.500
 21 10 14 11 29  0.0000000  0 25G17S36G04G19G06G07G09G30R07E19S23S48
                                E26E07R05S25E13R20R19R21R04R06G03G20
                                G02
 113862687.192 7  88724167.81046  21667351.073    21667350.778    21667351.783
        47.000          39.750
 195852777.544 7                  37269543.597
        46.750
 117186017.840 7  91313781.93345  22299758.539    22299758.338    22299759.348
        44.500          35.250
 110192335.647 8  85864146.68146  20968905.087    20968903.907    20968902.856
        48.250          41.500
 111100519.526 8  86571840.06047  21141725.923    21141725.919    21141728.058
        48.500          42.750
 122678624.680 7  95593756.61347  23344960.548    23344960.155    23344963.275
        43.000          42.750
 107541163.662 8  83798315.68249  20464403.061    20464402.632    20464404.060
        51.000          56.250
 131211564.036 6 102242810.21845  24968733.912    24968733.179    24968745.388
        37.000          34.000
 132193638.101 6                  24694881.427
        40.750
 142029725.066 5                  27027355.970
        34.750
 204669883.394 7                  38947381.253
        43.250
  31426263.701 7                   5980353.785
        44.250
 120831371.508 8                  22993445.938
        49.250
 127123161.505 8                  24190733.524
        48.500
 108617672.378 8                  20319182.244
        52.000
 191428375.428 8                  36427707.272
        49.000
 134139955.020 7                  25525987.861
        44.250
 103010130.697 7                  19263413.926
        42.000
 117468695.598 6                  21959538.872
        37.000
 119706265.774 7                  22369974.698
        47.250


 111624911.453 6                  20918457.752
        41.250
                                  24490895.388
        21.250
 129201754.715 6 100676699.45543  24586275.628    24586274.622    24586275.955
        37.000          20.750
 129985547.982 6 101287434.37144  24735425.905    24735424.984    24735424.360
        40.500          27.250
 21 10 14 11 29 30.0000000  0 24G17S36G04G19G06G07G09G30R07E19S23S48
                                E26E07R05S25E13R20R19R21R06G03G20G02
 113937038.158 7  88782103.55146  21681499.502    21681499.207    21681500.336
        47.000          39.250
 195852810.312 7                  37269549.933
        46.750
 117266121.492 7  91376200.32345  22315001.651    22315001.455    22315002.595
        45.000          34.750
 110239728.637 8  85901076.24446  20977923.858    20977922.682    20977921.595
        48.250          41.500
 111043850.365 8  86527682.27147  21130942.144    21130942.140    21130944.294
        48.500          42.750
 122607947.539 7  95538683.65947  23331510.851    23331510.467    23331513.922
        43.750          43.250
 107561417.525 8  83814097.90749  20468257.172    20468256.739    20468258.406
        51.250          56.250
 131125451.206 6 102175709.29445  24952346.689    24952345.961    24952359.181
        38.000          34.250
 132101984.602 6                  24677756.634
        38.000
 141956031.470 5                  27013332.249
        35.250
 204670037.268 7                  38947411.816
        43.250
  31426112.477 7                   5980321.661
        44.000
 120821685.231 8                  22991602.764
        49.000
 127166856.951 8                  24199048.417
        48.500
 108681552.231 8                  20331132.520
        51.750
 191429847.621 8                  36428006.536
        48.750
 134201424.678 7                  25537685.290
        44.250
 103002167.786 6                  19261925.124
        41.750
 117580056.383 6                  21980356.428
        37.250
 119589330.379 7                  22348122.053
        46.500
 111581211.909 6                  20910269.524
        41.250
                                  24503940.837
        22.500
 129136460.631 6 100625821.00543  24573850.422    24573849.407    24573851.127
        36.750          20.750
 129898318.913 6 101219463.70344  24718826.705    24718825.784    24718825.366
        39.500          26.000
 21 10 14 11 30  0.0000000  0 25G01G17S36G04G19G06G07G09G30R07E19S23
                                S48E26E07R05S25E13R20R19R21R06G03G20
                                G02


 114011751.662 7  88840321.78946  21695717.084    21695716.785    21695717.829
        46.750          39.000
 195852844.601 7                  37269556.685
        47.000
 117346521.566 7  91438849.69845  22330301.617    22330301.416    22330301.876
        44.500          34.000
 110287683.242 8  85938443.42246  20987049.458    20987048.287    20987047.247
        48.000          41.000
 110987444.955 8  86483730.00847  21120208.801    21120208.793    21120210.758
        48.750          42.250
 122537394.631 7  95483707.50147  23318084.820    23318084.436    23318088.189
        43.500          43.250
 107582183.644 8  83830279.29249  20472208.931    20472208.502    20472210.082
        51.250          56.000
 131039198.655 6 102108499.53345  24935932.704    24935931.967    24935945.939
        38.250          34.500
 132010565.330 5                  24660679.674
        34.500
 141882507.883 5                  26999341.413
        35.000
 204670193.011 7                  38947440.712
        43.250
  31425965.943 7                   5980291.938
        44.000
 120812314.156 8                  22989819.421
        49.250
 127210782.163 8                  24207407.140
        48.250
 108745690.066 8                  20343131.144
        52.250
 191431334.281 8                  36428306.966
        48.750
 134263145.522 7                  25549430.361
        44.000
 102994964.854 7                  19260578.093
        42.000
 117691817.403 6                  22001249.622
        37.250
 119472639.526 7                  22326316.531
        47.750
 111537948.263 6                  20902161.562
        41.500
                                  24516982.087
        23.000
 129071177.344 6 100574950.96043  24561427.398    24561426.357    24561427.573
        37.500          21.000
 129811064.754 6 101151473.45944  24702222.864    24702221.939    24702221.118
        39.250          25.500
 21 10 14 11 30 30.0000000  0 24G17S36G04G19G06G07G09G30R07E19S23S48
                                E26E07R05S25E13R20R19R21R06G03G20G02
 114086813.016 7  88898811.08246  21710000.897    21710000.598    21710001.430
        46.750          38.750
 195852869.691 7                  37269562.677
        46.750
 117427203.191 7  91501718.46845  22345654.602    22345654.406    22345655.345
        44.750          34.250
 110336184.922 8  85976236.89646  20996279.011    20996277.835    20996276.904
        48.000          41.250
 110931293.281 8  86439975.45847  21109523.250    21109523.237    21109525.526
        48.500          42.750
 122466956.137 7  95428820.50447  23304680.851    23304680.467    23304683.999
        43.500          43.500
 107603448.256 8  83846849.11449  20476255.494    20476255.065    20476256.538
        51.250          56.250
 130952796.478 6 102041173.18845  24919491.580    24919490.829    24919503.724
        37.000          34.000
 131919369.246 6                  24643641.872
        39.500
 141809142.798 5                  26985380.024
        35.250
 204670339.438 7                  38947469.621
        43.250
  31425811.059 7                   5980259.524
        44.000
 120803247.088 8                  22988094.163
        49.000
 127254923.314 8                  24215806.861
        48.500
 108810070.287 8                  20355174.392
        51.750
 191432823.987 8                  36428608.470
        48.750
 134325104.748 7                  25561221.079
        44.250
 102988510.731 6                  19259371.154
        41.750
 117803963.703 6                  22022213.802
        37.500
 119356184.898 8                  22304554.600
        48.250
 111495107.530 7                  20894132.413
        42.000
                                  24530011.296
        21.000
 129005892.347 6 100524079.56343  24549003.890    24549002.844    24549004.445
        37.250          21.250
 129723774.484 6 101083455.09544  24685612.377    24685611.421    24685610.234
        39.000          26.000
 21 10 14 11 31  0.0000000  0 24G17S36G04G19G06G07G09G30R07E19S23S48
                                E26E07R05S25E13R20R19R21R06G03G20G02
 114162233.100 7  88957579.91046  21724353.082    21724352.792    21724353.349
        47.000          39.000
 195852902.560 7                  37269567.909
        46.750
 117508177.862 7  91564815.58445  22361063.851    22361063.646    22361064.301
        44.250          34.000
 110385245.516 8  86014465.88946  21005614.871    21005613.691    21005612.865
        48.250          41.500
 110875411.715 8  86396431.38347  21098889.255    21098889.242    21098891.681
        48.750          43.000
 122396649.110 7  95374035.95247  23291301.270    23291300.881    23291304.601
        43.250          43.500
 107625223.987 8  83863817.21249  20480399.207    20480398.774    20480400.315
        51.250          56.250
 130866261.051 6 101973743.02845  24903024.862    24903024.116    24903036.782
        37.500          34.500
 131828411.197 7                  24626649.955
        44.000
 141735951.182 5                  26971452.004
        34.750
 204670491.496 7                  38947497.578
        43.500
  31425661.371 7                   5980227.954
        44.000
 120794499.296 8                  22986429.509
        49.000
 127299293.023 8                  24224250.262
        48.250
 108874704.470 8                  20367265.882
        52.000
 191434333.505 8                  36428910.980
        48.750
 134387315.954 7                  25573059.441
        44.000
 102982821.317 6                  19258307.994
        41.750
 117916506.212 6                  22043252.050
        37.250
 119239984.989 8                  22282839.657
        48.250
 111452703.106 6                  20886186.680
        41.750


 128940619.337 6 100473217.53743  24536583.146    24536582.091    24536583.914
        37.250          21.750
 129636463.893 6 101015420.89644  24668997.554    24668996.589    24668996.037
        39.500          27.250
 21 10 14 11 31 30.0000000  0 24G17S36G04G19G06G07G09G30R07E19S23S48
                                E26E07R05S25E13R20R19R21R06G03G20G02
 114238005.988 7  89016623.64646  21738771.985    21738771.690    21738772.624
        46.750          38.750
 195852938.113 7                  37269573.901
        47.000
 117589439.551 7  91628136.34545  22376527.278    22376527.073    22376527.955
        44.750          34.250
 110434859.718 8  86053126.26346  21015056.377    21015055.197    21015054.253
        48.250          41.250
 110819799.040 8  86353096.83047  21088306.739    21088306.726    21088308.745
        48.250          42.500
 122326472.999 7  95319353.42047  23277947.518    23277947.134    23277950.292
        44.000          43.250
 107647505.920 8  83881179.75849  20484639.366    20484638.933    20484640.388
        51.000          56.000
 130779591.095 6 101906208.04645  24886532.347    24886531.583    24886543.654
        38.000          33.750
 131737689.620 7                  24609700.026
        43.500
 141662930.378 5                  26957556.936
        34.250
 204670644.965 7                  38947526.697
        43.500
  31425514.624 7                   5980196.460
        44.000
 120786068.337 8                  22984825.186
        48.750
 127343886.301 8                  24232736.068
        48.250
 108939586.046 8                  20379403.246
        51.750
 191435851.006 8                  36429215.953
        48.750
 134449775.100 7                  25584945.079
        44.000
 102977894.141 6                  19257385.560
        41.250
 118029438.514 6                  22064364.671
        37.000
 119124040.285 8                  22261172.431
        48.250
 111410731.146 7                  20878320.410
        42.250


 128875354.480 6 100422361.82843  24524163.324    24524162.256    24524163.450
        37.500          21.500
 129549130.915 6 100947369.26144  24652378.866    24652377.892    24652377.131
        39.750          27.500
 21 10 14 11 32  0.0000000  0 24G17S36G04G19G06G07G09G30R07E19S23S48
                                E26E07R05S25E13R20R19R21R06G03G20G02
 114314125.885 7  89075937.77446  21753257.345    21753257.050    21753257.832
        46.500          38.750
 195852967.255 7                  37269579.848
        46.500
 117670982.546 7  91691676.30145  22392044.311    22392044.097    22392045.545
        44.500          34.250
 110485021.957 8  86092213.67946  21024601.768    21024600.588    21024599.790
        48.250          41.500
 110764454.379 8  86309971.11847  21077774.992    21077774.979    21077777.140
        48.750          43.250
 122256426.905 7  95264772.19347  23264618.062    23264617.678    23264620.832
        44.000          43.750
 107670289.431 8  83898933.14349  20488974.975    20488974.542    20488976.074
        51.250          56.250
 130692785.911 6 101838567.71945  24870013.258    24870012.458    24870025.256
        38.000          35.000


 141590078.051 5                  26943693.129
        34.500
 204670796.897 7                  38947557.404
        43.000
  31425368.444 7                   5980164.985
        44.000
 120777952.238 8                  22983280.764
        49.250
 127388698.541 8                  24241263.640
        48.500
 109004708.704 8                  20391585.511
        51.500
 191437367.816 8                  36429522.429
        48.500
 134512478.571 7                  25596877.322
        44.000
 102973727.957 6                  19256606.526
        41.750
 118142753.896 6                  22085547.522
        36.500
 119008351.837 7                  22239552.916
        47.500
 111369187.418 7                  20870535.511
        42.000


 128810094.297 6 100371509.78643  24511744.593    24511743.507    24511745.669
        37.750          22.250
 129461774.008 6 100879298.97944  24635755.276    24635754.297    24635753.476
        40.500          28.500
 21 10 14 11 32 30.0000000  0 24G17S36G04G19G06G07G09G30R07E19S23S48
                                E26E07R05S25E13R20R19R21R06G03G20G02
 114390592.586 7  89135522.13846  21767808.465    21767808.166    21767808.935
        46.750          38.250
 195852995.561 7                  37269585.590
        46.500
 117752806.966 7  91755435.55845  22407614.884    22407614.665    22407615.645
        45.250          33.500
 110535732.740 8  86131728.53446  21034251.804    21034250.628    21034249.691
        48.500          41.250
 110709382.736 8  86267058.15047  21067294.932    21067294.919    21067297.065
        49.250          43.000
 122186516.337 7  95210296.56747  23251314.650    23251314.279    23251317.228
        44.000          43.500
 107693575.646 8  83917078.24249  20493406.186    20493405.757    20493407.148
        51.250          56.000
 130605850.413 6 101770825.85145  24853469.834    24853469.039    24853482.144
        38.250          35.000
 131556949.927 6                  24575939.142
        38.500
 141517397.687 5                  26929862.905
        33.750
 204670949.637 7                  38947584.788
        43.000
  31425225.038 7                   5980134.470
        43.500
 120770154.747 8                  22981796.905
        49.250
 127433730.933 8                  24249833.115
        48.250
 109070072.215 8                  20403813.141
        51.500
 191438891.474 8                  36429830.681
        48.500
 134575428.491 7                  25608856.453
        44.000
 102970326.377 7                  19255970.409
        42.000
 118256452.206 6                  22106802.928
        37.000
 118892926.496 7                  22217982.930
        47.500
 111328074.093 7                  20862830.723
        42.000


 128744841.231 6 100320663.29843  24499328.020    24499326.947    24499327.830
        38.250          22.500
 129374397.543 6 100811213.45044  24619128.268    24619127.289    24619125.926
        41.000          27.750
 21 10 14 11 33  0.0000000  0 23G17S36G04G19G06G07G09G30R07E19S23S48
                                E26E07R05S25E13R20R19R21R06G20G02
 114467400.216 7  89195372.16746  21782424.794    21782424.495    21782424.831
        47.000          38.500
 195853023.782 7                  37269591.810
        46.500
 117834906.887 7  91819409.49545  22423238.122    22423237.908    22423238.712
        44.500          34.000
 110586986.382 8  86171666.39646  21044005.103    21044003.932    21044003.020
        48.250          41.500
 110654583.029 8  86224357.08347  21056867.134    21056867.121    21056868.843
        49.250          43.250
 122116740.922 7  95155926.25647  23238036.619    23238036.248    23238039.205
        43.750          43.500
 107717359.731 8  83935611.29449  20497932.051    20497931.622    20497933.159
        51.250          56.250
 130518783.602 6 101702981.69446  24836901.508    24836900.713    24836914.130
        38.250          36.000
 131466932.814 6                  24559122.822
        40.750
 141444886.770 5                  26916064.174
        32.750
 204671100.130 7                  38947615.615
        43.250
  31425080.797 7                   5980102.055
        43.750
 120762673.620 8                  22980373.257
        49.250
 127478978.621 8                  24258443.490
        48.250
 109135670.015 8                  20416084.993
        52.000
 191440433.573 8                  36430138.619
        48.750
 134638620.979 7                  25620881.502
        44.000
 102967687.930 6                  19255478.014
        41.500
 118370526.799 6                  22128127.412
        36.750
 118777765.024 7                  22196461.429
        46.750
 111287386.950 7                  20855205.923
        42.250
 128679591.462 6 100269819.36343  24486910.582    24486909.518    24486911.758
        38.250          22.750
 129286999.664 6 100743111.24544  24602496.710    24602495.731    24602494.656
        41.000          27.750
 21 10 14 11 33 30.0000000  0 23G17S36G04G19G06G07G09G30R07E19S23S48
                                E26E07R05S25E13R20R19R21R06G20G02
 114544552.746 7  89255490.95146  21797106.457    21797106.162    21797106.563
        46.750          38.500
 195853063.323 7                  37269598.218
        46.500
 117917286.489 7  91883601.35945  22438914.507    22438914.293    22438915.559
        44.500          34.500
 110638787.444 8  86212030.81846  21053862.481    21053861.305    21053860.506
        48.250          41.500
 110600064.270 8  86181874.93347  21046492.470    21046492.457    21046494.661
        49.000          43.500
 122047109.767 7  95101668.35047  23224785.769    23224785.398    23224788.701
        43.750          43.500
 107741646.852 8  83954536.32049  20502553.719    20502553.286    20502554.844
        51.250          56.250
 130431594.519 6 101635042.26845  24820309.832    24820309.023    24820322.456
        38.250          35.500
 131377158.139 7                  24542353.080
        43.250
 141372552.763 5                  26902299.129
        33.000
 204671256.489 7                  38947643.992
        43.000
  31424942.264 7                   5980071.666
        43.500
 120755516.636 8                  22979011.441
        49.250
 127524446.814 8                  24267095.665
        48.250
 109201506.047 8                  20428400.708
        51.750
 191441983.527 8                  36430451.225
        48.750
 134702062.214 7                  25632954.322
        44.250
 102965820.432 7                  19255127.829
        42.000
 118484981.474 6                  22149525.505
        36.750
 118662878.616 8                  22174992.935
        48.000
 111247131.964 7                  20847662.149
        42.250
 128614351.279 6 100218982.87843  24474496.556    24474495.492    24474496.141
        38.250          21.750
 129199588.711 6 100674998.81044  24585863.040    24585862.061    24585860.475
        40.000          25.750
 21 10 14 11 34  0.0000000  0 23G17S36G04G19G06G07G09G30R07E19S23S48
                                E26E07R05S25E13R20R19R21R06G20G02
 114622040.463 7  89315870.91246  21811851.938    21811851.643    21811852.293
        46.750          38.500
 195853097.978 7                  37269604.688
        46.750
 117999936.337 7  91948003.79645  22454642.024    22454641.805    22454643.252
        44.750          33.750
 110691126.872 8  86252814.74946  21063822.512    21063821.332    21063820.598
        48.250          41.500
 110545821.905 8  86139608.15847  21036170.505    21036170.492    21036172.708
        48.750          43.250
 121977619.210 7  95047519.99547  23211562.299    23211561.924    23211564.946
        43.750          43.500
 107766428.650 8  83973846.80549  20507269.651    20507269.218    20507270.720
        51.250          56.250
 130344278.726 6 101567004.12146  24803694.140    24803693.336    24803706.832
        37.750          36.000
 131287619.828 7                  24525624.052
        42.250
 141300389.714 5                  26888567.269
        33.500
 204671410.139 7                  38947673.304
        43.250
  31424802.445 7                   5980041.103
        44.000
 120748678.087 8                  22977710.080
        49.250
 127570127.232 8                  24275788.371
        48.250
 109267570.308 8                  20440759.747
        52.000
 191443537.421 8                  36430764.168
        48.750
 134765744.841 7                  25645072.622
        44.250
 102964717.939 6                  19254921.891
        41.750
 118599806.047 6                  22170990.148
        36.750
 118548264.329 8                  22153574.473
        48.750
 111207301.649 7                  20840197.794
        42.250
 128549113.814 6 100168148.54343  24462081.436    24462080.363    24462082.215
        37.250          22.500
 129112159.324 6 100606872.01644  24569225.274    24569224.300    24569222.842
        39.000          24.250
 21 10 14 11 34 30.0000000  0 23G17S36G04G19G06G07G09G30R07E19S23S48
                                E26E07R05S25E13R20R19R21R06G20G02
 114699859.895 7  89376509.35146  21826660.418    21826660.123    21826660.961
        46.750          38.500
 195853123.685 7                  37269608.534
        46.500
 118082853.214 7  92012614.31345  22470421.006    22470420.792    22470421.619
        44.250          33.750
 110744001.370 8  86294015.61646  21073884.400    21073883.211    21073882.397
        48.000          41.500
 110491857.554 8  86097558.01947  21025901.458    21025901.445    21025903.555
        49.000          43.250
 121908271.223 7  94993482.73447  23198365.895    23198365.524    23198368.307
        44.500          43.750
 107791702.819 8  83993540.95349  20512078.983    20512078.550    20512080.290
        51.000          56.000
 130256837.782 6 101498868.47646  24787054.701    24787053.901    24787067.316
        38.500          36.250
                                  24508939.869
        38.000
 141228397.581 5                  26874867.432
        34.250
 204671560.068 7                  38947702.052
        43.250
  31424660.844 7                   5980009.708
        43.750
 120742158.292 8                  22976469.281
        49.250
 127616017.599 8                  24284521.176
        48.250
 109333859.298 8                  20453160.485
        52.000
 191445102.263 8                  36431078.116
        48.750
 134829667.531 7                  25657236.971
        44.000
 102964381.139 6                  19254859.045
        41.750
 118714996.201 6                  22192524.064
        36.500
 118433925.542 8                  22132208.032
        48.500
 111167894.363 6                  20832812.520
        41.750
 128483878.149 6 100117315.61443  24449668.152    24449667.120    24449668.257
        38.000          22.750
 129024712.551 6 100538731.68444  24552585.319    24552584.340    24552582.611
        40.000          26.000
 21 10 14 11 35  0.0000000  0 23G17S36G04G19G06G07G09G30R07E19S23S48
                                E26E07R05S25E13R20R19R21R06G20G02
 114778018.647 7  89437412.18846  21841533.526    21841533.231    21841534.208
        46.250          38.250
 195853154.516 7                  37269616.757
        46.750
 118166044.741 7  92077438.84745  22486251.581    22486251.371    22486252.455
        44.500          33.750
 110797419.133 8  86335639.80646  21084049.270    21084048.081    21084047.281
        48.250          41.500
 110438183.713 8  86055734.24447  21015687.667    21015687.659    21015689.703
        49.000          43.500
 121839078.823 7  94939566.71147  23185198.710    23185198.344    23185201.310
        44.500          43.750
 107817478.026 8  84013625.52449  20516983.949    20516983.516    20516985.119
        51.500          56.250
 130169284.305 6 101430645.13645  24770393.626    24770392.817    24770406.341
        37.750          35.500
 131109212.978 6                  24492306.435
        38.000
 141156587.451 5                  26861202.268
        34.250
 204671717.303 7                  38947731.444
        43.250
  31424526.158 7                   5979979.081
        44.000
 120735968.546 8                  22975291.510
        49.250
 127662126.698 8                  24293295.364
        48.250
 109400380.339 8                  20465604.129
        52.000
 191448280.892 8                  36431393.611
        49.000
 134893839.933 7                  25669448.482
        44.250
 102964821.797 7                  19254941.439
        42.000
 118830559.745 6                  22214128.234
        36.500
 118319877.119 8                  22110894.841
        48.250
 111128919.654 6                  20825508.947
        41.750
 128418653.946 6 100066491.62343  24437255.730    24437254.684    24437256.424
        37.500          22.000
 128937260.225 6 100470587.01644  24535943.252    24535942.269    24535941.302
        40.250          27.000
 21 10 14 11 35 30.0000000  0 23G17S36G04G19G06G07G09G30R07E19S23S48
                                E26E07R05S25E13R20R19R21R06G20G02
 114856503.217 7  89498568.90546  21856468.620    21856468.316    21856469.459
        46.250          38.000
 195853188.503 7                  37269622.253
        47.000
 118249497.711 7  92142467.09145  22502131.876    22502131.666    22502133.253
        44.500          33.500
 110851366.959 8  86377677.03446  21094315.220    21094314.040    21094313.084
        48.250          41.250
 110384791.902 8  86014130.23347  21005527.537    21005527.520    21005529.532
        49.250          43.250
 121770033.852 7  94885765.57047  23172059.912    23172059.532    23172062.199
        43.750          43.500
 107843741.969 8  84034090.92449  20521981.913    20521981.484    20521983.159
        51.250          56.250
 130081609.943 6 101362327.63446  24753709.274    24753708.456    24753722.248
        37.750          36.000
 131020396.814 7                  24475716.605
        43.250
 141084949.347 5                  26847569.763
        35.750
 204671870.724 7                  38947760.348
        43.500
  31424392.457 7                   5979950.159
        44.250
 120730099.223 8                  22974174.613
        49.500
 127708442.300 8                  24302109.004
        48.000
 109467119.574 8                  20478089.331
        52.000
 191449860.279 8                  36431710.850
        49.000
 134958250.789 7                  25681705.747
        44.250
 102966029.977 6                  19255166.689
        41.750
 118946482.410 6                  22235799.879
        36.750
 118206112.245 8                  22089635.195
        48.250
 111090365.836 6                  20818284.716
        41.750
 128353430.339 6 100015668.06943  24424844.483    24424843.451    24424844.568
        37.750          22.250
 128849793.355 6 100402431.04544  24519299.129    24519298.150    24519297.409
        41.500          29.000
 21 10 14 11 36  0.0000000  0 23G17S36G04G19G06G07G09G30R07E19S23S48
                                E26E07R05S25E13R20R19R21R06G20G02
 114935313.071 7  89559979.08746  21871465.886    21871465.591    21871466.534
        46.250          37.750
 195853223.407 7                  37269629.492
        46.500
 118333212.054 7  92207699.01045  22518062.437    22518062.232    22518063.417
        44.500          33.000
 110905845.046 8  86420127.45146  21104682.204    21104681.015    21104680.090
        48.000          41.000
 110331687.013 8  85972749.80347  20995421.828    20995421.815    20995424.041
        49.250          43.000
 121701141.785 7  94832083.57047  23158950.061    23158949.681    23158952.206
        44.250          43.250
 107870495.538 8  84054937.85249  20527073.003    20527072.570    20527074.155
        51.000          55.750
 129993819.697 6 101293919.81345  24737003.591    24737002.796    24737015.680
        37.750          35.250
 130931821.856 7                  24459168.583
        45.250
 141013486.618 6                  26833971.031
        36.000
 204672023.557 7                  38947791.426
        43.000
  31424259.793 7                   5979918.795
        44.000
 120724553.849 8                  22973119.363
        49.750
 127754965.433 8                  24310962.055
        48.500
 109534076.699 8                  20490615.230
        52.000
 191451452.478 8                  36432028.769
        48.750
 135022902.067 7                  25694008.275
        44.500
 102968009.249 7                  19255537.685
        42.000
 119062763.461 6                  22257535.713
        36.750
 118092637.779 8                  22068429.502
        48.500
 111052234.692 6                  20811137.707
        41.500
 128288209.546 6  99964846.72043  24412432.660    24412431.601    24412433.298
        38.500          22.000
 128762316.064 6 100334266.94345  24502652.405    24502651.426    24502651.338
        41.750          30.000
 21 10 14 11 36 30.0000000  0 23G17S36G04G19G06G07G09G30R07E19S23S48
                                E26E07R05S25E13R20R19R21R06G20G02
 115014449.794 7  89621643.97546  21886525.028    21886524.733    21886525.815
        46.250          37.500
 195853257.826 7                  37269635.426
        46.500
 118417189.500 7  92273135.94845  22534042.794    22534042.589    22534043.950
        44.250          33.250
 110960855.165 8  86462992.44146  21115150.145    21115148.961    21115148.306
        48.250          41.250
 110278875.623 8  85931598.06647  20985372.208    20985372.200    20985374.060
        49.000          42.750
 121632409.557 7  94778526.12347  23145870.585    23145870.201    23145872.889
        44.000          43.500
 107897741.387 8  84076168.37449  20532257.555    20532257.126    20532258.765
        51.250          56.000
 129905920.169 6 101225426.87646  24720276.575    24720275.771    24720289.290
        38.500          36.250
 130843493.514 6                  24442668.448
        41.750
 140942204.238 6                  26820406.253
        36.000
 204672180.345 7                  38947818.998
        43.250
  31424131.028 7                   5979888.817
        43.750
 120719337.787 8                  22972126.806
        49.250
 127801698.898 8                  24319855.027
        48.000
 109601252.750 8                  20503181.331
        51.500
 191453048.830 8                  36432348.155
        48.500
 135087797.376 7                  25706357.740
        44.500
 102970765.381 6                  19256052.473
        41.750
 119179404.254 6                  22279341.620
        36.500
 117979462.393 7                  22047280.110
        47.750
 111014529.617 6                  20804071.856
        41.250
 128222995.501 6  99914030.61543  24400023.238    24400022.206    24400023.727
        37.500          22.500
 128674834.111 7 100266099.21445  24486005.398    24486004.433    24486003.992
        42.000          30.250
 21 10 14 11 37  0.0000000  0 23G17S36G04G19G06G07G09G30R07E19S23S48
                                E26E07R05S25E13R20R19R21R06G20G02
 115093904.825 7  89683556.89346  21901644.985    21901644.695    21901645.721
        46.750          37.750
 195853288.892 7                  37269641.561
        46.500
 118501421.455 7  92338771.19945  22550071.998    22550071.788    22550072.758
        43.500          33.000
 111016389.111 8  86506265.60746  21125717.951    21125716.767    21125715.890
        48.000          41.250
 110226353.969 8  85890672.10147  20975377.820    20975377.812    20975379.711
        49.000          43.250
 121563833.906 7  94725090.68647  23132820.974    23132820.585    23132823.541
        44.000          44.000
 107925471.833 8  84097776.50449  20537534.606    20537534.177    20537535.664
        50.750          56.000
 129817907.729 6 101156845.94546  24703528.455    24703527.642    24703540.752
        38.250          36.250
 130755406.564 5                  24426209.099
        35.000
 140871096.938 6                  26806874.882
        36.000
 204672334.988 7                  38947849.785
        43.250
  31423999.165 7                   5979858.048
        43.750
 120714445.988 8                  22971195.912
        49.000
 127848635.119 8                  24328786.777
        48.000
 109668638.999 8                  20515787.689
        51.500
 191454659.309 8                  36432670.586
        48.500
 135152930.097 7                  25718752.303
        44.250
 102974293.086 6                  19256713.279
        41.750
 119296395.428 6                  22301211.232
        36.000
 117866583.917 8                  22026186.573
        48.500
 110977243.662 6                  20797084.304
        41.250
 128157782.053 6  99863214.97243  24387613.270    24387612.229    24387614.160
        38.750          23.000
 128587343.375 6 100197924.65344  24469356.445    24469355.489    24469354.831
        41.500          29.500
 21 10 14 11 37 30.0000000  0 23G17S36G04G19G06G07G09G30R07E19S23S48
                                E26E07R05S25E13R20R19R21R06G20G02
 115173680.480 7  89745719.64546  21916825.601    21916825.302    21916826.692
        46.250          38.000
 195853319.726 7                  37269647.884
        46.750
 118585910.732 7  92404606.95945  22566149.634    22566149.415    22566150.566
        43.250          32.250
 111072449.796 8  86549949.22046  21136386.176    21136384.987    21136383.733
        48.000          41.000
 110174129.676 8  85849977.83747  20965439.898    20965439.890    20965441.928
        49.250          43.250
 121495422.906 7  94671783.54847  23119802.791    23119802.402    23119805.369
        44.000          44.250
 107953690.571 8  84119765.12549  20542904.463    20542904.030    20542905.519
        51.000          55.500
 129729790.168 6 101088183.13846  24686759.790    24686758.981    24686772.198
        38.000          36.500
 130667567.548 5                  24409803.280
        34.250
 140800170.836 6                  26793378.196
        36.500
 204672491.529 7                  38947879.566
        43.250
  31423872.601 7                   5979829.166
        44.000
 120709884.863 8                  22970327.977
        49.250
 127895778.040 8                  24337757.784
        48.000
 109736238.019 8                  20528433.543
        51.750
 191456277.432 8                  36432994.322
        48.750
 135218305.005 7                  25731192.576
        44.250
 102978598.725 6                  19257517.736
        41.750
 119413738.745 6                  22323147.380
        36.000
 117754012.227 8                  22005149.494
        48.250
 110940381.318 6                  20790176.804
        41.750
 128092574.129 6  99812403.63743  24375205.217    24375204.180    24375205.698
        38.250          22.500
 128499850.742 6 100129748.61444  24452707.036    24452706.075    24452705.169
        41.000          28.250
 21 10 14 11 38  0.0000000  0 23G17S36G04G19G06G07G09G30R07E19S23S48
                                E26E07R05S25E13R20R19R21R06G20G02
 115253770.372 7  89808127.25046  21932066.631    21932066.332    21932067.448
        46.500          38.000
 195853352.560 7                  37269655.647
        46.750
 118670650.911 7  92470638.22945  22582275.246    22582275.032    22582275.774
        43.750          32.500
 111129030.566 8  86594038.09546  21147153.049    21147151.856    21147150.819
        48.000          40.750
 110122201.174 8  85809514.05647  20955558.066    20955558.053    20955559.920
        49.000          43.250
 121427175.320 7  94618603.74447  23106815.439    23106815.050    23106818.265
        43.750          44.250
 107982392.068 8  84142129.91849  20548366.194    20548365.761    20548367.271
        51.250          55.750
 129641565.935 6 101019437.22046  24669970.495    24669969.700    24669983.232
        38.250          36.000
 130579972.754 6                  24393440.120
        39.500
 140729422.790 6                  26779915.446
        36.250
 204672647.096 7                  38947909.208
        43.250
  31423747.014 7                   5979799.510
        44.000
 120705651.492 8                  22969522.457
        48.500
 127943122.206 7                  24346766.985
        47.500
 109804042.932 8                  20541117.643
        52.000
 191457905.845 8                  36433318.859
        48.750
 135283917.560 7                  25743678.631
        43.250
 102983679.108 6                  19258467.838
        41.750
 119531427.307 5                  22345148.640
        35.750
 117641747.717 8                  21984170.243
        49.000
 110903937.767 6                  20783347.839
        41.500
 128027367.622 6  99761593.40243  24362796.537    24362795.509    24362796.373
        38.000          22.000
 128412354.191 6 100061569.52744  24436056.483    24436055.536    24436054.823
        40.000          26.250
 21 10 14 11 38 30.0000000  0 23G17S36G04G19G06G07G09G30R07E19S23S48
                                E26E07R05S25E13R20R19R21R06G20G02
 115334173.046 7  89870778.58046  21947366.902    21947366.598    21947367.516
        46.250          37.750
 195853390.489 7                  37269660.843
        46.500
 118755641.175 7  92536864.38745  22598448.323    22598448.122    22598449.101
        43.500          32.500
 111186131.012 7  86638531.91446  21158019.060    21158017.867    21158016.826
        47.750          40.750
 110070572.531 8  85769283.95247  20945733.535    20945733.522    20945735.586
        49.250          43.500
 121359095.651 7  94565554.78247  23093860.448    23093860.059    23093862.647
        43.250          43.750
 108011576.354 8  84164870.90949  20553919.732    20553919.303    20553920.816
        50.750          55.500
 129553239.256 6 100950611.49946  24653163.008    24653162.217    24653175.051
        38.500          36.500
 130492625.383 7                  24377123.179
        42.250
 140658855.302 6                  26766486.969
        36.500
 204672804.929 7                  38947940.724
        43.000
  31423624.249 7                   5979768.218
        43.000
 120701748.658 8                  22968779.844
        49.250
 127990667.869 8                  24355814.763
        48.250
 109872052.569 8                  20553840.583
        51.500
 191459542.000 8                  36433646.137
        48.500
 135349768.876 7                  25756209.908
        43.500
 102989537.147 6                  19259563.455
        41.500
 119649459.573 5                  22367213.438
        35.500
 117529796.241 8                  21963249.666
        48.750
 110867913.744 6                  20776597.290
        41.750
 127962164.074 6  99710785.48243  24350388.528    24350387.518    24350389.418
        38.250          22.000
 128324856.820 6  99993389.78044  24419406.378    24419405.435    24419403.713
        39.750          25.000
 21 10 14 11 39  0.0000000  0 23G17S36G04G19G06G07G09G30R07E19S23S48
                                E26E07R05S25E13R20R19R21R06G20G02
 115414884.558 7  89933670.56446  21962725.706    21962725.402    21962726.502
        46.750          37.750
 195853428.248 7                  37269668.302
        46.500
 118840877.701 7  92603282.42245  22614668.663    22614668.462    22614669.438
        43.250          32.500
 111243747.470 8  86683427.82246  21168983.033    21168981.840    21168981.079
        48.000          40.750
 110019244.744 8  85729288.27047  20935966.133    20935966.125    20935968.561
        49.500          43.500
 121291185.601 7  94512637.99547  23080937.565    23080937.176    23080939.546
        44.000          43.500
 108041240.495 8  84187985.81549  20559564.498    20559564.069    20559565.766
        51.250          55.500
 129464811.257 6 100881706.81445  24636335.506    24636334.711    24636347.124
        38.000          35.750
 130405524.508 7                  24360852.553
        42.250
 140588467.795 6                  26753092.174
        36.500
 204672961.293 7                  38947969.432
        43.250
  31423501.340 7                   5979738.262
        43.500
 120698176.095 8                  22968099.939
        49.250
 128038412.279 8                  24364900.217
        48.000
 109940262.724 8                  20566600.700
        51.250
 191461185.904 8                  36433974.144
        48.750
 135415857.086 7                  25768785.936
        43.250
 102996172.298 6                  19260804.270
        41.750
 119767830.808 6                  22389342.569
        36.000
 117418160.860 8                  21942387.692
        48.250
 110832307.158 6                  20769923.804
        41.750
 127896961.943 6  99659978.65343  24337981.174    24337980.173    24337980.974
        38.250          21.500
 128237359.281 6  99925209.91044  24402756.087    24402755.131    24402753.953
        40.250          25.500
 21 10 14 11 39 30.0000000  0 23G17S36G04G19G06G07G09G30R07E19S23S48
                                E26E07R05S25E13R20R19R21R06G20G02
 115495901.845 7  89996800.81046  21978142.919    21978142.611    21978143.830
        46.750          38.250
 195853463.140 7                  37269675.027
        46.750
 118926357.883 7  92669890.32145  22630934.683    22630934.487    22630935.541
        43.750          32.750
 111301877.109 8  86728723.60946  21180044.746    21180043.557    21180042.948
        48.250          41.250
 109968220.021 8  85689528.74047  20926256.503    20926256.495    20926258.522
        49.500          43.500
 121223447.940 7  94459855.52747  23068047.563    23068047.174    23068049.597
        44.000          44.250
 108071382.639 8  84211473.20149  20565300.434    20565300.005    20565301.659
        51.000          56.000
 129376284.319 6 100812725.05046  24619489.193    24619488.402    24619500.988
        38.250          36.750
 130318671.004 6                  24344623.857
        41.250
 140518260.932 6                  26739732.277
        36.250
 204673116.722 7                  38947998.905
        43.750
  31423378.449 7                   5979710.502
        43.500
 120694934.715 8                  22967483.198
        49.250
 128086353.883 8                  24374023.155
        48.000
 110008670.415 8                  20579397.937
        52.000
 191462839.059 8                  36434304.754
        49.000
 135482181.433 7                  25781407.120
        42.750
 103003585.349 7                  19262190.632
        42.000
 119886537.805 6                  22411533.597
        36.000
 117306845.793 8                  21921585.714
        48.250
 110797117.109 7                  20763329.448
        42.000
 127831760.615 6  99609172.44143  24325573.695    24325572.676    24325574.001
        38.000          22.250
 128149863.010 6  99857031.02044  24386106.995    24386106.030    24386104.130
        41.750          27.750
 21 10 14 11 40  0.0000000  0 23G17S36G04G19G06G07G09G30R07E19S23S48
                                E26E07R05S25E13R20R19R21R06G20G02
 115577221.657 7  90060166.79046  21993617.491    21993617.187    21993618.564
        46.250          37.500
 195853491.103 7                  37269680.388
        46.500
 119012078.599 7  92736685.66345  22647246.847    22647246.660    22647247.386
        43.750          32.250
 111360516.772 8  86774416.81246  21191203.554    21191202.365    21191201.837
        48.000          41.000
 109917500.143 8  85650006.75647  20916604.795    20916604.787    20916606.757
        49.250          43.500
 121155884.477 7  94407208.77047  23055190.242    23055189.853    23055192.480
        44.250          44.000
 108102000.516 8  84235331.28349  20571126.837    20571126.408    20571128.072
        51.000          55.500
 129287660.324 6 100743667.67246  24602624.805    24602624.023    24602636.339
        38.750          37.000
 130232065.258 6                  24328445.187
        39.250
 140448234.899 5                  26726406.446
        35.750
 204673271.451 7                  38948027.756
        43.000
  31423255.703 7                   5979679.626
        43.500
 120692024.906 8                  22966929.488
        49.000
 128134490.567 7                  24383183.323
        47.750
 110077272.328 8                  20592231.273
        51.750
 191464505.130 8                  36434636.360
        48.500
 135548740.704 7                  25794073.163
        42.750
 103011776.467 6                  19263722.755
        41.500
 120005576.533 5                  22433786.849
        35.750
 117195854.731 8                  21900844.548
        48.750
 110762341.746 6                  20756812.836
        41.750
 127766559.277 6  99558366.22443  24313166.333    24313165.305    24313166.139
        38.250          21.250
 128062369.413 6  99788854.22744  24369457.017    24369456.083    24369454.656
        41.750          28.500
 21 10 14 11 40 30.0000000  0 23G17S36G04G19G06G07G09G30R07E19S23S48
                                E26E07R05S25E13R20R19R21R06G20G02
 115658846.610 7  90123770.53846  22009150.380    22009150.067    22009151.232
        46.000          37.500
 195853526.190 7                  37269687.485
        46.250
 119098042.933 7  92803670.82745  22663605.324    22663605.141    22663606.186
        43.500          32.500
 111419669.495 7  86820509.79546  21202459.949    21202458.756    21202458.284
        47.750          41.000
 109867092.906 8  85610728.39447  20907012.853    20907012.845    20907014.885
        48.750          43.750
 121088503.643 7  94354704.33647  23042367.793    23042367.404    23042370.089
        44.000          44.000
 108133097.944 8  84259563.04049  20577044.569    20577044.145    20577045.620
        50.500          55.500
 129198947.311 6 100674540.93046  24585742.732    24585741.932    24585754.359
        38.750          36.500
 130145713.390 7                  24312316.225
        43.500
 140378395.942 6                  26713116.488
        36.000
 204673430.845 7                  38948059.325
        42.750
  31423138.364 7                   5979649.881
        43.500
 120689453.222 8                  22966440.082
        49.250
 128182826.442 7                  24392381.356
        47.750
 110146071.118 8                  20605101.861
        51.750
 191466181.020 8                  36434969.559
        48.250
 135615539.809 7                  25806784.739
        43.250
 103020752.115 7                  19265400.769
        42.000
 120124949.827 5                  22456102.800
        35.250
 117085197.734 8                  21880165.378
        49.750
 110727985.786 7                  20750374.722
        42.250
 127701363.383 6  99507564.26143  24300759.579    24300758.551    24300759.787
        39.500          22.250
 127974885.708 6  99720685.14044  24352809.705    24352808.775    24352807.042
        41.750          29.500
 21 10 14 11 41  0.0000000  0 23G17S36G04G19G06G07G09G30R07E19S23S48
                                E26E07R05S25E13R20R19R21R06G20G02
 115740763.427 7  90187601.72046  22024738.699    22024738.391    22024739.617
        46.250          37.500
 195853549.437 7                  37269693.039
        46.500
 119184237.715 7  92870835.56445  22680007.621    22680007.429    22680008.608
        44.000          32.750
 111479321.940 7  86866992.16946  21213811.396    21213810.198    21213809.798
        47.750          41.000
 109816989.987 8  85571687.16147  20897478.400    20897478.387    20897480.666
        49.250          44.000
 121021297.384 7  94302335.93347  23029579.111    23029578.718    23029581.056
        44.250          44.250
 108164662.498 8  84284158.79449  20583051.084    20583050.660    20583051.850
        51.000          55.500
 129110137.010 6 100605338.39246  24568842.311    24568841.520    24568853.826
        39.000          37.000
 130059605.762 7                  24296230.340
        42.500
 140308734.132 5                  26699860.617
        35.500
 204673583.324 7                  38948089.898
        43.250
  31423017.136 7                   5979620.399
        44.000
 120687209.956 8                  22966013.207
        49.250
 128231349.393 8                  24401614.931
        48.000
 110215053.387 8                  20618005.953
        51.250
 191467859.397 8                  36435303.227
        48.750
 135682567.438 7                  25819539.724
        42.750
 103030501.920 6                  19267223.752
        41.750
 120244643.140 6                  22478478.904
        36.000
 116974867.884 8                  21859547.509
        48.750
 110694037.488 7                  20744012.096
        42.000
 127636162.044 6  99456758.05843  24288352.265    24288351.224    24288352.229
        38.250          21.250
 127887402.985 6  99652516.82144  24336161.823    24336160.893    24336159.746
        41.250          29.250
 21 10 14 11 41 30.0000000  0 23G17S36G04G19G06G07G09G30R07E19S23S48
                                E26E07R05S25E13R20R19R21R06G20G02
 115822981.315 7  90251667.49346  22040384.401    22040384.102    22040385.346
        46.500          37.500
 195853587.772 7                  37269699.853
        46.750
 119270672.616 7  92938187.41045  22696455.675    22696455.488    22696456.787
        44.000          32.750
 111539484.414 8  86913871.97446  21225260.194    21225258.996    21225258.144
        48.000          41.000
 109767206.000 8  85532894.44347  20888004.756    20888004.748    20888006.818
        49.250          44.000
 120954280.953 7  94250115.45047  23016825.911    23016825.522    23016828.212
        44.750          44.500
 108196704.758 8  84309126.78249  20589148.516    20589148.092    20589149.569
        51.250          56.000
 129021244.339 6 100536071.68146  24551926.382    24551925.591    24551937.865
        38.750          37.250
 129973755.193 7                  24280194.804
        43.250
 140239262.479 5                  26686640.631
        34.750
 204673742.399 7                  38948118.977
        43.250
  31422903.953 7                   5979590.882
        44.000
 120685308.375 8                  22965651.355
        49.000
 128280070.149 7                  24410886.137
        47.500
 110284228.383 8                  20630946.712
        51.000
 191469553.452 8                  36435640.561
        48.500
 135749835.218 7                  25832340.569
        42.500
 103041039.246 6                  19269194.285
        41.750
 120364665.734 5                  22500914.473
        35.250
 116864882.472 8                  21838994.208
        49.000
 110660508.226 7                  20737728.802
        42.250
 127570967.298 6  99405956.96743  24275946.462    24275945.421    24275945.985
        39.500          22.000
 127799935.268 6  99584360.20544  24319517.202    24319516.277    24319515.566
        41.000          29.750
 21 10 14 11 42  0.0000000  0 24G01G17S36G04G19G06G07G09G30R07E19S23
                                S48E26E07R05S25E13R20R19R21R06G20G02
                                  25385158.478
        20.000
 115905487.450 7  90315957.87546  22056084.599    22056084.304    22056086.058
        46.500          37.500
 195853624.169 7                  37269706.950
        46.750
 119357335.014 7  93005716.51945  22712946.883    22712946.687    22712948.306
        43.750          32.250
 111600143.942 8  86961139.09246  21236803.269    21236802.067    21236801.070
        48.250          40.750
 109717733.079 8  85494344.11947  20878590.529    20878590.516    20878592.604
        49.500          43.750
 120887446.871 7  94198037.04747  23004107.812    23004107.428    23004110.014
        44.750          44.250
 108229212.753 8  84334457.68049  20595334.568    20595334.144    20595335.791
        51.250          55.750
 128932261.549 6 100466734.76046  24534993.502    24534992.702    24535004.962
        38.750          37.000
 129888152.155 7                  24264201.258
        43.500
 140169971.564 5                  26673454.705
        35.500
 204673897.400 7                  38948148.521
        43.250
  31422788.475 7                   5979562.299
        44.000
 120683739.301 8                  22965352.776
        49.000
 128328977.144 7                  24420192.948
        47.750
 110353583.290 8                  20643920.799
        51.000
 191471245.387 8                  36435977.780
        48.500
 135817332.307 7                  25845184.993
        42.750
 103052354.464 7                  19271310.195
        42.250
 120485003.850 5                  22523413.442
        35.500
 116755235.134 8                  21818503.721
        48.500
 110627386.927 7                  20731522.244
        42.000
 127505768.941 6  99355153.07743  24263539.500    24263538.463    24263539.821
        38.750          22.000
 127712474.260 6  99516208.80844  24302873.941    24302873.025    24302872.089
        40.750          28.500
 21 10 14 11 42 30.0000000  0 24G01G17S36G04G19G06G07G09G30R07E19S23
                                S48E26E07R05S25E13R20R19R21R06G20G02
                                  25402844.201
        20.500
 115988285.355 7  90380475.60346  22071840.769    22071840.465    22071842.142
        46.250          37.500
 195853662.947 7                  37269713.434
        46.500
 119444229.122 7  93073426.18545  22729482.311    22729482.110    22729483.646
        44.000          32.000
 111661304.748 7  87008796.81546  21248441.730    21248440.532    21248439.675
        47.750          40.500
 109668580.219 8  85456043.19447  20869236.872    20869236.859    20869239.419
        49.250          43.750
 120820804.800 7  94146108.26047  22991425.817    22991425.424    22991428.434
        45.000          44.500
 108262191.408 8  84360155.32649  20601610.220    20601609.796    20601611.445
        51.000          55.750
 128843197.881 6 100397334.81546  24518044.662    24518043.862    24518056.242
        39.000          36.750
 129802804.633 6                  24248256.984
        41.750
 140100868.753 5                  26660304.961
        35.000
 204674055.566 7                  38948178.297
        43.250
  31422677.030 7                   5979533.086
        43.750
 120682510.398 8                  22965118.963
        49.000
 128378075.590 8                  24429536.061
        48.000
 110423121.998 8                  20656929.413
        51.000
 191472954.795 8                  36436316.738
        48.500
 135885064.744 7                  25858074.099
        42.750
 103064454.776 7                  19273573.622
        42.000
 120605661.108 5                  22545968.639
        35.500
 116645937.077 8                  21798079.023
        48.250
 110594679.107 6                  20725392.516
        41.750
 127440573.395 6  99304351.36443  24251132.918    24251131.890    24251133.072
        38.000          21.500
 127625028.632 6  99448069.39144  24286233.477    24286232.565    24286231.594
        40.500          28.000
 21 10 14 11 43  0.0000000  0 23G17S36G04G19G06G07G09G30R07E19S23S48
                                E26E07R05S25E13R20R19R21R06G20G02
 116071369.481 7  90445216.36246  22087651.283    22087650.979    22087652.471
        46.000          37.250
 195853698.208 7                  37269718.491
        46.750
 119531349.553 7  93141312.21245  22746060.518    22746060.304    22746061.815
        44.000          31.750
 111722961.172 7  87056840.72646  21260174.558    21260173.365    21260172.632
        47.750          40.500
 109619746.815 8  85417991.20047  20859944.068    20859944.055    20859946.350
        49.500          43.750
 120754354.278 7  94094328.72847  22978780.936    22978780.547    22978783.196
        44.000          44.000
 108295636.018 8  84386216.05449  20607974.482    20607974.058    20607975.722
        51.250          55.750
 128754052.866 6 100327871.49646  24501080.852    24501080.070    24501092.091
        39.500          37.750
 129717710.197 7                  24232360.575
        42.000
 140031951.866 5                  26647189.956
        35.500
 204674214.322 7                  38948209.675
        43.500
  31422567.381 7                   5979504.602
        44.000
 120681619.644 8                  22964949.381
        49.250
 128427361.064 7                  24438914.867
        47.750
 110492838.705 8                  20669971.629
        51.500
 191474676.215 8                  36436658.365
        48.750
 135953028.905 7                  25871007.403
        43.000
 103077337.797 7                  19275982.658
        42.000
 120726631.241 5                  22568582.993
        35.250
 116536989.833 8                  21777719.688
        48.250
 110562380.878 7                  20719339.367
        42.000
 127375377.200 6  99253549.16043  24238726.955    24238725.945    24238726.363
        38.250          22.000
 127537596.590 6  99379940.55544  24269595.961    24269595.040    24269593.701
        41.000          28.250
 21 10 14 11 43 30.0000000  0 23G17S36G04G19G06G07G09G30R07E19S23S48
                                E26E07R05S25E13R20R19R21R06G20G02
 116154740.358 7  90510180.55646  22103516.323    22103516.019    22103517.565
        46.000          37.000
 195853737.073 7                  37269726.670
        46.750
 119618697.063 7  93209375.17145  22762682.582    22762682.377    22762683.615
        43.250          31.500
 111785113.704 7  87105271.21446  21272001.867    21272000.674    21271999.899
        47.750          40.500
 109571238.511 8  85380192.51947  20850713.532    20850713.519    20850715.584
        49.250          43.750
 120688101.547 7  94042703.31747  22966173.414    22966173.021    22966175.577
        44.250          43.500
 108329548.119 8  84412641.06949  20614427.875    20614427.451    20614428.837
        50.750          55.250
 128664832.407 6 100258349.39946  24484102.858    24484102.080    24484113.479
        39.750          37.500
 129632873.052 7                  24216513.089
        43.500
 139963224.885 5                  26634112.178
        35.750
 204674376.480 7                  38948238.543
        43.500
  31422462.790 7                   5979475.595
        44.000
 120681071.352 8                  22964845.223
        49.500
 128476835.460 7                  24448329.501
        47.750
 110562734.403 8                  20683047.072
        51.250
 191476403.698 8                  36437000.655
        48.750
 136021227.466 7                  25883985.290
        43.250
 103091007.347 6                  19278538.819
        41.750
 120847914.471 5                  22591254.662
        35.250
 116428400.903 8                  21757427.291
        48.250
 110530494.564 6                  20713364.585
        41.500
 127310183.743 6  99202749.08543  24226320.156    24226319.132    24226320.078
        38.750          22.000
 127450183.662 7  99311826.61144  24252962.042    24252961.126    24252959.811
        42.000          28.250
 21 10 14 11 44  0.0000000  0 23G17S36G04G19G06G07G09G30R07E19S23S48
                                E26E07R05S25E13R20R19R21R06G20G02
 116238381.593 7  90575355.41746  22119432.915    22119432.620    22119433.992
        46.250          37.250
 195853765.699 7                  37269732.715
        46.500
 119706255.921 7  93277602.81945  22779344.171    22779343.975    22779345.708
        43.500          31.750
 111847746.157 7  87154075.66546  21283920.460    21283919.271    21283918.522
        47.750          40.500
 109523044.291 8  85342638.58047  20841542.265    20841542.252    20841544.684
        49.750          44.250
 120622036.097 7  93991223.83847  22953601.763    22953601.370    22953603.391
        44.500          44.000
 108363912.564 8  84439418.55149  20620967.158    20620966.738    20620968.259
        51.000          55.750
 128575525.761 6 100188760.15346  24467107.582    24467106.800    24467118.859
        39.750          38.250
 129548280.060 7                  24200711.180
        43.000
 139894675.228 5                  26621067.478
        35.750
 204674528.879 7                  38948269.697
        43.000
  31422350.358 7                   5979444.155
        43.750
 120680853.138 8                  22964803.577
        49.000
 128526483.961 7                  24457777.277
        47.500
 110632792.526 8                  20696152.815
        51.500
 191478132.992 8                  36437344.129
        48.500
 136089646.411 7                  25897005.185
        43.000
 103105450.461 6                  19281239.846
        41.750
 120969493.930 5                  22613984.777
        35.000
 116320161.189 8                  21737200.148
        49.250
 110499005.559 7                  20707463.145
        42.250
 127244979.443 6  99151940.55343  24213912.685    24213911.657    24213912.676
        38.000          21.750
 127362778.469 7  99243718.65744  24236329.424    24236328.512    24236326.676
        43.000          28.500
 21 10 14 11 44 30.0000000  0 23G17S36G04G19G06G07G09G30R07E19S23S48
                                E26E07R05S25E13R20R19R21R06G20G02
 116322310.823 7  90640754.69346  22135404.371    22135404.081    22135405.211
        46.500          37.000
 195853803.482 7                  37269740.496
        46.250
 119794043.803 7  93346008.92345  22796050.020    22796049.824    22796050.898
        43.750          31.500
 111910876.416 8  87203268.02146  21295933.855    21295932.662    21295931.969
        48.250          40.750
 109475186.656 8  85305346.91147  20832435.474    20832435.461    20832437.429
        49.500          44.250
 120556180.614 7  93939907.96347  22941069.565    22941069.176    22941071.235
        45.000          44.250
 108398747.701 8  84466562.80749  20627596.079    20627595.659    20627597.131
        50.750          55.750
 128486155.527 6 100119121.36646  24450101.031    24450100.262    24450112.071
        39.250          37.500
 129463952.907 7                  24184956.687
        44.500
 139826323.670 5                  26608059.950
        35.750
 204674691.522 7                  38948300.847
        43.000
  31422248.364 7                   5979418.040
        43.500
 120680986.039 8                  22964828.994
        49.250
 128576325.278 7                  24467261.722
        47.750
 110703030.722 8                  20709292.122
        51.250
 191479879.154 8                  36437690.376
        48.250
 136158305.172 7                  25910070.694
        43.000
 103120687.660 7                  19284089.566
        42.000
 121091386.574 5                  22636771.068
        34.750
 116212295.506 8                  21717043.124
        49.500
 110467933.310 7                  20701640.455
        42.000
 127179784.331 6  99101139.18243  24201506.649    24201505.612    24201506.696
        39.250          22.000
 127275402.634 7  99175633.58044  24219702.514    24219701.607    24219699.466
        43.000          29.500
 21 10 14 11 45  0.0000000  0 23G17S36G04G19G06G07G09G30R07E19S23S48
                                E26E07R05S25E13R20R19R21R06G20G02
 116406508.448 7  90706363.09746  22151426.255    22151425.960    22151427.513
        46.000          37.000
 195853835.872 7                  37269745.245
        46.500
 119882041.771 7  93414578.74845  22812795.623    22812795.431    22812796.163
        43.250          31.750
 111974485.582 7  87252833.54846  21308038.171    21308036.978    21308036.491
        47.750          40.500
 109427651.448 8  85268306.48847  20823389.628    20823389.615    20823391.935
        49.500          44.250
 120490521.620 7  93888745.19447  22928574.912    22928574.523    22928576.851
        45.000          44.500
 108434035.272 8  84494059.61349  20634310.958    20634310.538    20634312.278
        51.000          56.000
 128396707.921 6 100049422.27046  24433079.431    24433078.662    24433090.249
        39.000          38.000
 129379875.112 7                  24169250.271
        44.250
 139758154.550 6                  26595088.074
        36.750
 204674847.856 7                  38948331.741
        43.000
  31422141.502 7                   5979388.836
        43.500
 120681454.600 8                  22964918.113
        49.250
 128626341.547 7                  24476779.505
        47.500
 110773429.702 8                  20722462.101
        51.250
 191481622.604 8                  36438038.527
        48.500
 136227186.658 7                  25923178.519
        42.750
 103136703.097 7                  19287084.557
        42.000
 121213572.118 5                  22659613.373
        34.750
 116104791.483 8                  21696953.035
        48.750
 110437259.798 7                  20695891.810
        42.000
 127114581.687 6  99050331.95543  24189098.686    24189097.636    24189098.368
        38.500          22.250
 127188042.047 7  99107560.39344  24203077.993    24203077.090    24203075.539
        42.250          28.750
 21 10 14 11 45 30.0000000  0 23G17S36G04G19G06G07G09G30R07E19S23S48
                                E26E07R05S25E13R20R19R21R06G20G02
 116490980.599 7  90772185.42446  22167501.166    22167500.867    22167502.128
        45.750          36.500
 195853868.248 7                  37269753.678
        46.750
 119970256.270 7  93483317.28845  22829582.247    22829582.055    22829582.697
        42.500          30.750
 112038579.737 7  87302776.99346  21320234.966    21320233.768    21320233.114
        47.750          40.250
 109380449.949 8  85231526.09647  20814407.572    20814407.559    20814409.886
        49.750          44.250
 120425070.603 7  93837744.48947  22916120.122    22916119.738    22916121.960
        44.500          44.500
 108469782.350 8  84521914.47249  20641113.482    20641113.062    20641114.680
        50.750          55.500
 128307194.446 6  99979671.86946  24416045.424    24416044.646    24416056.394
        39.500          37.750
 129296056.596 7                  24153591.841
        42.750
 139690177.436 6                  26582152.680
        36.500
 204675007.734 7                  38948362.193
        43.250
  31422041.244 7                   5979358.849
        44.000
 120682268.663 8                  22965073.061
        49.000
 128676540.220 7                  24486332.065
        47.500
 110843996.030 8                  20735662.955
        50.750
 191484975.405 8                  36438387.694
        48.750
 136296299.106 7                  25936330.477
        42.750
 103153505.914 7                  19290226.366
        42.000
 121336056.554 5                  22682511.368
        34.750
 115997662.577 8                  21676932.923
        48.750
 110406993.117 7                  20690219.784
        42.000
 127049380.426 6  98999525.78743  24176691.203    24176690.153    24176691.409
        37.750          22.250
 127100707.342 7  99039507.37744  24186458.569    24186457.657    24186456.177
        42.000          29.250
 21 10 14 11 46  0.0000000  0 23G17S36G04G19G06G07G09G30R07E19S23S48
                                E26E07R05S25E13R20R19R21R06G20G02
 116575721.891 7  90838217.46746  22183626.912    22183626.604    22183627.810
        45.750          36.250
 195853904.354 7                  37269758.973
        46.500
 120058682.431 7  93552220.74945  22846408.969    22846408.782    22846409.945
        43.500          31.750
 112103153.563 7  87353094.20546  21332523.167    21332521.969    21332521.191
        47.750          40.500
 109333582.006 8  85195005.62147  20805488.969    20805488.956    20805491.185
        49.750          44.500
 120359827.893 7  93786906.09847  22903705.017    22903704.624    22903706.553
        44.750          44.750
 108505984.667 8  84550124.06549  20648002.530    20648002.110    20648003.631
        50.750          55.750
 128217615.216 6  99909870.22346  24398998.856    24398998.074    24399009.603
        40.000          38.500
 129212495.523 6                  24137982.450
        41.250
 139622390.598 6                  26569252.989
        36.250
 204675168.461 7                  38948392.126
        43.500
  31421942.152 7                   5979331.729
        43.750
 120683426.665 8                  22965293.454
        49.000
 128726917.441 7                  24495918.511
        47.500
 110914724.223 8                  20748894.310
        51.250
 191486747.614 8                  36438739.803
        48.750
 136365639.325 7                  25949525.558
        42.500
 103171094.160 6                  19293515.790
        41.750
 121458834.247 5                  22705462.164
        34.750
 115890910.775 8                  21656983.665
        48.500
 110377129.773 7                  20684623.905
        42.000
 126984177.861 6  98948718.62843  24164283.525    24164282.497    24164284.176
        37.750          22.250
 127013397.910 6  98971474.07344  24169844.150    24169843.229    24169841.657
        41.000          28.750
 21 10 14 11 46 30.0000000  0 24G17S36G04G19G06G07G09G30R07E19S23S48
                                E26E07R05S25E13R20R19R21R06G03G20G02
 116660729.442 7  90904456.97946  22199803.512    22199803.208    22199804.186
        45.750          36.000
 195853941.250 7                  37269767.227
        46.750
 120147317.682 7  93621287.13845  22863276.276    22863276.102    22863276.793
        43.250          31.500
 112168204.134 7  87403782.91046  21344901.772    21344900.574    21344900.065
        47.750          40.500
 109287049.869 8  85158746.82147  20796634.187    20796634.174    20796636.434
        50.000          44.500
 120294796.152 7  93736232.09547  22891329.478    22891329.081    22891331.195
        45.000          44.750
 108542640.247 8  84578686.85249  20654977.819    20654977.399    20654978.937
        50.750          55.500
 128127972.707 6  99840019.26846  24381940.231    24381939.453    24381950.855
        40.250          38.500
 129129192.657 7                  24122420.374
        42.250
 139554794.582 6                  26556389.893
        36.750
 204675329.545 7                  38948423.177
        43.250
  31421843.949 7                   5979303.612
        44.000
 120684929.438 8                  22965579.408
        49.250
 128777471.626 7                  24505538.691
        47.500
 110985611.569 8                  20762154.859
        51.250
 191488529.188 8                  36439091.956
        48.750
 136435206.512 7                  25962763.746
        42.250
 103189467.851 6                  19296951.559
        41.750
 121581901.587 5                  22728470.390
        35.250
 115784540.161 8                  21637105.841
        49.250
 110347668.650 7                  20679102.153
        42.000
                                  24944188.829
        22.250
 126918973.544 6  98897910.10543  24151876.264    24151875.240    24151875.625
        38.250          21.750
 126926115.492 6  98903461.82144  24153235.026    24153234.096    24153232.240
        40.750          29.000
 21 10 14 11 47  0.0000000  0 23G17S36G04G19G06G07G09G30R07E19S23S48
                                E26E07R05S25E13R20R19R21R06G20G02
 116745999.389 7  90970900.95146  22216029.894    22216029.590    22216030.739
        45.500          36.000
 195853981.823 7                  37269773.335
        46.750
 120236158.486 7  93690513.69045  22880181.727    22880181.558    22880182.840
        43.250          31.000
 112233728.121 7  87454840.50846  21357370.856    21357369.654    21357369.037
        47.500          40.250
 109240854.646 8  85122750.54447  20787843.676    20787843.659    20787845.604
        49.750          44.250
 120229977.137 7  93685723.85447  22878995.228    22878994.839    22878996.296
        45.000          44.750
 108579746.034 8  84607600.45049  20662038.837    20662038.417    20662040.010
        51.000          55.500
 128038268.341 6  99770120.12146  24364869.915    24364869.124    24364880.114
        40.000          38.250
 129046147.261 7                  24106907.547
        43.000
 139487388.865 6                  26543562.498
        37.000
 204675489.709 7                  38948453.070
        43.500
  31421746.219 7                   5979274.814
        44.000
 120686776.666 8                  22965930.984
        49.500
 128828200.186 7                  24515192.042
        47.750
 111056654.345 8                  20775444.886
        51.250
 191490315.896 8                  36439446.198
        48.750
 136504998.795 7                  25976044.815
        42.500
 103208625.567 7                  19300534.665
        42.000
 121705253.742 5                  22751529.423
        35.250
 115678554.053 8                  21617300.098
        49.500
 110318607.189 6                  20673657.041
        41.750
 126853766.205 6  98847099.21543  24139467.216    24139466.184    24139467.570
        38.250          22.750
 126838860.837 6  98835471.22445  24136630.755    24136629.825    24136628.953
        41.250          30.250
 21 10 14 11 47 30.0000000  0 23G17S36G04G19G06G07G09G30R07E19S23S48
                                E26E07R05S25E13R20R19R21R06G20G02
 116831527.649 7  91037546.20746  22232305.397    22232305.093    22232306.443
        45.750          36.000
 195854014.478 7                  37269780.615
        46.750
 120325200.922 7  93759897.36845  22897126.255    22897126.086    22897126.940
        42.000          30.250
 112299721.558 8  87506263.91846  21369928.801    21369927.599    21369927.186
        48.000          40.250
 109194997.262 8  85087017.52247  20779117.068    20779117.055    20779119.054
        50.000          44.250
 120165372.250 7  93635382.45647  22866701.105    22866700.721    22866702.352
        45.500          44.750
 108617298.789 8  84636862.33949  20669184.896    20669184.476    20669185.891
        51.000          55.250
 127948503.344 6  99700173.72646  24347788.295    24347787.486    24347798.082
        39.750          38.500
 128963358.640 7                  24091442.176
        43.750
 139420172.732 6                  26530771.798
        37.000
 204675647.555 7                  38948482.971
        43.250
  31421647.803 7                   5979247.135
        44.000
 120688967.895 8                  22966347.988
        49.500
 128879100.242 8                  24524878.050
        48.000
 111127848.644 8                  20788763.219
        51.000
 191492111.104 8                  36439800.843
        49.000
 136575014.003 7                  25989368.673
        42.750
 103228566.645 6                  19304263.153
        41.750
 121828886.465 5                  22774641.489
        34.750
 115572955.483 8                  21597566.503
        49.250
 110289942.869 7                  20668285.065
        42.000
 126788554.476 6  98796284.91143  24127058.134    24127057.079    24127058.120
        39.250          22.750
 126751634.454 7  98767502.66345  24120032.088    24120031.172    24120030.510
        42.500          31.250
 21 10 14 11 48  0.0000000  0 24G17S36G04G19G06G07G09G30R07E19S23S48
                                E26E07R05S25E13R20R19R21R06G03G20G02
 116917311.604 7  91104390.69245  22248629.687    22248629.383    22248630.839
        45.000          35.500
 195854054.509 7                  37269785.932
        46.500
 120414443.749 7  93829437.19045  22914108.704    22914108.535    22914109.246
        42.500          30.000
 112366182.911 7  87558051.93546  21382576.073    21382574.866    21382574.388
        47.250          40.000
 109149481.176 8  85051550.43947  20770455.869    20770455.852    20770457.610
        49.500          44.000
 120100985.147 7  93585210.76847  22854448.627    22854448.243    22854449.923
        45.000          44.750
 108655297.747 8  84666471.91449  20676415.798    20676415.378    20676416.942
        50.750          55.250
 127858681.460 6  99630182.99146  24330694.451    24330693.642    24330705.010
        39.500          38.000
 128880828.446 7                  24076023.502
        42.500
 139353147.985 6                  26518017.315
        36.500
 204675805.529 7                  38948513.647
        43.000
  31421551.408 7                   5979219.040
        43.250
 120691505.087 8                  22966830.758
        49.250
 128930171.547 7                  24534596.447
        47.500
 111199192.751 8                  20802109.964
        51.000
 191493910.921 8                  36440156.037
        48.500
 136645252.594 7                  26002734.520
        42.500
 103249292.146 6                  19308139.060
        41.750
 121952796.952 5                  22797807.946
        35.250
 115467749.754 8                  21577906.490
        49.500
 110261675.548 7                  20662987.862
        42.000
                                  24982773.499
        20.250
 126723339.116 6  98745467.76543  24114648.088    24114647.029    24114647.735
        38.750          22.250
 126664439.242 7  98699558.38645  24103439.443    24103438.536    24103437.848
        42.750          31.250
 21 10 14 11 48 30.0000000  0 23G17S36G04G19G06G07G09G30R07E19S23S48
                                E26E07R05S25E13R20R19R21R06G20G02
 117003351.303 7  91171434.45045  22265002.684    22265002.385    22265003.842
        45.250          35.500
 195854091.674 7                  37269793.735
        46.250
 120503886.900 7  93899133.10945  22931129.122    22931128.957    22931129.887
        42.500          30.500
 112433110.845 7  87610203.52246  21395311.885    21395310.678    21395310.329
        47.250          39.750
 109104311.133 8  85016353.00048  20761859.929    20761859.912    20761862.172
        50.000          50.000
 120036821.344 7  93535213.07847  22842238.435    22842238.046    22842240.028
        45.000          45.000
 108693743.455 8  84696429.61049  20683731.890    20683731.470    20683732.915
        50.500          55.000
 127768807.796 6  99560151.92246  24313592.485    24313591.667    24313602.449
        39.750          38.250
 128798559.913 7                  24060654.799
        42.500
 139286317.721 6                  26505299.988
        36.500
 204675965.952 7                  38948544.532
        43.000
  31421457.524 7                   5979190.207
        43.500
 120694391.565 8                  22967380.105
        49.500
 128981415.070 8                  24544347.840
        48.000
 111270686.542 8                  20815484.442
        51.500
 191495716.667 8                  36440515.180
        48.250
 136715716.227 7                  26016143.739
        42.750
 103270804.794 6                  19312162.308
        41.500
 122076984.905 5                  22821023.058
        35.000
 115362944.002 8                  21558321.208
        49.500
 110233806.679 7                  20657764.855
        42.000
 126658122.520 6  98694649.64643  24102237.036    24102235.963    24102237.212
        38.500          22.500
 126577279.704 7  98631641.89144  24086853.899    24086852.974    24086851.048
        42.750          29.750
 21 10 14 11 49  0.0000000  0 23G17S36G04G19G06G07G09G30R07E19S23S48
                                E26E07R05S25E13R20R19R21R06G20G02
 117089640.967 7  91238672.99146  22281423.125    22281422.821    22281424.516
        45.250          36.000
 195854120.318 7                  37269800.429
        46.500
 120593525.104 7  93968981.00845  22948187.082    22948186.913    22948187.871
        42.500          30.750
 112500500.146 7  87662714.61846  21408135.713    21408134.506    21408134.125
        47.750          40.500
 109059486.552 8  84981424.74948  20753330.292    20753330.270    20753332.289
        50.250          50.250
 119972880.301 7  93485388.97147  22830070.759    22830070.379    22830072.609
        45.250          45.750
 108732631.096 8  84726731.66249  20691132.012    20691131.592    20691132.981
        50.750          55.500
 127678882.089 6  99490080.29846  24296479.620    24296478.802    24296489.674
        40.250          38.500
 128716550.739 7                  24045335.111
        42.000
 139219679.698 6                  26492619.124
        36.000
 204676125.898 7                  38948575.561
        43.500
  31421366.305 7                   5979162.474
        43.750
 120697625.339 8                  22967995.454
        49.250
 129032826.542 7                  24554131.091
        47.500
 111342324.588 8                  20828885.618
        50.750
 191497527.711 8                  36440874.475
        48.500
 136786401.301 7                  26029594.872
        42.750
 103293101.487 6                  19316331.781
        41.750
 122201443.646 5                  22844289.765
        35.250
 115258539.454 8                  21538810.459
        48.750
 110206332.210 7                  20652616.111
        42.250
 126592901.820 6  98643828.35443  24089826.349    24089825.285    24089826.644
        38.750          23.250
 126490154.982 7  98563752.50844  24070274.698    24070273.764    24070271.439
        42.500          29.750
 21 10 14 11 49 30.0000000  0 23G17S36G04G19G06G07G09G30R07E19S23S48
                                E26E07R05S25E13R20R19R21R06G20G02
 117176179.900 7  91306105.76346  22297890.806    22297890.507    22297892.581
        45.500          36.250
 195854155.369 7                  37269806.971
        46.750
 120683358.166 7  94038980.74145  22965281.623    22965281.454    22965282.750
        42.500          30.750
 112568350.256 7  87715584.78546  21421046.966    21421045.755    21421045.631
        47.750          40.500
 109015011.955 8  84946769.21849  20744866.925    20744866.908    20744868.969
        50.250          55.500
 119909167.239 7  93435742.51647  22817946.525    22817946.145    22817948.533
        45.250          45.750
 108771960.988 8  84757378.32649  20698616.238    20698615.818    20698617.274
        50.750          55.500
 127588909.206 6  99419971.90646  24279357.712    24279356.885    24279367.715
        39.250          38.000
 128634804.073 6                  24030063.869
        40.750
 139153236.779 5                  26479975.238
        35.750
 204676287.417 7                  38948605.462
        43.500
  31421276.986 7                   5979134.808
        44.000
 120701209.449 8                  22968677.491
        49.250
 129084406.732 7                  24563946.552
        47.250
 111414106.469 8                  20842314.217
        51.000
 191499353.424 8                  36441236.099
        48.750
 136857309.260 7                  26043088.400
        42.500
 103316184.647 6                  19320648.324
        41.750
 122326172.018 5                  22867608.151
        35.500
 115154542.830 8                  21519375.991
        49.000
 110179253.147 7                  20647541.724
        42.000
 126527678.835 6  98593005.27243  24077414.775    24077413.671    24077414.528
        38.250          22.500
 126403068.944 7  98495893.26544  24053702.351    24053701.399    24053699.145
        42.000          28.250
 21 10 14 11 50  0.0000000  0 23G17S36G04G19G06G07G09G30R07E19S23S48
                                E26E07R05S25E13R20R19R21R06G20G02
 117262963.211 7  91373728.94646  22314405.500    22314405.205    22314407.200
        45.250          36.000
 195854191.084 7                  37269814.774
        46.750
 120773381.692 7  94109128.88544  22982412.152    22982411.974    22982413.218
        42.250          29.750
 112636656.307 7  87768810.23246  21434045.674    21434044.472    21434044.039
        47.250          40.000
 108970887.597 8  84912386.59449  20736470.393    20736470.376    20736472.286
        50.000          55.250
 119845682.647 7  93386274.08047  22805865.570    22805865.195    22805867.613
        44.750          45.500
 108811729.184 8  84788366.52549  20706183.828    20706183.408    20706184.887
        50.750          55.250
 127498889.738 6  99349827.20946  24262227.764    24262226.937    24262237.314
        39.250          38.250
 128553317.895 7                  24014840.892
        42.000
 139086987.552 5                  26467368.406
        35.750
 204676448.402 7                  38948636.303
        43.250
  31421188.267 7                   5979106.833
        43.750
 120705142.698 8                  22969425.966
        49.250
 129136152.164 7                  24573793.297
        47.250
 111486027.390 8                  20855768.105
        51.500
 191501188.059 8                  36441599.191
        48.750
 136928437.324 7                  26056623.674
        42.750
 103340052.106 6                  19325112.024
        41.500
 122451164.978 5                  22890973.208
        33.750
 115050956.407 8                  21500018.257
        49.250
 110152566.240 7                  20642540.548
        42.500
 126462451.594 6  98542178.86443  24065002.231    24065001.118    24065002.529
        38.750          23.000
 126316021.791 6  98428064.32444  24037137.840    24037136.879    24037135.079
        41.250          28.250
 21 10 14 11 50 30.0000000  0 23G17S36G04G19G06G07G09G30R07E19S23S48
                                E26E07R05S25E13R20R19R21R06G20G02
 117349988.661 7  91441540.80846  22330966.193    22330965.898    22330967.698
        45.250          36.250
 195854228.176 7                  37269820.954
        46.750
 120863593.800 6  94179423.99445  22999579.246    22999579.072    22999579.773
        41.750          30.000
 112705416.309 7  87822389.41046  21447130.107    21447128.900    21447128.650
        47.500          40.000
 108927116.417 8  84878279.17849  20728141.027    20728141.005    20728143.066
        50.250          55.750
 119782430.235 7  93336986.56947  22793829.078    22793828.707    22793830.882
        45.250          45.750
 108851934.315 8  84819695.19649  20713834.708    20713834.293    20713835.735
        50.750          55.500
 127408826.986 6  99279648.80146  24245088.563    24245087.750    24245098.680
        39.250          38.000
 128472093.887 6                  23999666.857
        40.250
 139020933.226 5                  26454798.206
        35.750
 204676608.933 7                  38948666.835
        43.250
  31421101.950 7                   5979080.151
        43.750
 120709426.539 8                  22970241.243
        49.500
 129188062.041 7                  24583671.426
        47.500
 111558085.628 8                  20869248.444
        50.750
 191503027.245 8                  36441963.485
        48.500
 136999785.311 7                  26070200.969
        42.500
 103364704.487 6                  19329721.887
        41.750
 122576419.805 5                  22914389.947
        34.750
 114947785.249 8                  21480738.621
        50.000
 110126270.820 6                  20637612.562
        41.750
 126397220.542 6  98491349.50043  24052589.140    24052588.036    24052589.287
        39.500          23.250
 126229015.821 6  98360267.48044  24020580.894    24020579.929    24020578.489
        41.750          29.500
 21 10 14 11 51  0.0000000  0 23G17S36G04G19G06G07G09G30R07E19S23S48
                                E26E07R05S25E13R20R19R21R06G20G02
 117437251.686 7  91509537.78646  22347571.966    22347571.676    22347573.417
        45.250          36.000
 195854268.936 7                  37269828.395
        46.750
 120953990.807 7  94249863.16045  23016781.285    23016781.098    23016781.913
        42.000          30.250
 112774625.976 7  87876318.97346  21460300.487    21460299.294    21460298.714
        47.250          39.750
 108883699.337 8  84844447.68249  20719879.095    20719879.073    20719881.158
        50.250          55.500
 119719410.771 7  93287880.58147  22781836.759    22781836.384    22781838.544
        45.750          45.750
 108892573.119 8  84851361.78949  20721567.959    20721567.539    20721569.111
        50.250          55.250
 127318722.190 6  99209437.61246  24227942.006    24227941.188    24227952.359
        40.000          38.500
 128391130.826 7                  23984542.994
        43.000
 138955073.140 6                  26442265.406
        36.000
 204676768.668 7                  38948696.532
        43.250
  31421018.733 7                   5979051.555
        44.000
 120714060.458 8                  22971123.107
        49.500
 129240133.575 7                  24593580.346
        47.500
 111630277.216 8                  20882753.361
        51.000
 191504866.615 8                  36442330.104
        48.750
 137071351.126 7                  26083819.822
        42.750
 103390140.014 6                  19334478.211
        41.750
 122701930.786 5                  22937852.102
        34.500
 114845032.345 8                  21461537.070
        50.000
 110100364.340 7                  20632757.813
        42.000
 126331984.011 6  98440515.84243  24040175.021    24040173.913    24040174.659
        39.250          23.250
 126142051.702 6  98292503.26745  24004032.579    24004031.609    24004030.405
        41.500          30.250
 21 10 14 11 51 30.0000000  0 23G17S36G04G19G06G07G09G30R07E19S23S48
                                E26E07R05S25E13R20R19R21R06G20G02
 117524751.190 7  91577719.02746  22364222.611    22364222.312    22364224.165
        45.000          36.000
 195854305.203 7                  37269834.503
        46.500
 121044571.685 7  94320445.60445  23034018.011    23034017.824    23034019.217
        42.500          30.250
 112844283.767 7  87930597.72646  21473555.944    21473554.746    21473554.196
        47.250          39.750
 108840640.061 8  84810894.99549  20711685.165    20711685.143    20711687.138
        50.000          55.500
 119656628.450 7  93238959.37647  22769889.865    22769889.490    22769891.335
        45.250          46.000
 108933645.041 8  84883365.87549  20729383.675    20729383.255    20729385.007
        50.000          55.500
 127228579.452 6  99139196.85446  24210788.637    24210787.824    24210798.433
        40.000          38.500
 128310430.790 6                  23969467.307
        41.750
 138889409.255 6                  26429770.228
        36.000
 204676928.439 7                  38948729.648
        43.250
  31420936.581 7                   5979021.935
        43.750
 120719046.647 8                  22972071.816
        49.500
 129292366.752 7                  24603520.065
        47.500
 111702601.029 8                  20896283.414
        50.750
 191506719.269 8                  36442697.766
        48.250
 137143135.381 7                  26097480.022
        42.750
 103416359.953 6                  19339381.939
        41.500
 122827696.721 5                  22961363.413
        34.500
 114742703.548 8                  21442414.326
        50.250
 110074846.896 7                  20627975.932
        42.000
 126266743.485 6  98389679.08844  24027760.484    24027759.407    24027760.084
        39.250          24.000
 126055132.985 6  98224774.43545  23987492.215    23987491.241    23987490.360
        41.750          31.000
 21 10 14 11 52  0.0000000  0 23G17S36G04G19G06G07G09G30R07E19S23S48
                                E26E07R05S25E13R20R19R21R06G20G02
 117612484.462 7  91646082.41945  22380917.575    22380917.276    22380919.384
        44.750          35.500
 195854340.011 7                  37269842.113
        46.500
 121135334.370 7  94391169.71445  23051289.682    23051289.486    23051290.886
        42.250          30.250
 112914387.692 7  87985224.11046  21486896.027    21486894.825    21486894.499
        47.500          39.500
 108797941.205 8  84777623.15849  20703559.782    20703559.756    20703561.761
        50.250          55.500
 119594086.702 7  93190225.63347  22757988.329    22757987.958    22757990.035
        46.000          46.000
 108975148.396 8  84915706.14649  20737281.413    20737280.989    20737282.854
        50.250          55.500
 127138401.822 6  99068928.90846  24193628.116    24193627.312    24193637.906
        40.000          38.750
 128229994.560 7                  23954440.614
        42.500
 138823942.507 5                  26417312.311
        35.750
 204677089.296 7                  38948758.128
        43.250
  31420855.993 7                   5978996.049
        43.750
 120724386.199 8                  22973087.995
        48.750
 129344760.492 7                  24613490.229
        46.750
 111775054.945 8                  20909837.292
        51.250
 191508585.837 8                  36443066.446
        48.500
 137215137.571 7                  26111181.716
        42.250
 103443364.479 6                  19344432.142
        41.750
 122953714.633 5                  22984923.690
        34.500
 114640803.428 8                  21423372.152
        50.000
 110049717.689 7                  20623266.512
        42.000
 126201499.164 6  98338839.37943  24015344.717    24015343.644    24015344.843
        39.000          23.750
 125968261.887 7  98157082.70945  23970961.315    23970960.336    23970959.519
        42.250          31.500
 21 10 14 11 52 30.0000000  0 23G17S36G04G19G06G07G09G30R07E19S23S48
                                E26E07R05S25E13R20R19R21R06G20G02
 117700450.120 7  91714626.88445  22397657.277    22397656.991    22397658.930
        44.750          35.250
 195854376.035 7                  37269848.892
        46.250
 121226278.317 7  94462035.07744  23068596.085    23068595.911    23068596.870
        42.500          29.500
 112984935.986 7  88040196.76446  21500320.906    21500319.704    21500319.486
        47.500          39.750
 108755606.772 8  84744635.28649  20695503.824    20695503.802    20695506.004
        50.500          55.500
 119531790.129 7  93141682.93847  22746133.816    22746133.441    22746135.290
        46.000          46.250
 109017082.987 8  84948382.44649  20745261.451    20745261.031    20745262.603
        50.750          55.250
 127048193.693 6  98998637.20146  24176461.280    24176460.480    24176471.427
        40.500          38.750
 128149824.338 7                  23939464.179
        42.750
 138758675.265 6                  26404892.125
        36.250
 204677253.523 7                  38948789.859
        43.000
  31420782.528 7                   5978970.587
        43.500
 120730081.718 8                  22974171.771
        49.250
 129397315.098 7                  24623490.981
        47.250
 111847638.230 8                  20923415.159
        51.250
 191510457.271 8                  36443438.038
        48.250
 137287358.692 7                  26124925.288
        42.500
 103471155.476 6                  19349629.301
        41.500
 123079982.489 5                  23008527.488
        33.750
 114539338.370 8                  21404410.207
        49.500
 110024977.169 6                  20618629.867
        41.750
 126136252.644 6  98287997.97043  24002928.683    24002927.619    24002929.115
        39.250          23.250
 125881442.310 7  98089431.12245  23954440.097    23954439.114    23954437.893
        43.000          31.500
 21 10 14 11 53  0.0000000  0 23G17S36G04G19G06G07G09G30R07E19S23S48
                                E26E07R05S25E13R20R19R21R06G20G02
 117788639.664 7  91783345.80545  22414439.287    22414439.001    22414440.934
        44.250          34.500
 195854411.058 7                  37269856.177
        46.750
 121317395.154 6  94533035.16544  23085935.143    23085934.974    23085935.650
        41.000          29.000
 113055920.139 7  88095509.04046  21513828.934    21513827.741    21513827.538
        47.250          39.750
 108713633.228 8  84711928.62449  20687516.617    20687516.595    20687518.760
        50.000          55.500
 119469735.455 7  93093328.74647  22734324.954    22734324.583    22734326.687
        46.000          46.500
 109059440.991 8  84981388.67749  20753321.872    20753321.452    20753323.114
        50.250          55.250
 126957951.964 6  98928319.29346  24159289.374    24159288.579    24159298.443
        40.000          38.750
 128069914.919 6                  23924535.483
        41.750
 138693602.274 6                  26392509.413
        36.750
 204677415.075 7                  38948821.545
        43.250
  31420704.354 7                   5978941.728
        43.750
 120736128.098 8                  22975322.331
        49.500
 129450023.328 7                  24633521.096
        47.250
 111920342.287 8                  20937016.050
        51.250
 191512327.246 8                  36443810.761
        48.500
 137359792.093 7                  26138708.949
        42.500
 103499726.313 6                  19354971.862
        41.750
 123206491.136 5                  23032178.411
        33.750
 114438306.638 8                  21385530.307
        49.750
 110000617.981 6                  20614065.079
        41.750
 126070998.319 6  98237150.47243  23990511.335    23990510.298    23990511.249
        40.000          23.750
 125794670.161 7  98021816.49045  23937927.952    23937926.960    23937925.496
        42.750          30.750
 21 10 14 11 53 30.0000000  0 23G17S36G04G19G06G07G09G30R07E19S23S48
                                E26E07R05S25E13R20R19R21R06G20G02
 117877057.786 7  91852242.83445  22431264.667    22431264.377    22431266.483
        44.000          34.000
 195854455.146 7                  37269863.796
        46.500
 121408689.748 7  94604173.75944  23103307.884    23103307.710    23103308.440
        42.000          29.750
 113127344.609 7  88151164.41446  21527420.480    21527419.291    21527419.379
        47.500          39.750
 108672029.978 8  84679510.49649  20679599.831    20679599.809    20679601.672
        50.000          55.500
 119407932.559 7  93045170.74247  22722564.332    22722563.957    22722565.927
        45.250          46.250
 109102227.540 8  85014728.84049  20761463.676    20761463.256    20761464.879
        50.250          55.000
 126867686.441 6  98857982.86346  24142111.726    24142110.922    24142121.375
        40.000          38.500
 127990273.895 7                  23909659.823
        43.500
 138628731.275 6                  26380164.639
        36.500
 204677581.144 7                  38948850.981
        43.250
  31420635.377 7                   5978915.654
        43.750
 120742533.299 8                  22976541.262
        49.500
 129502890.940 7                  24643581.423
        47.250
 111993172.081 8                  20950640.112
        50.750
 191514218.505 8                  36444185.930
        48.500
 137432444.094 7                  26152534.477
        42.500
 103529083.896 6                  19360461.622
        41.750
 123333244.391 5                  23055874.547
        34.750
 114337719.926 8                  21366732.969
        50.250
 109976646.301 7                  20609573.392
        42.250
 126005742.893 6  98186302.12044  23978093.046    23978091.996    23978093.880
        39.000          24.000
 125707954.830 7  97954246.09745  23921426.263    23921425.280    23921423.277
        42.750          30.250
 21 10 14 11 54  0.0000000  0 23G17S36G04G19G06G07G09G30R07E19S23S48
                                E26E07R05S25E13R20R19R21R06G20G02
 117965689.141 7  91921306.02345  22448130.924    22448130.629    22448132.553
        44.250          34.250
 195854487.364 7                  37269869.426
        46.500
 121500148.022 6  94675439.89944  23120711.717    23120711.552    23120712.388
        41.250          29.750
 113199194.644 7  88207151.40046  21541093.289    21541092.096    21541092.014
        47.500          40.000
 108630787.602 8  84647373.57149  20671751.518    20671751.496    20671753.765
        50.000          56.000
 119346372.204 7  92997201.72847  22710849.739    22710849.359    22710851.022
        45.500          46.750
 109145428.943 8  85048392.26649  20769684.806    20769684.382    20769685.917
        50.250          55.500
 126777388.157 6  98787620.89946  24124928.343    24124927.539    24124937.610
        39.250          38.750
 127910889.882 6                  23894829.526
        40.750
 138564051.134 6                  26367856.219
        37.000
 204677738.950 7                  38948882.171
        43.250
  31420555.695 7                   5978888.609
        43.500
 120749286.345 8                  22977826.278
        49.250
 129555904.803 7                  24653669.730
        47.500
 112066113.206 8                  20964285.581
        51.000
 191516106.614 8                  36444560.541
        48.500
 137505302.169 7                  26166399.065
        42.250
 103559215.994 7                  19366096.439
        42.250
 123460227.087 5                  23079613.899
        34.500
 114237570.887 8                  21348018.413
        50.250
 109953048.790 7                  20605150.564
        42.250
 125940474.515 6  98135443.66544  23965673.753    23965672.725    23965673.300
        40.000          24.000
 125621286.337 7  97886712.23645  23904933.707    23904932.737    23904931.352
        42.250          30.500
 21 10 14 11 54 30.0000000  0 23G17S36G04G19G06G07G09G30R07E19S23S48
                                E26E07R05S25E13R20R19R21R06G20G02
 118054545.739 7  91990544.73345  22465040.109    22465039.810    22465041.574
        44.500          34.500
 195854523.312 7                  37269876.947
        46.500
 121591782.593 7  94746843.39645  23138149.187    23138149.018    23138150.379
        42.000          30.250
 113271482.365 7  88263479.43646  21554849.210    21554848.017    21554847.843
        47.250          39.750
 108589923.343 8  84615531.28449  20663975.410    20663975.384    20663977.600
        50.250          56.000
 119285072.453 7  92949435.79047  22699184.706    22699184.317    22699186.088
        46.000          47.000
 109189058.180 8  85082389.06749  20777987.059    20777986.639    20777988.321
        50.250          55.250
 126687074.845 6  98717247.23646  24107742.228    24107741.424    24107751.094
        39.250          38.000
 127831778.562 7                  23880050.507
        43.500
 138499577.437 6                  26355587.389
        37.000
 204677903.962 7                  38948915.024
        43.000
  31420484.887 7                   5978862.598
        43.500
 120756403.037 8                  22979180.651
        49.250
 129609078.572 7                  24663788.264
        47.000
 112139178.667 8                  20977954.241
        50.250
 191518016.298 8                  36444938.053
        48.250
 137578380.555 7                  26180305.701
        42.000
 103590137.592 7                  19371879.282
        42.000
 123587451.223 5                  23103397.891
        34.250
 114137878.752 8                  21329388.048
        50.250
 109929839.388 7                  20600801.074
        42.500
 125875208.294 6  98084586.89344  23953253.329    23953252.288    23953253.408
        39.250          24.000
 125534681.995 7  97819228.35345  23888453.372    23888452.411    23888451.062
        42.000          30.000
 21 10 14 11 55  0.0000000  0 23G17S36G04G19G06G07G09G30R07E19S23S48
                                E26E07R05S25E13R20R19R21R06G20G02
 118143615.067 7  92059949.19645  22481989.218    22481988.919    22481991.026
        44.500          34.500
 195854558.104 7                  37269884.661
        46.500
 121683581.088 6  94818374.62945  23155617.877    23155617.708    23155619.301
        41.750          30.000
 113344194.926 7  88320138.51746  21568686.205    21568685.016    21568684.554
        47.250          39.750
 108549429.429 8  84583977.57249  20656269.682    20656269.660    20656271.679
        50.250          56.000
 119224025.396 7  92901866.75147  22687567.771    22687567.391    22687569.345
        45.750          47.250
 109233103.178 8  85116709.84249  20786368.698    20786368.278    20786369.693
        50.500          55.500
 126596739.134 6  98646856.11646  24090551.365    24090550.578    24090560.307
        40.000          38.500
 127752929.955 6                  23865320.342
        41.750
 138435300.723 6                  26343355.968
        37.250
 204678067.104 7                  38948945.015
        43.000
  31420416.760 7                   5978836.381
        43.750
 120763874.028 8                  22980602.225
        49.000
 129662400.719 7                  24673935.211
        47.000
 112212355.398 8                  20991643.666
        50.750
 191519922.363 8                  36445315.592
        48.250
 137651668.340 7                  26194252.040
        42.250
 103621837.840 7                  19377807.513
        42.000
 123714902.686 5                  23127224.081
        34.500
 114038638.027 8                  21310842.542
        50.500
 109907006.576 7                  20596523.226
        42.500
 125809934.081 6  98033723.90144  23940832.545    23940831.530    23940832.699
        39.500          24.750
 125448133.725 7  97751788.17745  23871983.581    23871982.616    23871982.022
        42.250          30.750
 21 10 14 11 55 30.0000000  0 23G17S36G04G19G06G07G09G30R07E19S23S48
                                E26E07R05S25E13R20R19R21R06G20G02
 118232895.642 7  92129518.26445  22498979.101    22498978.797    22498981.086
        44.250          35.000
 195854601.633 7                  37269892.146
        46.500
 121775542.786 6  94890033.03744  23173117.683    23173117.509    23173118.817
        41.000          29.500
 113417330.861 7  88377127.49346  21582603.398    21582602.196    21582602.019
        47.000          39.750
 108509309.733 8  84552715.46149  20648635.132    20648635.110    20648637.314
        50.000          56.250
 119163235.655 7  92854498.21747  22675999.480    22675999.096    22676001.173
        45.250          47.250
 109277563.575 8  85151354.29249  20794829.234    20794828.810    20794830.535
        50.250          55.500
 126506385.383 6  98576450.93146  24073357.472    24073356.685    24073366.243
        39.500          38.250
 127674346.788 7                  23850641.012
        42.750
 138371223.162 6                  26331162.323
        37.000
 204678230.479 7                  38948977.036
        43.250
  31420347.850 7                   5978809.376
        43.500
 120771701.706 8                  22982092.000
        49.250
 129715871.492 7                  24684110.467
        46.750
 112285642.960 8                  21005353.163
        50.750
 191523437.542 8                  36445696.190
        48.250
 137725166.339 7                  26208238.537
        42.500
 103654317.805 7                  19383881.467
        42.000
 123842580.217 5                  23151093.461
        34.750
 113939854.693 8                  21292382.548
        50.500
 109884550.736 7                  20592315.032
        42.000
 125744653.510 6  97982855.96944  23928409.625    23928408.575    23928410.075
        39.000          25.000
 125361645.023 7  97684394.40445  23855525.736    23855524.753    23855523.500
        42.500          31.500
 21 10 14 11 56  0.0000000  0 23G17S36G04G19G06G07G09G30R07E19S23S48
                                E26E07R05S25E13R20R19R21R06G20G02
 118322383.979 7  92199249.22145  22516008.097    22516007.793    22516010.532
        45.250          35.000
 195854641.695 7                  37269898.322
        46.500
 121867665.013 6  94961816.53844  23190647.884    23190647.715    23190648.708
        40.750          28.000
 113490886.695 7  88434443.66146  21596600.847    21596599.645    21596599.311
        47.500          39.500
 108469566.143 8  84521746.41949  20641072.311    20641072.285    20641074.334
        50.500          56.000
 119102705.188 7  92807331.72847  22664480.884    22664480.500    22664482.465
        45.750          46.750
 109322436.887 8  85186320.49749  20803368.332    20803367.912    20803369.465
        50.250          55.000
 126416015.996 6  98506033.55746  24056160.568    24056159.777    24056169.336
        40.250          38.000
 127596028.717 7                  23836010.653
        43.250
 138307344.936 6                  26319006.583
        36.750
 204678393.055 7                  38949007.837
        43.250
  31420278.688 7                   5978783.660
        43.750
 120779886.371 8                  22983649.318
        49.250
 129769489.095 7                  24694313.501
        47.250
 112359038.488 8                  21019082.789
        50.500
 191525365.137 8                  36446076.416
        48.250
 137798873.255 7                  26222264.636
        42.500
 103687576.791 7                  19390100.692
        42.000
 123970479.685 5                  23175002.749
        34.000
 113841532.471 8                  21274008.629
        50.250
 109862470.106 7                  20588176.795
        42.000
 125679365.810 6  97931982.48044  23915985.993    23915984.929    23915986.588
        39.250          24.750
 125275217.502 7  97617048.31445  23839079.351    23839078.368    23839077.306
        43.250          31.500
 21 10 14 11 56 30.0000000  0 23G17S36G04G19G06G07G09G30R07E19S23S48
                                E26E07R05S25E13R20R19R21R06G20G02
 118412073.935 7  92269137.28345  22533076.121    22533075.826    22533078.254
        45.250          35.250
 195854674.102 7                  37269904.756
        46.500
 121959941.685 6  95033720.37444  23208207.587    23208207.418    23208208.676
        40.500          28.500
 113564855.679 7  88492081.76046  21610676.479    21610675.286    21610675.179
        47.250          39.750
 108430197.232 8  84491069.33949  20633580.579    20633580.553    20633582.828
        50.250          56.000
 119042433.259 7  92760366.68347  22653011.821    22653011.437    22653013.178
        45.750          46.500
 109367717.487 8  85221604.06549  20811984.972    20811984.548    20811986.170
        50.000          55.000
 126325630.006 6  98435603.24146  24038960.424    24038959.620    24038969.356
        40.000          38.750
 127517972.368 7                  23821428.200
        42.750
 138243662.928 6                  26306888.111
        37.000
 204678551.306 7                  38949037.895
        43.000
  31418609.578 7                   5978755.002
        43.500
 120788425.132 8                  22985274.233
        49.250
 129823248.502 7                  24704543.662
        47.250
 112432535.859 8                  21032832.647
        50.750
 191527288.874 8                  36446459.120
        48.000
 137872784.683 7                  26236329.726
        42.500
 103721610.204 7                  19396465.576
        42.000
 124098594.233 5                  23198955.000
        35.000
 113743672.274 8                  21255721.138
        50.250
 109840759.530 7                  20584107.606
        42.000
 125614067.387 6  97881100.63144  23903559.781    23903558.695    23903561.264
        38.750          25.500
 125188849.828 7  97549748.87045  23822643.832    23822642.849    23822642.032
        43.500          32.000
 21 10 14 11 57  0.0000000  0 23G17S36G04G19G06G07G09G30R07E19S23S48
                                E26E07R05S25E13R20R19R21R06G20G02
 118501971.213 7  92339186.88745  22550182.978    22550182.670    22550185.323
        45.000          34.750
 195854705.632 7                  37269912.148
        46.750
 122052379.538 6  95105749.81544  23225797.949    23225797.784    23225799.592
        41.250          28.500
 113639244.109 7  88550046.69746  21624832.094    21624830.892    21624830.869
        47.500          39.250
 108391214.297 8  84460693.01749  20626162.310    20626162.288    20626164.482
        50.250          55.750
 118982431.801 7  92713612.38947  22641593.858    22641593.478    22641594.872
        46.000          46.250
 109413412.337 8  85257210.42849  20820680.488    20820680.068    20820681.468
        50.250          54.750
 126235239.260 6  98365169.22346  24021759.484    24021758.680    24021768.253
        40.000          38.250
 127440187.463 7                  23806896.782
        44.000
 138180186.783 6                  26294808.970
        37.250
 204678713.704 7                  38949068.682
        43.250
  31418543.794 7                   5978728.610
        43.750
 120797327.700 8                  22986968.394
        49.500
 129877157.401 7                  24714802.167
        47.250
 112506142.048 8                  21046602.211
        50.750
 191529223.969 8                  36446844.230
        48.500
 137946908.760 7                  26250435.355
        42.250
 103756426.761 7                  19402976.052
        42.000
 124226929.379 5                  23222942.381
        34.500
 113646287.576 8                  21237522.107
        50.000
 109819426.959 6                  20580110.153
        41.750
 125548767.466 6  97830217.61544  23891133.879    23891132.824    23891134.097
        39.750          24.500
 125102553.141 7  97482504.72345  23806222.178    23806221.208    23806219.470
        42.750          30.750
 21 10 14 11 57 30.0000000  0 23G17S36G04G19G06G07G09G30R07E19S23S48
                                E26E07R05S25E13R20R19R21R06G20G02
 118592069.735 7  92409393.31145  22567328.521    22567328.217    22567330.472
        44.250          34.500
 195854745.750 7                  37269920.277
        46.250
 122144972.620 7  95177900.19844  23243418.076    23243417.907    23243419.355
        42.000          29.750
 113714045.407 7  88608333.35646  21639066.295    21639065.097    21639064.992
        47.500          39.750
 108352615.911 8  84430616.34649  20618817.219    20618817.193    20618819.421
        50.000          56.000
 118922699.746 7  92667068.01547  22630226.999    22630226.619    22630228.102
        45.500          46.500
 109459515.651 8  85293135.07449  20829453.749    20829453.329    20829454.895
        50.000          55.000
 126144842.756 6  98294730.72746  24004557.389    24004556.580    24004565.765
        40.000          38.750
 127362670.743 7                  23792416.037
        43.000
 138116913.269 6                  26282768.429
        37.500
 204678876.616 7                  38949100.775
        43.000
  31418481.021 7                   5978703.654
        43.500
 120806591.111 8                  22988731.166
        49.250
 129931210.680 7                  24725088.151
        47.000
 112579850.667 8                  21060390.945
        50.500
 191531168.172 8                  36447230.564
        48.250
 138021240.931 7                  26264580.610
        42.250
 103792021.995 7                  19409633.204
        42.250
 124355478.052 5                  23246977.032
        34.500
 113549379.026 8                  21219412.715
        50.000
 109798467.242 6                  20576182.028
        41.750
 125483462.311 6  97779330.51644  23878706.154    23878705.072    23878706.394
        39.250          25.250
 125016325.684 7  97415314.55245  23789813.408    23789812.425    23789811.285
        42.750          32.000
 21 10 14 11 58  0.0000000  0 23G17S36G04G19G06G07G09G30R07E19S23S48
                                E26E07R05S25E13R20R19R21R06G20G02
 118682365.196 7  92479753.19145  22584511.191    22584510.901    22584513.312
        44.000          34.250
 195854783.616 7                  37269926.931
        46.750
 122237717.605 6  95250168.97044  23261066.816    23261066.642    23261068.111
        41.000          28.750
 113789256.022 7  88666938.96246  21653378.594    21653377.396    21653377.108
        47.250          39.250
 108314403.240 8  84400840.23349  20611545.707    20611545.681    20611547.893
        50.250          56.000
 118863239.127 7  92620735.14847  22618911.707    22618911.327    22618913.215
        45.500          46.250
 109506024.454 8  85329375.68249  20838304.052    20838303.632    20838305.076
        50.000          55.000
 126054442.368 6  98224289.20546  23987354.523    23987353.696    23987362.892
        40.250          38.750
 127285421.260 7                  23777984.903
        44.000
 138053841.949 6                  26270766.311
        36.750
 204679040.718 7                  38949130.198
        43.000
  31418419.603 7                   5978676.449
        43.750
 120816215.035 8                  22990562.653
        49.000
 129985405.977 7                  24735401.223
        47.000
 112653658.473 8                  21074198.389
        51.000
 191533122.203 8                  36447617.798
        48.250
 138095779.365 7                  26278764.936
        42.000
 103828394.240 7                  19416435.038
        42.000
 124484236.265 5                  23271046.882
        34.750
 113452949.940 8                  21201392.919
        50.500
 109777877.821 6                  20572323.642
        41.500
 125418150.699 6  97728438.38044  23866278.597    23866277.538    23866278.954
        39.500          25.750
 124930168.457 7  97348179.09645  23773418.320    23773417.337    23773416.144
        42.250          31.500
 21 10 14 11 58 30.0000000  0 23G17S36G04G19G06G07G09G30R07E19S23S48
                                E26E07R05S25E13R20R19R21R06G20G02
 118772858.842 7  92550267.50245  22601731.787    22601731.488    22601733.888
        44.250          34.250
 195854828.186 7                  37269935.454
        46.500
 122330616.460 6  95322557.61644  23278745.306    23278745.110    23278746.206
        40.500          28.750
 113864876.475 7  88725863.91846  21667768.692    21667767.494    21667767.326
        47.250          39.500
 108276582.768 8  84371369.72449  20604348.783    20604348.752    20604350.642
        50.500          56.000
 118804055.814 7  92574618.35547  22607649.585    22607649.205    22607650.973
        45.750          46.750
 109552940.875 8  85365933.91849  20847231.901    20847231.477    20847233.060
        50.000          55.000
 125964045.035 6  98153850.06246  23970151.699    23970150.868    23970160.752
        41.000          39.500
 127208443.802 7                  23763605.904
        43.500
 137990977.648 6                  26258803.528
        37.250
 204679210.404 7                  38949163.199
        43.250
  31418365.644 7                   5978650.911
        43.750
 120826204.360 8                  22992463.453
        49.250
 130039746.160 7                  24745741.762
        47.000
 112727567.381 8                  21088024.214
        50.500
 191535090.073 8                  36448006.905
        48.250
 138170527.393 7                  26292989.301
        42.250
 103865546.692 7                  19423382.340
        42.000
 124613204.594 5                  23295157.224
        34.500
 113357009.091 8                  21183464.091
        50.250
 109757661.868 6                  20568535.784
        41.750
 125352837.096 6  97677544.69544  23853849.211    23853848.152    23853849.690
        39.000          25.250
 124844088.043 7  97281103.50345  23757037.876    23757036.884    23757035.352
        42.750          31.000
 21 10 14 11 59  0.0000000  0 23G17S36G04G19G06G07G09G30R07E19S23S48
                                E26E07R05S25E13R20R19R21R06G20G02
 118863536.370 7  92620925.09145  22618987.213    22618986.914    22618989.603
        43.750          34.000
 195854863.392 7                  37269942.926
        46.750
 122423655.313 6  95395055.36044  23296449.799    23296449.616    23296450.419
        40.000          28.250
 113940892.489 7  88785097.09546  21682234.372    21682233.174    21682232.927
        47.500          39.500
 108239145.207 8  84342197.58649  20597224.508    20597224.477    20597226.475
        50.500          56.000
 118745141.526 7  92528711.19647  22596438.431    22596438.056    22596439.927
        45.750          46.750
 109600251.288 8  85402799.15649  20856234.715    20856234.291    20856235.966
        50.000          55.000
 125873642.021 6  98083406.47446  23952948.931    23952948.095    23952957.423
        41.500          40.000
 127131727.017 7                  23749273.276
        43.500
 137928309.296 6                  26246878.161
        36.500
 204679372.749 7                  38949195.623
        43.500
  31418300.500 7                   5978624.560
        43.750
 120836548.237 8                  22994431.808
        49.000
 130094218.311 7                  24756107.441
        46.500
 112801563.125 8                  21101866.593
        51.000
 191537058.726 8                  36448397.890
        48.250
 138245472.628 6                  26307251.137
        41.750
 103903467.192 7                  19430473.576
        42.000
 124742367.724 5                  23319300.903
        34.000
 113261548.895 8                  21165625.161
        50.000
 109737806.041 7                  20564814.767
        42.250
 125287509.776 6  97626640.31844  23841418.258    23841417.217    23841418.222
        40.250          25.500
 124758074.950 7  97214080.30445  23740669.799    23740668.820    23740666.038
        43.250          30.750
 21 10 14 11 59 30.0000000  0 23G17S36G04G19G06G07G09G30R07E19S23S48
                                E26E07R05S25E13R20R19R21R06G20G02
 118954402.368 7  92691729.53745  22636278.529    22636278.230    22636281.148
        43.750          33.250
 195854899.756 7                  37269949.115
        46.750
 122516839.318 6  95467666.20944  23314181.985    23314181.780    23314182.898
        40.500          27.500
 114017308.538 7  88844641.99046  21696775.643    21696774.436    21696774.608
        47.250          39.250
 108202100.184 8  84313331.32549  20590175.127    20590175.096    20590177.204
        50.250          55.750
 118686506.281 7  92483021.47447  22585280.502    22585280.113    22585282.021
        45.500          46.500
 109647961.044 8  85439975.57749  20865313.527    20865313.107    20865314.772
        50.000          54.750
 125783243.536 6  98012966.42346  23935746.091    23935745.264    23935754.997
        41.000          39.750
 127055278.604 7                  23734992.142
        43.750
 137865844.843 6                  26234991.779
        37.000
 204679535.787 7                  38949225.064
        43.250
  31418240.397 7                   5978599.541
        43.750
 120847254.771 8                  22996469.371
        49.250
 130148828.496 7                  24766499.478
        46.750
 112875651.494 8                  21115726.957
        51.000
 191539042.143 8                  36448788.048
        48.000
 138320621.586 6                  26321551.825
        41.750
 103942162.535 6                  19437710.122
        41.750
 124871730.063 5                  23343484.232
        34.250
 113166581.302 8                  21147877.943
        50.250
 109718316.556 7                  20561163.058
        42.000
 125222175.868 6  97575730.80644  23828985.433    23828984.333    23828985.891
        40.000          25.250
 124672138.445 7  97147116.82945  23724317.080    23724316.101    23724314.213
        42.250          30.250
 21 10 14 12  0  0.0000000  0 23G17S36G04G19G06G07G09G30R07E19S23S48
                                E26E07R05S25E13R20R19R21R06G20G02
 119045454.473 7  92762679.00645  22653605.734    22653605.421    22653608.001
        44.000          33.500
 195854939.480 7                  37269957.906
        46.500
 122610166.575 6  95540388.67144  23331941.409    23331941.222    23331942.645
        40.000          27.500
 114094122.214 7  88904496.71946  21711393.052    21711391.841    21711391.846
        47.000          39.250
 108165450.314 8  84284772.97049  20583200.923    20583200.892    20583203.002
        50.250          55.750
 118628153.186 7  92437551.60847  22574176.353    22574175.973    22574177.462
        45.500          46.500
 109696068.533 8  85477461.92349  20874468.151    20874467.731    20874469.476
        50.000          54.750
 125692852.807 6  97942532.39446  23918545.029    23918544.211    23918553.761
        40.750          39.500
 126979099.497 7                  23720761.699
        44.000
 137803585.252 6                  26223143.774
        36.750
 204679700.631 7                  38949256.589
        43.000
  31418182.186 7                   5978571.428
        43.750
 120858325.008 8                  22998575.995
        49.250
 130203575.751 7                  24776917.586
        46.750
 112949830.751 8                  21129603.634
        51.000
 191541028.032 8                  36449182.271
        48.000
 138395973.845 6                  26335890.981
        40.750
 103981631.879 6                  19445090.756
        41.750
 125001288.601 5                  23367703.335
        34.250
 113072111.135 8                  21130224.000
        50.000
 109699192.501 7                  20557578.143
        42.000
 125156836.139 6  97524816.75544  23816551.564    23816550.478    23816551.194
        40.500          24.750
 124586281.425 7  97080215.28345  23707979.106    23707978.123    23707976.237
        42.750          30.500
 21 10 14 12  0 30.0000000  0 23G17S36G04G19G06G07G09G30R07E19S23S48
                                E26E07R05S25E13R20R19R21R06G20G02
 119136681.202 7  92833764.54245  22670965.334    22670965.030    22670967.976
        45.000          33.750
 195854972.517 7                  37269961.832
        46.500
 122703626.834 6  95613214.77944  23349727.019    23349726.841    23349727.956
        41.000          28.500
 114171322.066 7  88964652.36246  21726083.806    21726082.590    21726082.481
        47.000          39.000
 108129189.706 8  84256517.93649  20576300.813    20576300.782    20576302.837
        50.750          56.000
 118570076.726 7  92392297.30847  22563124.508    22563124.128    22563125.802
        45.500          46.750
 109744563.482 8  85515250.18449  20883696.393    20883695.969    20883697.747
        50.250          55.000
 125602464.469 6  97872100.23046  23901344.772    23901343.963    23901353.208
        41.500          40.000
 126903181.421 7                  23706579.156
        45.000
 137741522.860 6                  26211333.850
        37.500
 204679858.065 7                  38949285.967
        43.250
  31418120.901 7                   5978546.772
        43.750
 120869751.459 8                  23000750.327
        49.250
 130258450.620 7                  24787360.078
        46.500
 113024089.867 8                  21143495.323
        50.750
 191543019.835 8                  36449577.218
        48.250
 138471520.371 6                  26350267.284
        41.000
 104021866.396 6                  19452615.112
        41.750
 125131031.500 5                  23391957.385
        33.750
 112978134.511 8                  21112662.052
        50.250
 109680424.095 7                  20554061.532
        42.000
 125091482.326 6  97473891.72244  23804114.714    23804113.619    23804115.075
        40.000          24.500
 124500497.834 7  97013370.93545  23691654.651    23691653.672    23691651.626
        44.000          31.000
 21 10 14 12  1  0.0000000  0 23G17S36G04G19G06G07G09G30R07E19S23S48
                                E26E07R05S25E13R20R19R21R06G20G02
 119228109.143 7  92905006.86945  22688363.818    22688363.528    22688366.496
        44.750          33.750
 195855026.310 7                  37269972.251
        46.500
 122797247.127 6  95686165.59544  23367541.949    23367541.771    23367543.387
        41.250          28.500
 114248934.548 7  89025129.53546  21740852.883    21740851.667    21740851.548
        46.500          38.750
 108093349.844 8  84228590.75849  20569480.754    20569480.723    20569482.615
        50.250          55.750
 118512308.911 7  92347283.50747  22552131.491    22552131.102    22552132.998
        45.250          47.000
 109793473.140 8  85553361.59349  20893003.620    20893003.200    20893005.121
        49.750          55.000
 125512110.720 6  97801695.01346  23884150.633    23884149.820    23884158.885
        40.250          40.000
 126827554.676 7                  23692450.819
        43.750
 137679687.512 6                  26199566.600
        37.500
 204680038.568 7                  38949319.361
        43.000
  31418084.236 7                   5978524.199
        43.500
 120881564.092 8                  23002998.252
        49.250
 130313481.072 7                  24797832.074
        46.500
 113098456.577 8                  21157407.132
        50.250
 191545040.892 8                  36449975.837
        48.000
 138547289.596 6                  26364685.933
        40.250
 104062894.280 6                  19460287.332
        41.500
 125260985.133 5                  23416252.422
        33.750
 112884685.445 8                  21095198.824
        50.750
 109662039.629 7                  20550616.395
        42.000
 125026144.014 6  97422978.77944  23791682.007    23791680.943    23791681.411
        40.250          24.250
 124414819.086 7  96946608.29745  23675350.357    23675349.374    23675348.265
        43.250          32.250
 21 10 14 12  1 30.0000000  0 23G17S36G04G19G06G07G09G30R07E19S23S48
                                E26E07R05S25E13R20R19R21R06G20G02
 119319687.968 7  92976366.75945  22705791.012    22705790.713    22705793.804
        45.000          33.750
 195855058.311 7                  37269977.568
        46.500
 122890977.407 6  95759202.10344  23385378.298    23385378.102    23385379.612
        40.750          27.750
 114326908.928 7  89085888.70746  21755691.146    21755689.930    21755689.617
        46.750          38.250
 108057885.304 8  84200956.03449  20562732.028    20562731.993    20562733.841
        50.500          55.750
 118454804.550 7  92302474.99847  22541188.737    22541188.348    22541190.370
        45.500          47.000
 109842747.738 8  85591757.36949  20902380.421    20902380.001    20902381.420
        49.750          54.500
 125421746.722 6  97731281.80446  23866954.729    23866953.920    23866962.907
        41.250          40.250
 126752171.171 7                  23678368.571
        43.500
 137618032.048 6                  26187833.950
        37.250
 204680194.109 7                  38949349.688
        43.000
  31418024.096 7                   5978497.400
        43.500
 120893715.857 8                  23005310.558
        49.250
 130368618.092 7                  24808324.244
        46.750
 113172880.155 8                  21171329.162
        50.250
 191547042.119 7                  36450373.851
        47.750
 138623232.959 6                  26379137.806
        40.500
 104104666.820 6                  19468099.282
        41.750
 125391097.497 5                  23440574.435
        33.750
 112791719.857 8                  21077826.574
        51.250
 109643989.433 7                  20547233.494
        42.000
 124960773.444 6  97372040.70143  23779241.590    23779240.535    23779241.688
        39.750          23.750
 124329199.789 7  96879891.99645  23659057.866    23659056.883    23659055.984
        44.250          33.000
 21 10 14 12  2  0.0000000  0 23G17S36G04G19G06G07G09G30R07E19S23S48
                                E26E07R05S25E13R20R19R21R06G20G02
 119411447.656 7  93047867.57845  22723252.330    22723252.026    22723255.227
        44.250          33.750
 195855091.298 7                  37269985.711
        46.750
 122984848.902 6  95832348.67044  23403241.683    23403241.469    23403242.859
        40.500          28.000
 114405275.629 7  89146953.58146  21770603.809    21770602.593    21770602.586
        46.500          38.500
 108022831.541 8  84173641.40249  20556061.573    20556061.542    20556063.589
        50.500          56.000
 118397599.816 7  92257899.96147  22530303.125    22530302.736    22530304.777
        45.500          47.250
 109892418.510 8  85630461.85849  20911832.390    20911831.966    20911833.523
        50.000          54.750
 125331408.556 6  97660888.73246  23849763.795    23849762.986    23849771.902
        40.750          40.250
 126677064.914 7                  23664338.197
        44.500
 137556590.278 6                  26176142.119
        37.500
 204680358.258 7                  38949381.928
        43.250
  31417969.479 7                   5978471.492
        43.750
 120906240.669 8                  23007693.988
        49.250
 130423893.643 7                  24818842.933
        46.750
 113247392.600 8                  21185268.751
        50.000
 191549065.861 8                  36450775.112
        48.000
 138699382.825 6                  26393629.063
        40.500
 104147216.572 6                  19476056.938
        41.750
 125521399.037 5                  23464932.396
        33.500
 112699275.860 8                  21060550.606
        50.750
 109626305.767 7                  20543919.112
        42.000
 124895403.622 6  97321103.18843  23766802.993    23766801.943    23766802.693
        39.250          23.750
 124243675.176 7  96813249.46345  23642782.728    23642781.745    23642780.244
        43.500          32.000
 21 10 14 12  2 30.0000000  0 23G17S36G04G19G06G07G09G30R07E19S23S48
                                E26E07R05S25E13R20R19R21R06G20G02
 119503377.285 7  93119500.81445  22740746.237    22740745.947    22740748.840
        44.500          33.250
 195855127.890 7                  37269993.120
        46.500
 123078851.206 6  95905597.14244  23421129.648    23421129.425    23421131.013
        40.500          27.750
 114484022.981 7  89208315.06246  21785589.165    21785587.949    21785587.959
        46.750          38.500
 107988182.713 8  84146642.30449  20549468.209    20549468.178    20549470.182
        50.500          55.750
 118340689.122 7  92213554.03947  22519473.101    22519472.712    22519474.825
        45.750          47.000
 109942475.241 8  85669467.09349  20921357.936    20921357.512    20921358.996
        50.000          54.250
 125241091.026 6  97590511.73746  23832576.805    23832575.996    23832584.930
        41.000          40.250
 126602227.942 7                  23650358.229
        44.000
 137495354.612 6                  26164489.176
        38.000
 204680523.491 7                  38949412.519
        43.000
  31417920.409 7                   5978444.877
        43.750
 120919131.067 8                  23010146.975
        49.500
 130479298.315 7                  24829386.055
        46.750
 113321983.147 8                  21199222.607
        50.250
 191551097.322 8                  36451176.118
        48.000
 138775730.289 6                  26408157.547
        40.500
 104190534.232 7                  19484157.096
        42.000
 125651878.222 5                  23489323.839
        34.000
 112607349.613 8                  21043371.560
        50.750
 109608978.892 6                  20540672.452
        41.750
 124830026.800 6  97270160.26544  23754361.778    23754360.728    23754361.606
        39.750          24.000
 124158239.260 7  96746676.05245  23626524.919    23626523.936    23626522.582
        43.250          32.250
 21 10 14 12  3  0.0000000  0 23G17S36G04G19G06G07G09G30R07E19S23S48
                                E26E07R05S25E13R20R19R21R06G20G02
 119595477.853 7  93191267.24245  22758272.761    22758272.484    22758275.217
        44.500          33.250
 195855176.960 7                  37270000.521
        46.750
 123172986.005 6  95978948.85644  23439042.719    23439042.491    23439044.328
        40.500          28.250
 114563152.216 7  89269974.11546  21800646.880    21800645.660    21800645.768
        46.750          38.500
 107953944.804 8  84119963.40449  20542952.804    20542952.769    20542955.068
        50.500          56.000
 118284078.595 7  92169442.01247  22508700.681    22508700.292    22508702.100
        45.250          47.000
 109992919.699 8  85708774.45449  20930957.054    20930956.630    20930958.138
        49.750          54.250
 125150800.785 6  97520155.99646  23815394.805    23815394.005    23815402.725
        41.000          40.250
 126527664.763 7                  23636428.892
        44.500
 137434329.364 6                  26152876.441
        37.750
 204680693.369 7                  38949444.021
        43.250
  31417876.027 7                   5978420.949
        43.750
 120932391.476 8                  23012670.333
        49.250
 130534834.644 7                  24839954.129
        46.500
 113396653.526 8                  21213190.841
        50.000
 191553135.144 8                  36451579.231
        48.250
 138852278.261 6                  26422724.600
        40.250
 104234622.471 6                  19492401.670
        41.750
 125782535.595 5                  23513749.511
        33.500
 112515949.501 8                  21026291.830
        50.750
 109592011.494 7                  20537492.792
        42.000
 124764646.871 6  97219214.90244  23741920.559    23741919.509    23741919.768
        39.750          24.500
 124072898.259 7  96680176.60445  23610284.941    23610283.962    23610282.830
        43.750          32.500
 21 10 14 12  3 30.0000000  0 23G17S36G04G19G06G07G09G30R07E19S23S48
                                E26E07R05S25E13R20R19R21R06G20G02
 119687737.061 7  93263157.28645  22775829.443    22775829.166    22775831.545
        44.500          33.500
 195855216.383 7                  37270007.760
        46.750
 123267241.284 6  96052394.45744  23456979.304    23456979.094    23456980.663
        41.250          28.750
 114642650.714 7  89331920.90246  21815775.054    21815773.829    21815773.835
        46.750          38.750
 107920110.216 8  84093598.77649  20536514.408    20536514.377    20536516.602
        50.500          56.500
 118227761.502 7  92125558.63347  22497983.935    22497983.555    22497985.177
        45.750          47.500
 110043739.982 8  85748374.66349  20940627.889    20940627.465    20940629.189
        49.500          54.750
 125060530.952 6  97449816.14546  23798216.505    23798215.710    23798224.392
        41.000          40.250
 126453365.348 7                  23622548.317
        43.750
 137373505.240 6                  26141301.881
        38.250
 204680858.326 7                  38949474.961
        43.250
  31417828.029 7                   5978397.688
        43.500
 120946012.702 8                  23015262.478
        49.500
 130590491.515 7                  24850545.310
        46.750
 113471391.945 8                  21227172.514
        50.000
 191555173.851 8                  36451983.483
        48.250
 138929015.989 6                  26437327.522
        40.250
 104279469.962 6                  19500788.817
        41.750
 125913357.337 5                  23538203.479
        33.500
 112425069.608 8                  21009308.669
        50.750
 109575392.000 6                  20534377.705
        41.750
 124699254.148 6  97168259.56744  23729476.327    23729475.290    23729476.195
        40.500          26.250
 123987644.818 7  96613745.38345  23594062.014    23594061.035    23594059.519
        42.500          32.000
 21 10 14 12  4  0.0000000  0 23G17S36G04G19G06G07G09G30R07E19S23S48
                                E26E07R05S25E13R20R19R21R06G20G02
 119780154.536 7  93335170.63845  22793415.823    22793415.528    22793418.464
        44.000          33.000
 195855251.954 7                  37270014.875
        46.500
 123361617.809 6  96125934.54844  23474938.227    23474938.031    23474939.943
        40.750          28.500
 114722517.849 7  89394154.94046  21830973.165    21830971.945    21830972.151
        46.750          38.250
 107886684.115 8  84067552.44949  20530153.650    20530153.610    20530155.688
        50.500          56.000
 118171743.242 7  92081908.10547  22487323.563    22487323.179    22487324.999
        45.750          47.000
 110094936.944 8  85788268.38949  20950370.347    20950369.927    20950371.594
        49.750          54.250
 124970287.393 6  97379496.77346  23781043.487    23781042.683    23781051.336
        40.750          39.500
 126379332.712 7                  23608719.278
        44.250
 137312885.699 6                  26129766.210
        37.750
 204681020.851 7                  38949507.979
        43.000
  31417781.625 7                   5978369.879
        43.750
 120959998.320 8                  23017923.837
        48.750
 130646270.608 7                  24861159.793
        46.500
 113546198.848 8                  21241166.845
        50.500
 191557228.095 8                  36452389.176
        48.250
 139005945.605 6                  26451967.230
        40.500
 104325079.036 6                  19509317.537
        41.750
 126044343.201 5                  23562689.025
        33.250
 112334717.472 8                  20992424.103
        51.000
 109559122.017 7                  20531329.808
        42.000
 124633851.629 6  97117296.61144  23717031.452    23717030.411    23717031.200
        40.500          26.750
 123902483.934 7  96547386.26145  23577856.151    23577855.163    23577853.617
        44.250          32.500
 21 10 14 12  4 30.0000000  0 23G17S36G04G19G06G07G09G30R07E19S23S48
                                E26E07R05S25E13R20R19R21R06G20G02
 119872734.608 7  93407310.68445  22811033.076    22811032.768    22811036.084
        43.750          33.000
 195855289.126 7                  37270023.778
        46.750
 123456120.467 6  96199572.93144  23492921.982    23492921.804    23492923.141
        40.750          28.750
 114802757.973 7  89456679.61646  21846242.385    21846241.165    21846241.428
        47.000          38.750
 107853675.695 8  84041831.58949  20523872.197    20523872.157    20523874.440
        50.750          56.500
 118116033.706 7  92038498.14247  22476722.660    22476722.271    22476723.887
        45.750          47.500
 110146515.580 8  85828459.51949  20960185.521    20960185.101    20960186.864
        50.000          54.750
 124880080.019 6  97309205.58746  23763877.901    23763877.092    23763885.420
        41.000          40.000
 126305574.772 7                  23594941.656
        45.250
 137252478.308 6                  26118271.155
        38.250
 204681189.352 7                  38949539.446
        43.250
  31417740.109 7                   5978345.092
        43.750
 120974355.976 8                  23020656.024
        49.500
 130702177.680 7                  24871798.555
        47.000
 113621079.753 8                  21255174.378
        50.500
 191559294.608 8                  36452796.948
        48.000
 139083073.231 6                  26466644.340
        40.250
 104371455.531 6                  19517990.382
        41.750
 126175496.824 5                  23587206.725
        33.500
 112244904.495 8                  20975640.030
        50.500
 109543207.287 7                  20528346.201
        42.000
 124568446.470 6  97066331.58644  23704584.771    23704583.734    23704585.964
        41.250          28.000
 123817424.868 7  96481106.50345  23561670.296    23561669.304    23561668.320
        44.000          33.000
 21 10 14 12  5  0.0000000  0 23G17S36G04G19G06G07G09G30R07E19S23S48
                                E26E07R05S25E13R20R19R21R06G20G02
 119965465.656 7  93479568.36145  22828679.738    22828679.439    22828682.296
        43.750          32.250
 195855328.967 7                  37270030.691
        47.000
 123550738.411 6  96273301.14444  23510926.950    23510926.772    23510928.661
        40.500          27.500
 114883359.068 7  89519485.57046  21861580.269    21861579.053    21861579.285
        47.000          38.250
 107821078.440 8  84016431.11749  20517669.212    20517669.172    20517671.356
        50.750          56.000
 118060626.312 7  91995323.61547  22466179.008    22466178.615    22466180.279
        46.250          47.000
 110198465.012 8  85868939.57449  20970071.260    20970070.840    20970072.615
        50.000          54.250
 124789902.946 6  97238938.00546  23746717.142    23746716.338    23746725.028
        41.750          40.000
 126232082.541 7                  23581210.847
        43.750
 137192274.767 6                  26106814.659
        37.500
 204681354.847 7                  38949571.069
        43.500
  31417692.566 7                   5978319.658
        44.000
 120989077.488 8                  23023457.472
        49.000
 130758202.693 7                  24882459.856
        46.750
 113696023.575 8                  21269194.017
        50.000
 191561369.811 8                  36453207.044
        48.250
 139160389.227 6                  26481357.325
        39.750
 104418589.329 6                  19526804.458
        41.500
 126306806.319 5                  23611753.286
        33.250
 112155626.025 8                  20958956.667
        50.750
 109527637.480 6                  20525428.781
        41.750
 124503030.002 6  97015357.74044  23692136.559    23692135.527    23692137.244
        41.250          27.750
 123732461.279 7  96414901.12945  23545502.088    23545501.096    23545499.867
        44.500          32.750
 21 10 14 12  5 30.0000000  0 23G17S36G04G19G06G07G09G30R07E19S23S48
                                E26E07R05S25E13R20R19R21R06G20G02
 120058350.080 7  93551945.54845  22846355.144    22846354.863    22846358.048
        43.750          32.500
 195855367.333 7                  37270038.954
        46.750
 123645474.579 6  96347121.47244  23528954.974    23528954.800    23528956.321
        40.000          27.250
 114964323.241 7  89582574.44446  21876987.380    21876986.169    21876986.418
        46.500          38.000
 107788899.641 8  83991356.71349  20511545.873    20511545.833    20511547.988
        50.500          56.250
 118005529.058 7  91952390.75247  22455694.319    22455693.930    22455695.545
        46.000          47.500
 110250788.309 8  85909710.96049  20980027.886    20980027.471    20980028.982
        49.750          54.250
 124699764.269 6  97168700.34046  23729564.566    23729563.762    23729572.183
        41.250          40.500
 126158861.609 7                  23567533.412
        42.750
 137132280.753 6                  26095398.237
        38.000
 204681522.281 7                  38949600.779
        43.250
  31417650.170 7                   5978294.585
        43.750
 121004168.568 8                  23026329.192
        49.250
 130814349.503 7                  24893144.168
        46.750
 113771033.478 8                  21283226.867
        50.500
 191565049.490 8                  36453618.371
        48.000
 139237897.800 6                  26496106.823
        40.500
 104466484.090 6                  19535760.697
        41.750
 126438273.275 5                  23636329.866
        33.750
 112066891.632 8                  20942374.226
        50.250
 109512416.305 7                  20522577.101
        42.250
 124437607.396 6  96964379.12044  23679687.553    23679686.503    23679686.891
        41.250          28.000
 123647600.267 7  96348775.66645  23529353.337    23529352.354    23529350.620
        44.000          32.750
 21 10 14 12  6  0.0000000  0 23G17S36G04G19G06G07G09G30R07E19S23S48
                                E26E07R05S25E13R20R19R21R06G20G02
 120151383.930 7  93624439.17345  22864059.194    22864058.904    22864062.203
        43.250          32.500
 195855405.195 7                  37270046.605
        46.750
 123740325.921 6  96421031.55044  23547004.760    23547004.613    23547005.909
        39.500          27.500
 115045646.634 7  89645943.22746  21892462.945    21892461.729    21892461.898
        46.250          38.250
 107757140.469 8  83966609.28949  20505502.268    20505502.228    20505504.523
        50.500          56.500
 117950743.494 7  91909700.76447  22445268.670    22445268.273    22445270.015
        45.750          47.750
 110303482.388 8  85950771.26649  20990055.202    20990054.787    20990056.533
        49.750          54.500
 124609665.947 6  97098494.12546  23712418.726    23712417.931    23712426.583
        41.000          40.750
 126085911.258 7                  23553906.375
        45.000
 137072495.728 6                  26084021.638
        38.250
 204681691.204 7                  38949632.523
        43.250
  31416007.878 7                   5978269.576
        43.750
 121019628.852 8                  23029271.262
        49.500
 130870615.903 7                  24903851.532
        47.000
 113846106.282 8                  21297270.621
        50.000
 191567146.585 8                  36454031.156
        48.000
 139315597.119 6                  26510893.029
        40.750
 104515137.659 6                  19544859.466
        41.750
 126569893.121 5                  23660935.274
        34.000
 111978704.626 8                  20925894.440
        50.500
 109497541.325 6                  20519789.537
        41.750
 124372177.899 6  96913395.13244  23667236.239    23667235.184    23667236.347
        41.750          28.500
 123562843.468 7  96282731.42745  23513225.026    23513224.056    23513222.081
        43.750          32.500
 21 10 14 12  6 30.0000000  0 23G17S36G04G19G06G07G09G30R07E19S23S48
                                E26E07R05S25E13R20R19R21R06G20G02
 120244558.669 7  93697042.56345  22881790.031    22881789.741    22881793.282
        43.250          32.500
 195855447.858 7                  37270053.407
        46.500
 123835284.768 6  96495025.39244  23565074.628    23565074.468    23565076.040
        39.250          27.000
 115127320.516 7  89709585.11746  21908005.028    21908003.817    21908004.145
        46.250          38.250
 107725797.376 8  83942186.08149  20499537.890    20499537.850    20499540.223
        50.500          56.500
 117896266.803 7  91867251.45647  22434902.242    22434901.849    22434903.377
        46.000          47.500
 110356539.443 8  85992114.41049  21000151.607    21000151.192    21000152.867
        49.500          54.250
 124519605.129 6  97028317.14246  23695280.609    23695279.822    23695288.499
        40.750          41.000
 126013225.839 7                  23540324.623
        43.500
 137012914.453 6                  26072683.672
        38.000
 204681855.571 7                  38949665.170
        43.250
  31415965.134 7                   5978244.074
        43.500
 121035453.101 8                  23032282.467
        49.500
 130926994.860 7                  24914579.916
        46.500
 113921234.376 8                  21311324.994
        50.500
 191569237.536 8                  36454445.380
        48.000
 139393480.511 6                  26525714.143
        40.250
 104564542.932 6                  19554098.599
        41.250
 126701656.976 5                  23685566.221
        34.500
 111891063.624 8                  20909516.781
        50.750
 109483005.149 7                  20517065.202
        42.000
 124306735.999 6  96862401.46644  23654782.657    23654781.602    23654782.735
        40.750          27.500
 123478187.298 7  96216765.60045  23497114.908    23497113.934    23497112.654
        43.250          32.500
 21 10 14 12  7  0.0000000  0 23G17S36G04G19G06G07G09G30R07E19S23S48
                                E26E07R05S25E13R20R19R21R06G20G02
 120337877.403 7  93769758.15545  22899548.148    22899547.849    22899551.897
        44.000          32.750
 195855491.073 7                  37270062.305
        46.500
 123930354.564 6  96569105.69944  23583166.065    23583165.909    23583167.232
        39.000          27.750
 115209347.300 7  89773501.99046  21923614.270    21923613.059    21923613.520
        46.500          38.500
 107694878.389 8  83918093.34949  20493654.164    20493654.129    20493656.463
        50.500          56.500
 117842107.167 7  91825049.20248  22424596.000    22424595.598    22424596.984
        46.250          48.000
 110409963.216 8  86033743.31249  21010317.917    21010317.502    21010319.190
        49.750          54.750
 124429590.673 6  96958176.26046  23678151.179    23678150.401    23678158.742
        41.000          40.750
 125940811.250 6                  23526798.353
        41.500
 136953543.290 6                  26061385.679
        38.000
 204682021.329 7                  38949694.526
        43.000
  31415928.251 7                   5978220.665
        43.500
 121051647.804 8                  23035364.226
        49.750
 130983491.040 7                  24925330.806
        46.500
 113996421.590 8                  21325390.701
        50.500
 191571344.398 8                  36454860.494
        48.000
 139471552.890 6                  26540571.067
        41.000
 104614704.325 6                  19563479.207
        41.500
 126833566.979 5                  23710225.037
        34.250
 111803978.558 8                  20893242.778
        50.500
 109468812.468 7                  20514405.122
        42.000
 124241287.688 6  96811402.81044  23642328.239    23642327.175    23642327.911
        40.000          26.000
 123393639.880 7  96150884.49745  23481026.429    23481025.468    23481023.448
        43.500          32.500
 21 10 14 12  7 30.0000000  0 23G17S36G04G19G06G07G09G30R07E19S23S48
                                E26E07R05S25E13R20R19R21R06G20G02
 120431334.934 7  93842581.88945  22917333.087    22917332.779    22917336.479
        44.000          32.500
 195855530.298 7                  37270068.615
        46.500
 124025531.429 6  96643269.42044  23601277.114    23601276.940    23601278.779
        39.750          27.750
 115291722.292 7  89837690.19546  21939289.735    21939288.524    21939289.034
        46.000          38.250
 107664383.726 8  83894331.25949  20487851.162    20487851.127    20487853.410
        50.500          56.500
 117788265.244 7  91783094.51447  22414349.992    22414349.595    22414351.169
        46.000          47.750
 110463749.691 8  86075654.83149  21020553.159    21020552.744    21020554.542
        49.500          54.500
 124339623.517 6  96888072.24846  23661031.136    23661030.354    23661038.196
        40.500          40.250
 125868665.797 7                  23513322.961
        44.750
 136894380.771 6                  26050127.503
        38.250
 204682187.491 7                  38949727.406
        43.000
  31415889.718 7                   5978196.635
        43.250
 121068211.527 8                  23038516.278
        49.500
 131040101.240 7                  24936103.378
        46.250
 114071664.022 8                  21339465.481
        50.000
 191573461.755 8                  36455275.854
        48.000
 139549811.450 6                  26555463.409
        40.250
 104665618.431 6                  19573000.078
        41.250
 126965618.200 5                  23734909.066
        33.000
 111717451.822 8                  20877073.203
        51.000
 109454959.677 7                  20511809.163
        42.250
 124175831.124 6  96760397.72044  23629872.148    23629871.111    23629871.804
        39.250          25.000
 123309201.586 7  96085088.46345  23464957.968    23464956.998    23464956.411
        43.250          33.500
 21 10 14 12  8  0.0000000  0 23G17S36G04G19G06G07G09G30R07E19S23S48
                                E26E07R05S25E13R20R19R21R06G20G02
 120524930.284 7  93915513.01945  22935143.520    22935143.225    22935147.247
        44.000          32.250
 195855563.195 7                  37270076.203
        46.500
 124120814.711 6  96717516.07044  23619409.308    23619409.121    23619410.542
        40.250          27.750
 115374443.899 7  89902148.49046  21955031.180    21955029.973    21955030.505
        46.250          38.250
 107634316.964 8  83870902.60149  20482129.725    20482129.690    20482132.202
        50.500          56.500
 117734745.041 7  91741390.51848  22404165.722    22404165.316    22404166.789
        46.250          48.000
 110517898.212 8  86117848.47249  21030857.153    21030856.733    21030858.668
        49.500          54.500
 124249708.177 6  96818008.59846  23643920.541    23643919.750    23643927.612
        41.500          40.750
 125796791.323 7                  23499893.064
        44.000
 136835428.776 6                  26038909.027
        37.750
 204682355.727 7                  38949759.459
        43.000
  31415854.379 7                   5978171.848
        43.750
 121085146.266 8                  23041738.881
        49.250
 131096825.686 7                  24946897.674
        46.250
 114146961.087 8                  21353551.468
        49.500
 191575589.139 8                  36455694.425
        48.000
 139628256.744 6                  26570391.316
        40.000
 104717285.196 6                  19582662.202
        41.750
 127097808.853 5                  23759619.778
        32.750
 111631489.229 8                  20861008.910
        51.250
 109441446.721 6                  20509276.663
        41.750
 124110367.873 6  96709387.42544  23617415.325    23617414.257    23617414.669
        38.500          24.250
 123224876.106 7  96019380.31845  23448911.574    23448910.609    23448909.359
        43.750          33.500
 21 10 14 12  8 30.0000000  0 23G17S36G04G19G06G07G09G30R07E19S23S48
                                E26E07R05S25E13R20R19R21R06G20G02
 120618656.208 7  93988545.89945  22952979.332    22952979.046    22952982.837
        43.750          32.250
 195855598.846 7                  37270084.158
        46.750
 124216197.978 6  96791840.66544  23637560.087    23637559.909    23637561.453
        39.250          26.750
 115457504.770 7  89966871.14646  21970837.146    21970835.944    21970836.394
        46.250          38.000
 107604675.970 8  83847805.71049  20476489.331    20476489.296    20476491.683
        50.500          56.750
 117681544.891 7  91699935.91747  22394041.963    22394041.566    22394042.911
        46.250          47.750
 110572402.376 8  86160319.23849  21041229.146    21041228.731    21041230.314
        49.250          54.250
 124159843.190 6  96747984.18546  23626819.489    23626818.689    23626826.755
        41.250          41.000
 125725183.515 7                  23486517.431
        42.500
 136776683.495 6                  26027730.175
        37.750
 204682521.334 7                  38949789.503
        43.000
  31415820.382 7                   5978146.034
        43.750
 121102448.266 8                  23045031.435
        49.000
 131153658.865 7                  24957712.828
        46.000
 114222306.549 8                  21367646.533
        50.000
 191577722.055 8                  36456115.106
        48.000
 139706883.531 6                  26585354.270
        40.250
 104769699.000 6                  19592463.880
        41.500
 127230130.917 5                  23784358.422
        34.250
 111546090.744 8                  20845050.310
        51.000
 109428268.038 7                  20506807.313
        42.250
 124044893.871 6  96658368.73144  23604956.035    23604954.962    23604955.633
        39.750          24.500
 123140661.512 7  95953758.57345  23432886.451    23432885.477    23432883.444
        44.250          34.250
 21 10 14 12  9  0.0000000  0 22G17G04G19G06G07G09G30R07E19S23S48E26
                                E07R05S25E13R20R19R21R06G20G02
 120712518.031 7  94061684.65345  22970840.951    22970840.670    22970844.577
        43.750          31.750
 124311687.661 6  96866248.14544  23655731.332    23655731.149    23655732.759
        40.250          27.750
 115540909.850 7  90031862.01946  21986708.608    21986707.401    21986707.891
        46.250          37.750
 107575471.123 8  83825048.67749  20470931.794    20470931.754    20470934.047
        51.000          56.500
 117628675.798 7  91658739.28147  22383980.988    22383980.604    22383981.997
        46.500          47.250
 110627268.381 8  86203071.95549  21051669.670    21051669.255    21051670.950
        49.500          54.000
 124070039.920 6  96678007.86746  23609730.274    23609729.474    23609737.716
        41.500          41.250
 125653850.784 7                  23473192.647
        43.250
 136718153.698 6                  26016592.249
        37.750
 204682692.739 7                  38949821.100
        43.250
  31415792.222 7                   5978122.495
        44.000
 121120126.315 8                  23048395.429
        49.000
 131210607.808 7                  24968549.849
        46.000
 114297707.098 8                  21381751.921
        50.250
 191579863.484 8                  36456536.735
        48.250
 139785699.192 6                  26600352.709
        40.000
 104822866.433 6                  19602406.754
        41.750
 127362589.709 5                  23809120.902
        33.250
 111461268.850 8                  20829199.285
        50.500
 109415430.298 7                  20504401.764
        42.250
 123979417.797 6  96607348.42944  23592496.180    23592495.116    23592495.711
        40.500          25.250
 123056568.440 7  95888231.52445  23416883.889    23416882.901    23416881.058
        44.750          34.000
 21 10 14 12  9 30.0000000  0 23G17S36G04G19G06G07G09G30R07E19S23S48
                                E26E07R05S25E13R20R19R21R06G20G02
 120806500.546 7  94134917.44145  22988725.304    22988725.023    22988729.323
        43.000          32.000
 195856606.02217                  37270056.935
        46.500
 124407269.092 6  96940727.11844  23673919.732    23673919.549    23673921.696
        39.000          28.500
 115624643.730 7  90097109.09746  22002642.899    22002641.688    22002642.057
        46.000          38.000
 107546692.048 8  83802623.40649  20465455.391    20465455.351    20465457.445
        50.500          56.500
 117576127.591 7  91617792.67847  22373981.536    22373981.147    22373982.394
        46.250          47.500
 110682481.645 8  86246095.26549  21062176.499    21062176.079    21062177.742
        49.250          54.250
 123980288.759 6  96608072.14346  23592651.264    23592650.464    23592657.830
        41.500          40.750
 125582780.828 7                  23459915.577
        46.000
 136659827.319 6                  26005492.979
        37.750
 204682857.946 7                  38949853.957
        43.250
  31415758.714 7                   5978098.125
        43.500
 121138168.424 8                  23051828.687
        49.250
 131267658.815 7                  24979406.140
        46.250
 114373147.998 8                  21395864.750
        50.000
 191582014.953 8                  36456959.183
        48.000
 139864690.333 6                  26615384.783
        40.500
 104876773.255 6                  19612487.349
        41.750
 127495169.075 5                  23833903.924
        33.250
 111377015.209 8                  20813454.356
        51.000
 109402919.487 7                  20502057.232
        42.000
 123913927.016 6  96556316.67444  23580033.331    23580032.267    23580032.937
        41.000          26.000
 122972586.792 7  95822791.27845  23400902.487    23400901.499    23400899.479
        44.000          33.750
 21 10 14 12 10  0.0000000  0 23G17S36G04G19G06G07G09G30R07E19S23S48
                                E26E07R05S25E13R20R19R21R06G20G02
 120900610.778 7  94208249.74145  23006634.143    23006633.866    23006638.297
        43.250          32.000
 195855490.612 7                  37270065.332
        46.500
 124502950.018 6  97015283.62144  23692127.313    23692127.148    23692129.316
        39.250          27.750
 115708713.006 7  90162617.51146  22018640.958    22018639.751    22018640.096
        46.250          37.500
 107518350.699 8  83780539.22449  20460062.117    20460062.077    20460064.253
        50.750          56.250
 117523912.635 7  91577105.75647  22364045.313    22364044.924    22364046.377
        46.750          47.500
 110738049.788 8  86289395.10249  21072750.872    21072750.452    21072752.034
        49.750          54.000
 123890602.532 6  96538187.02146  23575584.224    23575583.424    23575591.078
        41.750          40.750
 125511983.284 7                  23446688.684
        44.250
 136601714.575 6                  25994434.214
        38.000
 204683027.479 7                  38949886.149
        43.000
  31415732.071 7                   5978075.217
        43.500
 121156584.880 8                  23055333.292
        49.250
 131324820.473 7                  24990283.768
        46.250
 114448637.324 8                  21409986.669
        50.000
 191584169.911 7                  36457385.051
        47.750
 139943865.719 6                  26630451.784
        40.750
 104931428.021 6                  19622708.132
        41.500
 127627875.641 5                  23858709.864
        33.000
 111293343.860 8                  20797818.262
        51.250
 109390743.909 7                  20499775.391
        42.000
 123848431.607 7  96505281.30544  23567570.361    23567569.311    23567570.485
        42.000          27.000
 122888728.763 7  95757447.38545  23384944.764    23384943.758    23384942.879
        44.500          33.750
 21 10 14 12 10 30.0000000  0 24G17S36G04G19G06G07G13G09G30R07E19S23
                                S48E26E07R05S25E13R20R19R21R06G20G02
 120994839.367 7  94281674.23445  23024565.420    23024565.139    23024569.660
        43.250          31.000
 195855554.256 7                  37270085.410
        46.500
 124598721.806 6  97089910.91744  23710352.020    23710351.851    23710354.138
        39.750          27.500
 115793108.212 7  90228379.90746  22034700.707    22034699.496    22034699.888
        46.250          37.250
 107490442.574 8  83758792.61549  20454751.320    20454751.280    20454753.517
        50.750          56.250
 117472027.032 7  91536675.46847  22354171.763    22354171.379    22354172.757
        46.750          47.500
                                  25776661.126
        36.000
 110793964.217 8  86332964.77349  21083390.957    21083390.537    21083392.126
        49.500          54.000
 123800977.649 6  96468349.70146  23558529.126    23558528.326    23558535.634
        41.750          40.750
 125441452.142 7                  23433512.881
        43.000
 136543809.446 6                  25983415.462
        37.500
 204683194.447 7                  38949920.589
        43.250
  31415701.728 7                   5978049.795
        43.750
 121175369.602 8                  23058908.007
        49.500
 131382084.999 7                  25001180.858
        46.250
 114524166.502 8                  21424115.778
        50.250
 191586328.285 8                  36457810.325
        48.000
 140023217.922 6                  26645552.222
        40.500
 104986822.347 7                  19633067.539
        42.000
 127760699.123 5                  23883540.698
        32.750
 111210252.392 8                  20782290.605
        51.250
 109378895.403 7                  20497555.358
        42.250
 123782925.220 6  96454237.38144  23555104.807    23555103.761    23555104.799
        41.750          27.500
 122804989.954 7  95692196.37845  23369009.344    23369008.338    23369007.510
        44.000          32.750
 21 10 14 12 11  0.0000000  0 23G17S36G04G19G06G07G09G30R07E19S23S48
                                E26E07R05S25E13R20R19R21R06G20G02
 121089184.767 7  94355189.74945  23042519.120    23042518.843    23042523.488
        43.000          31.750
 195855647.225 7                  37270116.676
        46.500
 124694583.880 6  97164608.58844  23728594.120    23728593.924    23728595.988
        40.000          28.500
 115877827.445 7  90294394.78646  22050822.529    22050821.322    22050821.394
        46.250          37.750
 107462971.195 8  83737386.32949  20449523.907    20449523.867    20449526.051
        50.750          56.500
 117420474.819 7  91496504.96348  22344361.613    22344361.229    22344362.429
        46.750          48.000
 110850224.218 8  86376803.71649  21094096.891    21094096.471    21094098.219
        49.500          54.250
 123711418.485 7  96398563.58046  23541486.403    23541485.616    23541492.984
        42.500          41.250
 125371188.543 7                  23420387.041
        43.000
 136486113.675 6                  25972436.118
        37.500
 204683360.334 7                  38949947.879
        43.000
  31415673.183 7                   5978025.036
        43.750
 121194524.508 8                  23062553.022
        49.500
 131439452.621 7                  25012097.388
        46.250
 114599735.310 8                  21438252.944
        50.250
 191588491.572 7                  36458237.803
        47.750
 140102747.404 6                  26660686.798
        40.000
 105042955.862 6                  19643564.432
        41.500
 127893638.022 5                  23908392.667
        32.750
 111127746.302 8                  20766872.875
        51.750
 109367374.083 7                  20495395.689
        42.000
 123717409.624 6  96403186.28744  23542637.327    23542636.281    23542637.375
        41.500          27.750
 122721374.410 7  95627041.41745  23353098.470    23353097.478    23353095.898
        44.000          33.250
 21 10 14 12 11 30.0000000  0 24G17S36G04G19G06G07G13G09G30R07E19S23
                                S48E26E07R05S25E13R20R19R21R06G20G02
 121183648.723 7  94428797.64745  23060495.764    23060495.483    23060499.527
        43.250          31.750
 195855736.564 7                  37270133.382
        46.750
 124790538.586 6  97239378.43644  23746854.005    23746853.804    23746855.559
        39.750          27.500
 115962872.355 7  90360663.44446  22067005.996    22067004.789    22067004.933
        46.250          37.500
 107435943.067 8  83716325.43649  20444380.570    20444380.530    20444382.626
        50.750          56.250
 117369262.821 7  91456599.56148  22334616.265    22334615.876    22334617.220
        46.750          48.000
 135241903.38515 105383344.25052  25735679.747    25735679.560    25735688.940
        35.250          13.250
 110906832.098 8  86420913.74049  21104869.284    21104868.869    21104870.300
        49.250          54.000
 123621932.508 7  96328834.48746  23524457.087    23524456.283    23524464.330
        42.500          41.750
 125301197.306 7                  23407313.654
        44.500
 136428632.165 6                  25961497.812
        37.750
 204683529.895 7                  38949983.938
        43.000
  31415649.617 7                   5978000.997
        43.750
 121214054.471 8                  23066269.538
        49.250
 131496926.601 7                  25023034.327
        46.000
 114675346.090 8                  21452397.199
        49.750
 191590675.906 8                  36458666.958
        48.000
 140182457.690 6                  26675855.586
        40.000
 105099831.107 6                  19654200.773
        41.500
 128026693.422 5                  23933265.025
        32.750
 111045834.552 8                  20751565.208
        51.250
 109356182.638 7                  20493298.286
        42.250
 123651889.278 6  96352131.51444  23530168.990    23530167.949    23530169.319
        40.500          27.250
 122637888.779 7  95561987.68445  23337211.583    23337210.595    23337208.912
        44.500          33.500
 21 10 14 12 12  0.0000000  0 24G17S36G04G19G06G07G13G09G30R07E19S23
                                S48E26E07R05S25E13R20R19R21R06G20G02
 121278227.091 7  94502494.67045  23078493.397    23078493.116    23078497.486
        42.500          31.500
 195855803.174 7                  37270139.901
        46.500
 124886582.624 6  97314217.88444  23765130.207    23765130.015    23765132.355
        40.250          27.750
 116048238.382 7  90427182.31246  22083250.803    22083249.596    22083249.788
        46.250          37.500
 107409358.854 8  83695610.44549  20439321.762    20439321.722    20439323.732
        50.750          56.500
 117318392.293 7  91416960.24148  22324936.122    22324935.733    22324936.945
        46.750          48.250
 135134333.29116                  25715210.283
        40.250
 110963784.324 8  86465292.08049  21115706.626    21115706.215    21115707.997
        49.000          54.000
 123532521.284 7  96259163.64447  23507442.980    23507442.185    23507449.542
        42.500          42.000
 125231477.101 7                  23394289.920
        46.000
 136371363.967 6                  25950600.131
        37.500
 204683701.368 7                  38950014.547
        43.000
  31415629.333 7                   5977979.296
        43.500
 121233958.551 8                  23070057.110
        49.250
 131554504.284 7                  25033991.001
        45.750
 114750995.689 8                  21466549.074
        50.000
 191592865.636 7                  36459099.516
        47.750
 140262346.367 6                  26691058.070
        40.250
 105157445.152 6                  19664975.060
        41.500
 128159860.328 5                  23958158.778
        32.250
 110964519.536 8                  20736369.902
        51.250
 109345318.380 7                  20491262.575
        42.000
 123586363.093 6  96301072.18044  23517699.994    23517698.953    23517700.039
        40.250          27.000
 122554533.880 7  95497035.81345  23321349.972    23321348.980    23321347.038
        44.000          33.500
 21 10 14 12 12 30.0000000  0 24G17S36G04G19G06G07G13G09G30R07E19S23
                                S48E26E07R05S25E13R20R19R21R06G20G02
 121372910.619 7  94576273.62345  23096511.561    23096511.284    23096515.956
        43.000          31.500
 195855856.433 7                  37270142.548
        46.500
 124982707.664 6  97389120.45544  23783422.180    23783421.984    23783424.135
        39.250          26.250
 116133916.018 7  90493943.98846  22099554.896    22099553.689    22099553.959
        46.750          37.250
 107383214.308 8  83675238.05649  20434346.621    20434346.581    20434348.743
        51.000          56.500
 117267859.212 7  91377583.86948  22315319.870    22315319.477    22315320.792
        47.000          48.250
 135026836.63716                  25694754.336
        38.500
 111021072.526 8  86509932.21848  21126608.373    21126607.962    21126609.620
        49.250          53.750
 123443181.515 7  96189548.49047  23490441.853    23490441.062    23490448.907
        42.500          42.000
 125162021.041 7                  23381312.127
        43.500
 136314303.162 6                  25939741.766
        38.000
 204683869.604 7                  38950047.292
        43.000
  31415605.152 7                   5977955.525
        43.750
 121254230.892 8                  23073914.832
        49.500
 131612178.223 7                  25044966.148
        46.500
 114826676.217 8                  21480706.594
        49.250
 191595063.848 8                  36459531.041
        48.000
 140342406.191 6                  26706293.582
        40.250
 105215789.894 6                  19675885.559
        41.750
 128293129.256 5                  23983072.455
        33.000
 110883799.387 8                  20721284.955
        51.000
 109334773.219 7                  20489286.428
        42.250
 123520825.149 6  96250003.68944  23505228.733    23505227.683    23505229.435
        40.000          27.000
 122471305.983 7  95432182.91745  23305511.828    23305510.840    23305509.409
        44.250          33.500
 21 10 14 12 13  0.0000000  0 24G17S36G04G19G06G07G13G09G30R07E19S23
                                S48E26E07R05S25E13R20R19R21R06G20G02
 121467700.317 7  94650135.29645  23114549.820    23114549.512    23114554.227
        43.000          32.000
 195855901.689 7                  37270143.805
        46.500
 125078915.397 6  97464087.46744  23801730.038    23801729.846    23801731.915
        39.500          27.500
 116219905.916 7  90560948.98846  22115918.394    22115917.174    22115917.424
        45.750          37.500
 107357515.139 8  83655212.71149  20429456.250    20429456.206    20429458.478
        50.750          56.750
 117217669.976 7  91338475.42948  22305769.038    22305768.645    22305770.131
        47.000          48.750
 134919419.12416                  25674312.161
        39.000
 111078698.186 8  86554835.31148  21137574.068    21137573.657    21137575.309
        49.250          53.750
 123353919.881 7  96119994.20947  23473455.984    23473455.189    23473462.532
        42.250          42.250
 125092833.683 7                  23368388.554
        44.000
 136257453.793 6                  25928923.650
        38.000
 204684037.752 7                  38950080.682
        42.750
  31415582.474 7                   5977932.071
        43.500
 121274875.571 8                  23077843.501
        49.000
 131669950.863 7                  25055960.014
        46.000
 114902389.209 8                  21494870.613
        50.000
 191597268.652 8                  36459966.313
        48.000
 140422639.868 6                  26721562.180
        40.250
 105274866.893 6                  19686933.336
        41.250
 128426500.206 5                  24008005.490
        32.500
 110803681.613 8                  20706313.289
        51.250
 109324549.556 7                  20487370.549
        42.000
 123455279.164 6  96198928.95744  23492755.304    23492754.231    23492755.799
        40.000          27.000
 122388211.101 7  95367433.65545  23289699.697    23289698.705    23289696.773
        44.000          34.250
 21 10 14 12 13 30.0000000  0 24G17S36G04G19G06G07G13G09G30R07E19S23
                                S48E26E07R05S25E13R20R19R21R06G20G02
 121562592.314 7  94724076.68345  23132607.359    23132607.051    23132611.895
        42.500          32.000
 195855937.910 7                  37270148.777
        46.500
 125175202.888 6  97539116.61744  23820052.957    23820052.770    23820054.903
        39.250          27.000
 116306203.853 7  90628194.00546  22132340.453    22132339.237    22132339.552
        46.000          37.250
 107332262.507 8  83635535.31849  20424650.834    20424650.790    20424653.103
        50.500          56.500
 117167825.977 7  91299636.00648  22296284.128    22296283.739    22296285.037
        46.750          48.500
 134812082.71916                  25653886.088
        39.500
 111136658.329 8  86599999.04048  21148603.627    21148603.216    21148604.933
        48.750          53.750
 123264738.496 7  96050502.45847  23456485.265    23456484.474    23456491.508
        42.000          42.000
 125023913.732 7                  23355512.541
        44.750
 136200815.408 6                  25918145.665
        38.250
 204684206.179 7                  38950110.526
        43.000
  31415562.758 7                   5977907.660
        43.750
 121295892.107 8                  23081842.836
        49.500
 131727820.111 7                  25066972.084
        46.250
 114978132.241 8                  21509039.609
        49.500
 191599475.003 8                  36460401.657
        48.000
 140503045.563 6                  26736863.116
        40.750
 105334673.751 6                  19698117.692
        41.750
 128559969.566 5                  24032955.672
        32.750
 110724169.522 8                  20691454.677
        51.500
 109314644.686 7                  20485514.411
        42.250
 123389724.478 6  96147847.42444  23480281.372    23480280.313    23480280.442
        40.000          26.500
 122305250.871 7  95302789.33845  23273912.690    23273911.693    23273910.572
        44.500          34.750
 21 10 14 12 14  0.0000000  0 24G17S36G04G19G06G07G13G09G30R07E19S23
                                S48E26E07R05S25E13R20R19R21R06G20G02
 121657585.074 7  94798096.58445  23150684.332    23150684.028    23150688.322
        43.250          31.250
 195855974.994 7                  37270157.975
        46.500
 125271569.392 6  97614207.34544  23838390.787    23838390.604    23838392.732
        39.750          27.500
 116392807.900 7  90695677.55646  22148820.456    22148819.240    22148819.891
        46.250          37.500
 107307459.590 8  83616208.35849  20419931.046    20419931.006    20419933.283
        51.000          56.500
 117118330.824 7  91261068.40548  22286865.354    22286864.965    22286866.132
        46.750          48.250
 134704817.830 5 104964834.23252  25633474.046    25633474.072    25633485.155
        33.750          12.750
 111194951.979 8  86645422.63948  21159696.538    21159696.127    21159697.973
        49.000          53.500
 123175641.544 7  95981076.49146  23439529.898    23439529.107    23439536.453
        42.250          41.750
 124955262.373 7                  23342688.103
        44.000
 136144389.567 6                  25907408.253
        38.000
 204684375.661 7                  38950138.907
        42.750
  31415547.150 7                   5977884.296
        43.750
 121317282.088 8                  23085913.120
        49.250
 131785786.032 7                  25078002.863
        46.000
 115053904.775 8                  21523214.364
        48.750
 191601688.449 7                  36460839.492
        47.750
 140583623.450 6                  26752197.177
        40.250
 105395209.284 6                  19709437.988
        41.750
 128693534.659 5                  24057921.685
        32.500
 110645268.485 8                  20676710.177
        51.250
 109305058.495 7                  20483718.069
        42.000
 123324162.359 6  96096760.09344  23467804.967    23467803.894    23467804.852
        41.250          27.000
 122222428.584 7  95238252.50445  23258152.415    23258151.414    23258149.977
        44.750          34.750
 21 10 14 12 14 30.0000000  0 24G17S36G04G19G06G07G13G09G30R07E19S23
                                S48E26E07R05S25E13R20R19R21R06G20G02
 121752670.958 7  94872189.03145  23168778.936    23168778.628    23168783.118
        43.250          31.000
 195856006.149 7                  37270165.465
        46.250
 125368008.068 6  97689354.29844  23856742.827    23856742.640    23856744.333
        38.750          27.000
 116479710.165 7  90763393.47646  22165357.694    22165356.492    22165356.917
        45.750          37.250
 107283103.549 8  83597229.61049  20415296.297    20415296.253    20415298.339
        50.750          56.500
 117069182.389 7  91222770.97348  22277512.522    22277512.138    22277513.313
        46.500          48.250
                                  25613074.953
        29.000
 111253572.200 8  86691100.71348  21170851.580    21170851.165    21170852.681
        48.750          53.500
 123086627.183 7  95911714.87846  23422591.298    23422590.511    23422597.387
        42.250          41.750
 124886874.619 7                  23329914.137
        45.500
 136088171.822 6                  25896710.068
        38.000
 204684541.639 7                  38950172.069
        42.750
  31413931.878 7                   5977859.680
        43.500
 121339041.087 8                  23090053.892
        49.250
 131843842.589 7                  25089050.641
        46.000
 115129700.061 8                  21537394.014
        49.750
 191603908.697 7                  36461276.329
        47.750
 140664367.671 6                  26767562.856
        40.250
 105456467.149 6                  19720894.086
        41.250
 128827187.492 5                  24082908.767
        33.750
 110566977.549 8                  20662079.620
        51.500
 109295784.385 6                  20481980.349
        41.750
 123258589.005 6  96045664.00444  23455326.930    23455325.871    23455326.145
        41.250          26.750
 122139742.018 7  95173821.42045  23242417.259    23242416.258    23242415.084
        44.750          34.750
 21 10 14 12 15  0.0000000  0 24G17S36G04G19G06G07G13G09G30R07E19S23
                                S48E26E07R05S25E13R20R19R21R06G20G02
 121847859.024 7  94946361.09145  23186892.837    23186892.547    23186897.348
        42.500          30.500
 195856048.951 7                  37270174.923
        46.500
 125464528.683 6  97764565.10144  23875110.193    23875109.992    23875111.666
        38.750          27.000
 116566919.321 7  90831348.52546  22181953.107    22181951.905    22181952.401
        46.000          37.000
 107259208.038 8  83578609.71549  20410749.067    20410749.023    20410751.285
        50.750          56.500
 117020394.551 7  91184754.52748  22268228.724    22268228.335    22268229.335
        46.750          48.250
 134490532.55515 104797858.51051  25592697.789    25592698.088    25592707.020
        34.000          10.500
 111312528.502 8  86737040.66348  21182070.594    21182070.179    21182072.067
        49.000          53.500
 122997710.096 7  95842429.05446  23405670.870    23405670.083    23405676.830
        42.250          41.500
 124818762.475 7                  23317187.995
        44.750
 136032174.241 6                  25886054.178
        38.000
 204684714.847 7                  38950205.740
        43.000
  31413923.482 7                   5977839.638
        43.500
 121361181.095 8                  23094266.979
        49.250
 131902000.232 7                  25100117.596
        46.000
 115205528.197 8                  21551578.889
        50.000
 191606156.718 7                  36461715.178
        47.750
 140745288.960 6                  26782961.887
        40.250
 105518456.737 6                  19732486.266
        41.500
 128960936.690 5                  24107909.215
        31.000
 110489312.638 8                  20647566.182
        51.500
 109286832.733 6                  20480302.370
        41.750
 123193015.707 6  95994567.93944  23442848.258    23442847.190    23442847.716
        41.250          26.250
 122057205.252 7  95109507.06845  23226711.168    23226710.162    23226708.818
        44.750          34.500
