     2.11           OBSERVATION DATA    M (MIXED)           RINEX VERSION / TYPE
teqc  2019Feb25                         20230504 17:04:53UTCPGM / RUN BY / DATE
Linux2.6.32-573.12.1.el6.x86_64|x86_64|gcc|Win64-MinGW64|=+ COMMENT
BIT 2 OF LLI FLAGS DATA COLLECTED UNDER A/S CONDITION       COMMENT
-Unknown-                                                   MARKER NAME
-Unknown-           -Unknown-                               OBSERVER / AGENCY
-Unknown-           -Unknown-           -Unknown-           REC # / TYPE / VERS
-Unknown-           -Unknown-                               ANT # / TYPE
        0.0000        0.0000        0.0000                  APPROX POSITION XYZ
        0.0000        0.0000        0.0000                  ANTENNA: DELTA H/E/N
     1     1                                                WAVELENGTH FACT L1/2
     7    L1    L2    C1    P1    P2    S1    S2            # / TYPES OF OBSERV
 SNR is mapped to RINEX snr flag value [0-9]                COMMENT
  L1 & L2: min(max(int(snr_dBHz/6), 0), 9)                  COMMENT
  2021    10     5     0     0    0.0000000     GPS         TIME OF FIRST OBS
    18                                                      LEAP SECONDS
                                                            END OF HEADER
 21 10  5  0  0  0.0000000  0 27G16S48R01G26G25E11G32E09G29R08E05E25
                                S25R10S23R22E12E04R20E24R02G18R12S36
                                E31G31R21
 134641254.38216 104915273.99353  25621379.401    25621379.459    25621381.283
        37.750          20.250
  31641177.308 7                   6021002.637
        44.250
 119438485.140 7                  22343439.541
        43.500
 119966612.130 7  93480577.02445  22828849.385    22828849.001    22828851.312
        43.250          33.250
 116868740.955 7  91066663.33847  22239341.503    22239340.712    22239342.036
        44.750          46.750
 139980747.434 6                  26637447.960
        36.000
 112680498.678 8  87803015.83347  21442374.683    21442374.607    21442375.801
        50.000          42.750
 123780134.693 7                  23554565.654
        46.250
 109310478.220 8  85177084.77049  20801064.613    20801064.153    20801062.830
        49.750          55.000
 129005552.884 6                  24090867.238
        41.000
 134750278.593 7                  25642124.286
        44.250
 148125486.016 6                  28187340.961
        36.500
 195591046.982 7                  37219945.320
        47.250
 119427266.490 7                  22404216.369
        45.000
 204856134.059 7                  38982813.066
        43.250
 115179322.749 6                  21576953.591
        38.500
 126094816.096 7                  23995029.927
        42.000
 148769937.101 6                  28309979.494
        38.250
 121864233.455 5                  22789186.388
        33.750
 130856076.218 7                  24901042.834
        47.250
 121115644.836 7                  22697020.731
        47.000
 125070099.427 6  97457235.81544  23800042.933    23800042.710    23800045.935
        40.250          29.250
 121360525.874 7                  22718940.739
        44.000
 195972395.117 7                  37292299.863
        47.500
 131209066.905 7                  24968217.347
        46.750
 113214716.314 8  88219268.38146  21544037.743    21544037.498    21544035.119
        48.750          41.000
 107423117.186 8                  20074562.579
        52.500
 21 10  5  0  0 30.0000000  0 27G16S48R01G26G25E11G32E09G29R08E05E25
                                S25R10S23R22E12E04R20E24R02G18R12S36
                                E31G31R21
 134566314.686 5 104856879.27841  25607118.068    25607118.166    25607118.614
        33.000           6.500
  31641902.684 7                   6021033.227
        44.500
 119525168.586 7                  22359655.180
        44.000
 119913992.254 7  93439574.54145  22818836.132    22818835.739    22818838.039
        43.000          32.500
 116928078.855 7  91112900.64047  22250632.835    22250632.044    22250633.706
        45.000          47.000
 139894799.496 4                  26621093.304
        26.000
 112739461.490 8  87848960.85647  21453594.843    21453594.763    21453596.059
        49.750          42.750
 123845970.167 7                  23567093.888
        46.000
 109344361.236 8  85203487.12649  20807512.470    20807512.010    20807510.441
        49.500          55.000
 129118533.522 6                  24111967.251
        40.750
 134748760.683 7                  25641835.306
        44.250
 148081619.023 5                  28178993.073
        35.250
 195588830.338 7                  37219545.750
        46.500
 119472585.278 7                  22412717.996
        44.500
 204856031.362 7                  38982791.455
        43.500
 115059693.441 5                  21554543.212
        34.500
 126025959.810 6                  23981926.860
        41.500
 148855509.948 5                  28326262.883
        32.250
 121959468.704 5                  22806995.868
        33.250
 130840324.655 7                  24898045.367
        47.000
 121099775.758 8                  22694048.015
        48.000
 124984010.761 6  97390153.72845  23783661.003    23783660.793    23783663.694
        38.750          30.250
 121295618.210 7                  22706789.410
        44.000
 195972397.892 7                  37292299.514
        47.000
 131232937.350 7                  24972759.752
        46.250
 113154944.784 8  88172693.16046  21532663.819    21532663.574    21532660.836
        48.500          41.000
 107398450.113 8                  20069953.257
        53.000
 21 10  5  0  1  0.0000000  0 27G16S48R01G26G25E11G32E09G29R08E05E25
                                S25R10S23R22E12E04R20E24R02G18R12S36
                                E31G31R21
 134491485.373 5 104798570.83843  25592879.935    25592879.725    25592878.942
        35.500          19.250
  31641035.735 7                   6021063.858
        44.250
 119612179.567 7                  22375931.895
        44.000
 119861504.798 7  93398675.24345  22808848.131    22808847.742    22808849.378
        43.000          32.250
 116987473.197 7  91159181.93747  22261935.012    22261934.225    22261936.054
        44.750          46.500
 139808719.43114                  26604716.370
        27.500
 112798882.036 8  87895262.55747  21464902.034    21464901.954    21464903.438
        49.750          42.500
 123912031.895 7                  23579665.007
        45.750
 109378774.476 8  85230302.64449  20814060.893    20814060.433    20814059.280
        49.500          55.000
 129231358.433 6                  24133036.442
        41.000
 134747653.694 7                  25641624.508
        44.000
 148037763.582 6                  28170647.872
        36.250
 195586611.543 7                  37219146.174
        46.500
 119518064.311 7                  22421250.206
        45.500
 204855935.971 7                  38982776.565
        43.500
 114940408.357 6                  21532197.540
        37.000
 125957319.657 6                  23968865.154
        41.000
 148940984.676 5                  28342528.238
        34.500
 122055232.424 5                  22824905.894
        33.000
 130824598.840 7                  24895052.914
        46.750
 121084618.559 7                  22691206.851
        46.750
 124897947.544 6  97323091.23144  23767283.660    23767283.419    23767286.886
        41.750          29.000
 121230650.918 7                  22694628.407
        46.000
 195972408.920 7                  37292305.233
        46.750
 131256815.999 7                  24977303.745
        46.250
 113095394.753 8  88126290.54046  21521331.778    21521331.524    21521329.096
        48.500          41.250
 107374602.445 8                  20065496.575
        52.750
 21 10  5  0  1 30.0000000  0 28G16S48R01G26G25E11G32E09G29R08E05E25
                                S25R10S23E03R22E12E04R20E24R02G18R12
                                S36E31G31R21
 134416751.584 5 104740336.7814   25578658.100    25578657.685    25578657.733
        33.250           4.500
  31641762.617 7                   6021093.527
        44.250
 119699498.333 7                  22392267.882
        43.500
 119809134.704 7  93357867.39345  22798882.874    22798882.485    22798883.652
        43.250          32.250
 117046908.787 7  91205495.36547  22273245.346    22273244.559    22273246.214
        44.500          46.500
 139722519.73015                  26588312.285
        34.000
 112858743.168 8  87941907.57147  21476293.478    21476293.398    21476294.606
        49.750          42.750
 123978303.291 7                  23592276.111
        46.000
 109413701.747 8  85257518.70649  20820707.217    20820706.761    20820705.689
        49.500          55.500
 129344008.013 6                  24154073.722
        41.250
 134746942.771 7                  25641489.573
        44.250
 147993904.423 6                  28162301.871
        36.000
 195584378.443 7                  37218743.375
        46.250
 119563690.065 7                  22429808.929
        44.500
 204855833.108 7                  38982756.125
        43.500


 114821458.098 6                  21509913.893
        38.250
 125888883.147 6                  23955842.127
        41.500
 149026344.762 5                  28358772.293
        35.000
 122151505.723 5                  22842908.972
        32.250
 130808883.747 7                  24892062.333
        47.500
 121070157.544 7                  22688496.685
        46.500
 124811898.549 6  97256039.80344  23750909.350    23750909.100    23750912.301
        39.500          28.250
 121165609.107 7                  22682452.860
        46.500
 195972416.541 7                  37292305.180
        47.000
 131280688.395 7                  24981846.225
        46.500
 113036053.470 8  88080050.58346  21510039.336    21510039.077    21510037.096
        48.750          41.500
 107351560.762 8                  20061190.306
        52.500
 21 10  5  0  2  0.0000000  0 28G16S48R01G26G25E11G32E09G29R08E05E25
                                S25R10S23E03R22E12E04R20E24R02G18R12
                                S36E31G31R21
 134342126.294 6 104682187.09343  25564457.880    25564457.241    25564456.893
        38.250          18.500
  31642495.988 7                   6021125.114
        44.250
 119787134.189 7                  22408661.996
        43.000
 119756894.685 7  93317160.88945  22788941.679    22788941.286    22788942.510
        43.500          32.250
 117106398.383 7  91251850.89647  22284565.558    22284564.776    22284566.493
        44.500          46.000
 139636186.316 6                  26571884.152
        37.750
 112919055.547 8  87988904.20447  21487770.461    21487770.385    21487771.646
        50.250          42.500
 124044795.534 7                  23604929.354
        46.250
 109449154.109 8  85285143.92549  20827453.774    20827453.318    20827452.040
        49.750          55.250
 129456491.890 6                  24175080.530
        40.000
 134746640.771 7                  25641431.881
        44.250
 147950054.105 5                  28153957.195
        35.000
 195582142.071 7                  37218340.053
        46.750
 119609476.564 7                  22438398.373
        44.500
 204855736.441 7                  38982737.769
        43.750


 114702860.297 6                  21487696.238
        37.250
 125820665.438 7                  23942860.625
        42.000
 149111601.942 6                  28374995.859
        36.500
 122248297.688 5                  22861007.865
        32.750
 130793192.218 7                  24889076.273
        47.250
 121056405.884 7                  22685919.355
        46.750
 124725880.018 6  97189012.16445  23734540.747    23734540.515    23734544.105
        40.250          31.250
 121100506.357 7                  22670265.258
        47.250
 195972429.197 7                  37292306.915
        47.000
 131304567.934 7                  24986390.553
        46.500
 112976935.851 8  88033984.90946  21498789.706    21498789.447    21498787.075
        48.750          41.000
 107329339.607 8                  20057038.069
        52.500
 21 10  5  0  2 30.0000000  0 28G16S48R01G26G25E11G32E09G29R08E05E25
                                S25R10S23E03R22E12E04R20E24R02G18R12
                                S36E31G31R21
 134267594.966 6 104624110.99143  25550276.004    25550275.249    25550274.458
        39.000          19.750
  31641621.711 7                   6021155.428
        44.250
 119875067.473 7                  22425111.690
        43.000
 119704769.825 7  93276544.11145  22779022.430    22779022.033    22779023.351
        43.750          32.250
 117165926.951 7  91298236.78447  22295893.655    22295892.873    22295894.687
        44.500          46.000
 139549724.51015                  26555430.326
        34.750
 112979802.050 8  88036239.11347  21499330.164    21499330.093    21499331.202
        49.750          42.250
 124111492.187 7                  23617621.374
        45.750
 109485115.664 8  85313165.92749  20834296.915    20834296.455    20834295.102
        49.500          55.000
 129568793.366 7                  24196051.828
        42.000
 134746732.872 7                  25641449.400
        43.750
 147906197.493 6                  28145612.269
        36.000
 195581485.622 7                  37217930.993
        46.500
 119655410.458 7                  22447016.145
        45.750
 204855630.610 7                  38982716.345
        43.750


 114584604.393 6                  21465541.487
        38.500
 125752654.148 6                  23929918.613
        41.750
 149196739.624 6                  28391196.933
        36.750
 122345590.120 5                  22879203.121
        33.250
 130777509.410 7                  24886092.063
        47.250
 121043349.627 7                  22683473.103
        46.750
 124639881.145 6  97122000.24344  23718175.658    23718175.422    23718178.731
        38.000          29.750
 121035327.963 7                  22658063.484
        46.500
 195972435.150 7                  37292306.785
        47.250
 131328440.175 7                  24990933.279
        46.250
 112918029.424 8  87988083.79446  21487580.200    21487579.941    21487577.468
        48.250          41.000
 107307925.757 8                  20053036.386
        52.750
 21 10  5  0  3  0.0000000  0 28G16S48R01G26G25E11G32E09G29R08E05E25
                                S25R10S23E03R22E12E04R20E24R02G18R12
                                S36E31G31R21
 134193167.508 4 104566115.34142  25536111.510    25536110.755    25536111.430
        29.500          17.250
  31642349.531 7                   6021182.642
        44.250
 119963303.799 7                  22441618.042
        43.250
 119652769.350 7  93236024.27445  22769127.292    22769126.899    22769127.928
        43.000          32.750
 117225503.663 7  91344660.18647  22307231.030    22307230.252    22307231.516
        44.500          46.500
 139463142.20615                  26538953.370
        30.750
 113040989.815 8  88083917.87047  21510973.661    21510973.585    21510974.802
        49.500          42.500
 124178400.961 7                  23630353.688
        45.750
 109521593.887 8  85341590.52149  20841238.473    20841238.013    20841236.769
        49.000          55.500
 129680917.555 7                  24216990.327
        42.500
 134747228.495 7                  25641543.641
        43.750
 147862343.648 6                  28137266.771
        36.250
 195579216.872 7                  37217520.726
        46.750
 119701502.633 7                  22455662.523
        45.000
 204855524.421 7                  38982697.117
        43.750


 114466704.608 6                  21443455.726
        38.750
 125684860.855 6                  23917017.875
        41.750
 149281766.704 5                  28407376.615
        31.000
 122443388.602 5                  22897490.989
        34.000
 130761844.683 7                  24883111.127
        47.250
 121030997.136 7                  22681158.397
        46.750
 124553912.603 6  97055011.51444  23701816.575    23701816.316    23701819.224
        39.750          29.000
 120970083.824 7                  22645849.134
        46.000
 195972437.022 7                  37292308.967
        47.250
 131352315.004 7                  24995476.486
        46.250
 112859345.935 8  87942356.40347  21476412.919    21476412.660    21476410.682
        48.500          42.000
 107287330.081 8                  20049187.333
        52.250
 21 10  5  0  3 30.0000000  0 28G16S48R01G26G25E11G32E09G29R08E05E25
                                S25R10S23E03R22E12E04R20E24R02G18R12
                                S36E31G31R21
 134118844.669 6 104508201.59543  25521969.619    25521968.873    25521968.483
        38.500          19.500
  31643080.226 7                   6021213.863
        44.250
 120051839.847 7                  22458180.751
        43.250
 119600894.230 7  93195602.11445  22759255.538    22759255.145    22759256.888
        43.250          32.250
 117285129.389 7  91391121.78047  22318577.544    22318576.766    22318577.806
        44.750          45.750
 139376429.687 5                  26522452.578
        33.500
 113102617.656 8  88131939.53447  21522701.308    21522701.237    21522702.397
        49.750          42.000
 124245521.275 7                  23643126.250
        45.750
 109558588.188 8  85370417.25649  20848278.155    20848277.695    20848276.556
        49.500          54.750
 129792865.350 6                  24237895.863
        39.500
 134748128.662 7                  25641714.966
        44.000
 147818493.393 5                  28128922.004
        35.250
 195576942.430 7                  37217109.896
        46.500
 119747755.192 7                  22464339.512
        44.500
 204855420.470 7                  38982678.462
        43.500


 114349167.105 6                  21421435.462
        38.500
 125617289.208 6                  23904159.311
        41.750
 149366682.483 6                  28423535.745
        39.000
 122541691.021 5                  22915874.079
        32.750
 130746199.056 7                  24880133.762
        47.250
 121019350.011 7                  22678974.811
        45.500
 124467979.990 6  96988051.01144  23685463.972    23685463.736    23685467.086
        36.500          29.000
 120904775.615 7                  22633624.329
        46.000
 195972440.554 7                  37292309.853
        47.250
 131376194.026 7                  25000020.550
        46.250
 112800888.653 8  87896805.27546  21465289.053    21465288.799    21465286.640
        48.750          41.250
 107267555.312 8                  20045492.078
        52.500
 21 10  5  0  4  0.0000000  0 28G16S48R01G26G25E11G32E09G29R08E05E25
                                S25R10S23E03R22E12E04R20E24R02G18R12
                                S36E31G31R21
 134044624.586 5 104450367.55141  25507843.633    25507842.744    25507844.385
        31.500           9.250
  31642211.933 7                   6021245.298
        44.250
 120140669.921 7                  22474798.838
        43.250
 119549142.650 7  93155276.21745  22749407.561    22749407.155    22749409.222
        43.750          33.250
 117344802.310 7  91437620.15047  22329932.776    22329932.003    22329933.183
        44.750          46.000
 139289598.00516                  26505929.034
        38.750
 113164681.570 8  88180300.99347  21534511.710    21534511.639    21534513.012
        49.500          42.250
 124312849.749 7                  23655938.543
        46.000
 109596095.560 8  85399643.78749  20855415.749    20855415.289    20855413.834
        50.000          55.000
 129904629.136 6                  24258766.115
        40.750
 134749431.711 7                  25641962.942
        44.250
 147774644.706 6                  28120578.475
        37.000
 195574657.933 7                  37216697.393
        46.500
 119794168.427 7                  22473046.437
        44.500
 204855317.579 7                  38982660.289
        43.250


 114231995.257 6                  21399486.105
        38.000
 125549939.525 7                  23891342.910
        42.500
 149451483.656 6                  28439672.398
        38.000
 122640491.674 5                  22934350.304
        33.000
 130730570.894 7                  24877159.817
        47.500
 121008406.539 7                  22676924.314
        46.000
 124382084.212 6  96921118.64745  23669119.531    23669119.326    23669122.116
        40.500          30.250
 120839402.124 7                  22621385.223
        45.250
 195972452.835 7                  37292312.057
        47.250
 131400076.023 7                  25004565.122
        46.500
 112742658.034 8  87851430.76346  21454208.014    21454207.755    21454205.392
        49.250          41.250
 107248600.964 8                  20041950.154
        52.750
 21 10  5  0  4 30.0000000  0 29G16S48R01G26G25E11G32G24E09G29R08E05
                                E25S25R10S23E03R22E12E04R20E24R02G18
                                R12S36E31G31R21
 133970514.849 4 104392619.86243  25493743.453    25493742.497    25493742.108
        29.000          21.000
  31642952.286 7                   6021276.009
        44.250
 120229796.231 7                  22491471.414
        43.250
 119497521.245 7  93115051.75645  22739584.675    22739584.286    22739585.809
        44.250          34.000
 117404529.060 7  91484160.47147  22341298.135    22341297.366    22341299.086
        44.250          46.000
 139202653.311 5                  26489383.901
        32.500
 113227186.010 8  88229005.72047  21546405.818    21546405.742    21546407.291
        49.750          42.500
                                  26032479.315
        21.250
 124380391.493 7                  23668791.073
        45.750
 109634120.908 8  85429273.94149  20862651.834    20862651.378    20862649.737
        49.500          55.000
 130016210.890 6                  24279604.422
        38.750
 134751144.336 7                  25642288.969
        44.000
 147730804.112 6                  28112235.246
        36.250
 195572373.983 7                  37216283.227
        46.500
 119840750.406 7                  22481785.229
        44.250
 204855221.883 7                  38982641.338
        43.500
 151726276.62915                  28872553.025
        32.000
 114115200.590 6                  21377607.207
        38.500
 125482821.086 7                  23878570.784
        42.500
 149536175.930 6                  28455788.508
        37.250
 122739794.134 5                  22952922.813
        32.750
 130714966.910 7                  24874190.618
        47.500
 120998173.083 7                  22675006.299
        46.000
 124296236.225 7  96854223.87945  23652782.968    23652782.781    23652786.116
        42.000          30.000
 120773970.652 7                  22609136.982
        45.250
 195972466.443 7                  37292313.926
        47.000
 131423968.171 7                  25009111.547
        46.250
 112684663.174 8  87806239.96246  21443171.961    21443171.702    21443169.199
        49.250          41.750
 107230475.494 8                  20038562.635
        52.250
 21 10  5  0  5  0.0000000  0 28G16S48R01G26G25E11G32E09G29R08E05E25
                                S25R10S23E03R22E12E04R20E24R02G18R12
                                S36E31G31R21
 133896488.518 6 104334936.96142  25479657.529    25479656.841    25479654.803
        36.500          13.250
  31643676.051 7                   6021304.073
        44.250
 120319188.447 7                  22508194.104
        42.750
 119446003.690 7  93074908.21845  22729781.048    22729780.659    22729782.425
        43.750          33.750
 117464283.287 7  91530722.18947  22352669.103    22352668.334    22352669.989
        44.250          46.250
 139115571.639 5                  26472813.150
        34.000
 113290102.512 8  88278031.52747  21558378.459    21558378.388    21558379.833
        49.750          42.250
 124448118.631 7                  23681679.388
        45.750
 109672636.827 8  85459286.36049  20869981.069    20869980.613    20869979.040
        49.500          55.250
 130127582.971 6                  24300400.713
        40.750
 134753240.297 7                  25642687.648
        44.000
 147686945.058 6                  28103889.807
        37.000
 195570052.559 7                  37215865.676
        46.500
 119887475.529 7                  22490550.412
        44.250
 204855107.362 7                  38982621.256
        43.250
 151668606.305 5                  28861578.223
        30.000
 113998761.598 6                  21355793.792
        39.000
 125415910.123 7                  23865838.114
        42.250
 149620731.708 6                  28471878.709
        36.000
 122839567.943 5                  22971580.171
        32.500
 130699360.924 7                  24871220.876
        47.500
 120988623.038 7                  22673216.720
        46.250
 124210413.583 7  96787349.37145  23636451.174    23636450.987    23636454.749
        42.000          31.000
 120708455.147 7                  22596871.312
        44.750
 195972465.982 7                  37292313.497
        47.500
 131447844.932 7                  25013655.251
        46.000
 112626879.851 8  87761213.99746  21432176.354    21432176.100    21432173.689
        48.750          41.750
 107213153.755 8                  20035325.857
        52.250
 21 10  5  0  5 30.0000000  0 28G16S48R01G26G25E11G32E09G29R08E05E25
                                S25R10S23E03R22E12E04R20E24R02G18R12
                                S36E31G31R21
 133822573.255 5 104277340.62542  25465591.243    25465590.515    25465589.068
        34.500          16.500
  31642808.797 7                   6021332.875
        44.250
 120408868.887 7                  22524971.349
        43.000
 119394616.343 7  93034866.13445  22720002.444    22720002.051    22720003.237
        43.250          34.000
 117524091.346 7  91577325.86847  22364050.210    22364049.446    22364050.908
        43.500          46.000
 139028383.272 6                  26456221.069
        37.000
 113353455.125 8  88327397.16947  21570434.170    21570434.103    21570435.417
        49.250          42.250
 124516055.950 7                  23694607.327
        46.000
 109711667.743 8  85489700.06349  20877408.412    20877407.956    20877406.539
        49.250          55.000
 130238768.373 7                  24321163.190
        44.000
 134755745.949 7                  25643164.565
        44.000
 147643093.720 6                  28095544.849
        37.250
 195567732.757 7                  37215445.272
        46.500
 119934372.317 7                  22499348.109
        44.500
 204855001.559 7                  38982598.312
        43.500
 151611223.265 5                  28850659.094
        31.500
 113882710.141 6                  21334052.741
        36.750
 125349235.449 7                  23853150.250
        42.000
 149705176.086 5                  28487947.446
        35.500
 122939836.660 5                  22990329.600
        33.250
 130683779.384 7                  24868255.792
        47.500
 120979782.814 7                  22671560.316
        46.250
 124124644.792 6  96720516.66144  23620130.397    23620130.214    23620133.139
        40.500          28.000
 120642882.946 7                  22584596.276
        45.000
 195972473.917 7                  37292315.080
        47.000
 131471733.118 7                  25018201.083
        46.000
 112569336.778 8  87716375.24446  21421226.302    21421226.048    21421223.719
        48.500          41.750
 107196663.838 8                  20032244.359
        52.500
 21 10  5  0  6  0.0000000  0 28G16S48R01G26G25E11G32E09G29R08E05E25
                                S25R10S23E03R22E12E04R20E24R02G18R12
                                S36E31G31R21
 133748759.256 6 104219823.11741  25451544.501    25451543.849    25451542.427
        38.250           9.250
  31643542.163 7                   6021364.449
        44.250
 120498824.157 7                  22541800.103
        43.250
 119343349.839 7  92994918.21845  22710246.206    22710245.800    22710247.395
        44.000          34.000
 117583943.865 7  91623964.19047  22375439.862    22375439.102    22375440.403
        44.250          45.750
 138941080.544 6                  26439607.453
        36.250
 113417232.327 8  88377093.65747  21582570.734    21582570.663    21582571.910
        49.750          42.250
 124584192.571 7                  23707573.313
        45.750
 109751203.012 8  85520506.77449  20884931.719    20884931.263    20884929.673
        49.750          55.000
 130349754.188 6                  24341889.220
        41.000
 134758652.025 7                  25643717.572
        44.250
 147599240.610 6                  28087199.671
        36.250
 195565412.999 7                  37215023.338
        46.500
 119981433.245 7                  22508177.299
        44.750
 204854894.937 7                  38982579.849
        43.750
 151554119.894 5                  28839792.371
        32.000
 113767041.951 6                  21312384.164
        38.500
 125282790.002 7                  23840505.971
        42.250
 149789498.590 6                  28503993.376
        36.000
 123040586.384 5                  23009171.079
        34.250
 130668213.118 7                  24865293.601
        47.500
 120971643.151 7                  22670034.892
        46.750
 124038924.209 6  96653721.57545  23603817.676    23603817.471    23603820.767
        41.500          30.000
 120577245.273 7                  22572309.555
        45.500
 195972480.178 7                  37292315.795
        47.250
 131495624.081 7                  25022747.160
        46.500
 112512026.942 8  87671718.23146  21410320.494    21410320.240    21410317.677
        49.000          41.750
 107180997.766 8                  20029316.762
        52.750
 21 10  5  0  6 30.0000000  0 28G16S48R01G26G25E11G32E09G29R08E05E25
                                S25R10S23E03R22E12E04R20E24R02G18R12
                                S36E31G31R21
 133675049.903 5 104162387.31042  25437516.122    25437515.514    25437516.745
        32.500          17.750
  31642679.804 7                   6021394.400
        44.250
 120589052.941 7                  22558678.413
        42.750
 119292207.156 7  92955066.78045  22700514.282    22700513.880    22700515.749
        42.750          33.500
 117643843.738 7  91670639.40747  22386838.264    22386837.504    22386839.262
        44.500          46.000
 138853667.653 5                  26422972.247
        33.250
 113481434.818 8  88427121.53747  21594787.964    21594787.897    21594789.259
        49.500          42.000
 124652529.865 7                  23720577.477
        45.250
 109791243.814 8  85551707.40449  20892551.173    20892550.717    20892549.238
        49.500          55.000
 130460540.511 7                  24362577.108
        42.750
 134761961.486 7                  25644347.356
        44.250
 147555388.531 6                  28078854.661
        36.250
 195563078.975 7                  37214599.751
        46.500
 120028661.798 7                  22517036.391
        43.750
 204854791.176 7                  38982561.135
        43.250
 151497301.087 5                  28828980.985
        34.000
 113651764.335 6                  21290788.462
        38.750
 125216579.178 6                  23827906.648
        41.750
 149873700.829 5                  28520015.968
        35.000
 123141817.172 5                  23028103.724
        32.250
 130652665.139 7                  24862334.880
        47.250
 120964206.899 7                  22668641.475
        46.250
 123953258.092 7  96586968.84045  23587516.037    23587515.854    23587518.788
        42.750          30.500
 120511545.874 7                  22560009.132
        45.750
 195972486.478 7                  37292316.766
        47.000
 131519521.453 7                  25027294.785
        46.250
 112454955.861 8  87627247.25346  21399460.276    21399460.026    21399457.519
        49.000          41.750
 107166159.796 8                  20026544.227
        52.500
 21 10  5  0  7  0.0000000  0 28G16S48R01G26G25E11G32E09G29R08E05E25
                                S25R10S23E03R22E12E04R20E24R02G18R12
                                S36E31G31R21
 133601442.456 5 104105031.00443  25423511.129    25423510.481    25423510.500
        35.750          18.000
  31643418.243 7                   6021423.595
        44.250
 120679548.614 7                  22575608.598
        42.750
 119241185.482 7  92915309.64945  22690805.273    22690804.858    22690806.989
        43.250          34.000
 117703788.185 7  91717349.35547  22398245.179    22398244.410    22398246.291
        43.250          46.000
 138766144.377 6                  26406316.529
        37.250
 113546057.513 8  88477476.85147  21607085.125    21607085.063    21607086.534
        49.250          42.250
 124721063.415 7                  23733619.141
        45.250
 109831785.764 8  85583298.53549  20900266.195    20900265.735    20900264.311
        49.250          55.000
 130571121.056 6                  24383225.691
        41.000
 134765671.524 7                  25645053.187
        43.750
 147511534.391 6                  28070509.690
        36.000
 195560736.030 7                  37214173.967
        46.750
 120076057.708 7                  22525928.574
        44.750
 204854687.880 7                  38982538.943
        43.500
 151440765.559 5                  28818221.115
        32.250
 113536879.857 6                  21269267.259
        38.750
 125150602.825 7                  23815351.748
        42.000
 149957778.920 6                  28536015.532
        37.000
 123243522.639 5                  23047121.642
        33.500
 130637132.804 7                  24859379.271
        46.750
 120957470.497 7                  22667379.414
        47.000
 123867647.416 6  96520259.39244  23571224.531    23571224.330    23571227.432
        41.750          28.500
 120445782.398 7                  22547699.057
        46.000
 195972498.395 7                  37292319.288
        47.250
 131543423.030 7                  25031843.248
        45.750
 112398122.935 8  87582961.85747  21388645.373    21388645.123    21388642.860
        48.500          42.000
 107152148.375 8                  20023925.841
        52.250
 21 10  5  0  7 30.0000000  0 28G16S48R01G26G25E11G32E09G29R08E05E25
                                S25R10S23E03R22E12E04R20E24R02G18R12
                                S36E31G31R21
 133527929.210 5 104047747.81542  25409519.455    25409518.794    25409521.034
        34.000          15.500
  31644150.047 7                   6021452.057
        44.250
 120770298.525 7                  22592586.035
        42.750
 119190276.590 7  92875640.39745  22681117.726    22681117.315    22681119.112
        43.000          33.250
 117763769.031 7  91764087.67247  22409659.341    22409658.572    22409660.255
        44.500          45.750
 138678493.75315                  26389638.337
        34.250
 113611089.910 8  88528151.40747  21619460.464    21619460.402    21619461.857
        49.500          42.000
 124789783.450 7                  23746696.126
        45.500
 109872819.214 8  85615272.65849  20908074.263    20908073.807    20908072.547
        49.500          54.500
 130681484.995 6                  24403836.831
        40.000
 134769773.932 7                  25645834.147
        44.250
 147467669.861 6                  28062162.773
        36.250
 195558368.162 7                  37213744.115
        46.500
 120123613.323 7                  22534849.764
        44.250
 204854577.325 7                  38982519.835
        43.500
 151384506.916 5                  28807516.178
        33.500
 113422385.158 6                  21247818.762
        40.000
 125084855.087 7                  23802840.367
        42.500
 150041723.526 6                  28551989.392
        37.000
 123345691.067 5                  23066226.901
        34.000
 130621608.048 7                  24856425.024
        47.250
 120951425.844 7                  22666246.854
        46.750
 123782087.322 6  96453589.68544  23554942.930    23554942.729    23554945.271
        40.500          29.750
 120379947.371 7                  22535374.671
        46.250
 195972498.048 7                  37292318.903
        47.250
 131567321.259 7                  25036390.969
        46.000
 112341522.359 8  87538857.51546  21377874.345    21377874.086    21377872.192
        48.750          41.750
 107138956.495 8                  20021460.389
        52.500
 21 10  5  0  8  0.0000000  0 28G16S48R01G26G25E11G32E09G29R08E05E25
                                S25R10S23E03R22E12E04R20E24R02G18R12
                                S36E31G31R21
 133454522.077 5 103990547.48242  25395553.714    25395553.039    25395552.280
        30.000          16.250
  31643288.265 7                   6021483.815
        44.250
 120861310.841 7                  22609611.045
        42.500
 119139492.470 7  92836068.36645  22671453.458    22671453.052    22671455.193
        43.000          33.250
 117823798.286 7  91810863.70647  22421082.570    22421081.797    22421083.605
        44.500          45.750
 138590750.066 5                  26372941.006
        31.250
 113676541.760 8  88579152.81347  21631915.634    21631915.567    21631917.043
        49.750          42.000
 124858700.396 7                  23759810.698
        45.500
 109914354.354 8  85647637.70849  20915978.586    20915978.126    20915976.279
        49.000          54.250
 130791641.443 6                  24424405.528
        37.250
 134774280.661 7                  25646691.662
        44.250
 147423806.810 6                  28053815.273
        36.000
 195556005.443 7                  37213313.385
        46.500
 120171342.826 7                  22543803.269
        44.000
 204854471.755 7                  38982500.013
        43.250
 151328538.839 5                  28796865.611
        34.750
 113308297.288 6                  21226445.671
        37.750
 125019350.221 7                  23790375.159
        42.500
 150125545.211 5                  28567939.559
        34.000
 123448330.518 5                  23085422.367
        33.000
 130606103.017 7                  24853474.457
        47.250
 120946084.721 7                  22665245.406
        46.000
 123696592.704 7  96386970.70545  23538673.691    23538673.490    23538676.113
        43.750          30.500
 120314053.560 7                  22523039.372
        46.500
 195972505.382 7                  37292321.050
        47.000
 131591228.725 7                  25040940.376
        45.750
 112285168.293 8  87494945.25946  21367150.819    21367150.556    21367148.271
        48.500          41.500
 107126597.445 8                  20019150.760
        52.750
 21 10  5  0  8 30.0000000  0 28G16S48R01G26G25E11G32E09G29R08E05E25
                                S25R10S23E03R22E12E04R20E24R02G18R12
                                S36E31G31R21
 133381216.85216 103933420.40654  25381603.334    25381603.334    25381602.342
        39.250          24.250
  31644024.341 7                   6021512.308
        44.500
 120952573.076 6                  22626683.848
        41.750
 119088824.722 7  92796587.01545  22661812.018    22661811.616    22661813.440
        43.500          33.500
 117883867.520 7  91857670.89847  22432513.454    22432512.681    22432514.289
        44.250          45.500
 138502897.367 5                  26356222.871
        35.250
 113742402.336 8  88630472.70647  21644448.425    21644448.358    21644449.906
        49.500          42.000
 124927804.230 7                  23772960.806
        45.750
 109956381.046 8  85680385.77849  20923975.701    20923975.241    20923973.950
        49.250          54.750
 130901578.215 6                  24444936.253
        37.750
 134779183.289 7                  25647624.736
        44.250
 147379936.611 5                  28045467.759
        35.500
 195553624.348 7                  37212881.248
        47.000
 120219238.859 7                  22552789.059
        44.500
 204854363.209 7                  38982479.810
        43.750
 151272854.500 5                  28786269.118
        34.250
 113194612.700 6                  21205148.607
        39.250
 124954082.267 7                  23777954.914
        42.500
 150209234.703 5                  28583865.391
        35.000
 123551428.989 5                  23104700.383
        32.500
 130590609.451 7                  24850526.070
        47.500
 120941438.219 7                  22664374.584
        46.000
 123611158.545 6  96320398.73444  23522415.780    23522415.575    23522418.527
        40.750          29.500
 120248093.027 7                  22510691.307
        46.250
 195972508.210 7                  37292322.530
        47.250
 131615137.709 7                  25045490.009
        46.250
 112229055.186 8  87451220.76047  21356472.782    21356472.519    21356470.171
        49.250          42.000
 107115064.001 8                  20016995.195
        52.500
 21 10  5  0  9  0.0000000  0 28G16S48R01G26G25E11G32E09G29R08E05E25
                                S25R10S23E03R22E12E04R20E24R02G18R12
                                S36E31G31R21
 133308014.341 5 103876379.55241  25367671.125    25367670.410    25367671.548
        30.500           9.500
  31644768.176 7                   6021542.402
        44.500
 121044090.017 6                  22643804.318
        41.500
 119038281.969 7  92757203.06645  22652194.009    22652193.598    22652195.155
        43.000          33.000
 117943985.399 7  91904515.97747  22443953.511    22443952.729    22443954.202
        44.250          45.250
 138414946.526 5                  26339485.941
        33.250
 113808677.917 8  88682115.98146  21657060.268    21657060.206    21657061.777
        49.250          41.500
 124997101.986 7                  23786147.745
        45.250
 109998906.435 8  85713522.44149  20932068.036    20932067.576    20932066.268
        49.250          54.250
 131011302.090 6                  24465427.798
        39.250
 134784490.322 7                  25648634.575
        44.250
 147336067.734 5                  28037119.620
        35.750
 195551253.475 7                  37212446.570
        46.750
 120267311.461 7                  22561807.068
        44.750
 204854260.586 7                  38982462.232
        43.500
 151217464.420 5                  28775728.871
        34.750
 113081345.452 6                  21183929.769
        39.000
 124889062.391 7                  23765582.164
        42.000
 150292799.334 6                  28599766.997
        36.750
 123654992.051 5                  23124067.635
        32.000
 130575136.106 7                  24847581.642
        47.250
 120937494.422 7                  22663635.598
        46.250
 123525797.531 6  96253883.90544  23506172.182    23506171.977    23506174.513
        41.000          29.250
 120182075.207 7                  22498332.916
        46.750
 195972524.465 7                  37292324.068
        47.250
 131639057.494 7                  25050041.632
        46.000
 112173193.573 8  87407692.23246  21345842.728    21345842.465    21345840.158
        48.750          41.750
 107104365.856 8                  20014996.243
        52.250
 21 10  5  0  9 30.0000000  0 28G16S48R01G26G25E11G32E09G29R08E05E25
                                S25R10S23E03R22E12E04R20E24R02G18R12
                                S36E31G31R21
 133234908.833 5 103819414.17943  25353761.173    25353760.431    25353759.507
        35.500          20.500
  31643908.739 7                   6021571.897
        44.250
 121135846.870 7                  22660969.424
        42.000
 118987853.918 7  92717908.49045  22642597.811    22642597.400    22642599.066
        42.750          33.000
 118004141.734 7  91951391.04247  22455400.794    22455400.016    22455401.694
        44.250          45.500
 138326888.042 5                  26322728.736
        33.250
 113875355.944 8  88734072.84746  21669749.006    21669748.935    21669750.217
        48.750          41.500
 125066581.811 7                  23799369.302
        45.250
 110041918.738 8  85747038.52749  20940252.991    20940252.531    20940251.005
        48.750          54.250
 131120667.89716                  24485875.803
        39.750
 134790191.453 7                  25649719.481
        44.250
 147292189.675 5                  28028769.535
        35.000
 195548857.036 7                  37212011.213
        46.500
 120315551.793 7                  22570856.243
        43.750
 204854154.722 7                  38982439.865
        43.750
 151162359.939 5                  28765242.306
        34.250
 112968489.427 6                  21162789.501
        38.500
 124824282.678 7                  23753254.802
        42.250
 150376227.628 5                  28615643.035
        34.750
 123759005.296 5                  23143519.286
        32.000
 130559672.888 7                  24844639.085
        47.250
 120934243.197 7                  22663025.863
        45.250
 123440502.456 7  96187420.50545  23489940.777    23489940.590    23489942.975
        42.250          30.500
 120115990.822 7                  22485962.024
        47.250
 195972528.645 7                  37292326.317
        47.250
 131662978.478 7                  25054593.789
        45.750
 112117575.371 8  87364353.37647  21335258.900    21335258.637    21335256.534
        49.000          42.250
 107094493.456 8                  20013151.040
        52.250
 21 10  5  0 10  0.0000000  0 28G16S48R01G26G25E11G32E09G29R08E05E25
                                S25R10S23E03R22E12E04R20E24R02G18R12
                                S36E31G31R21
 133161902.540 5 103762526.26942  25339867.828    25339867.059    25339868.045
        35.000          16.750
  31644648.523 7                   6021601.468
        44.250
 121227841.830 7                  22678179.502
        43.500
 118937542.879 7  92678705.09145  22633023.834    22633023.414    22633025.595
        43.500          33.750
 118064338.813 7  91998297.84647  22466855.914    22466855.136    22466856.815
        44.000          45.500
 138238726.292 6                  26305952.555
        36.750
 113942436.364 8  88786343.27046  21682513.914    21682513.847    21682515.215
        49.250          41.750
 125136244.426 7                  23812625.832
        45.250
 110085418.653 8  85780934.56949  20948530.754    20948530.294    20948528.877
        49.500          54.500
 131229938.687 5                  24506279.687
        35.500
 134796288.897 7                  25650879.967
        44.500
 147248304.639 6                  28020418.996
        36.250
 195548043.207 7                  37211572.270
        46.750
 120363964.077 7                  22579938.324
        44.000
 204854047.352 7                  38982420.181
        43.500
 151107545.026 5                  28754811.544
        34.250
 112856052.936 6                  21141725.029
        39.500
 124759747.767 7                  23740974.279
        42.250
 150459520.933 5                  28631493.394
        35.000
 123863467.377 5                  23163054.559
        32.250
 130544222.277 7                  24841699.013
        47.000
 120931686.164 7                  22662546.658
        44.750
 123355278.962 7  96121012.77245  23473723.154    23473722.967    23473725.147
        43.500          30.750
 120049842.667 7                  22473577.628
        46.000
 195972534.999 7                  37292328.137
        47.500
 131686903.648 7                  25059146.702
        46.250
 112062205.628 8  87321208.12247  21324722.251    21324721.988    21324719.996
        49.500          42.250
 107085450.523 8                  20011461.383
        52.250
 21 10  5  0 10 30.0000000  0 28G16S48R01G26G25E11G32E09G29R08E05E25
                                S25R10S23E03R22E12E04R20E24R02G18R12
                                S36E31G31R21
 133088996.735 6 103705716.37843  25325993.595    25325992.800    25325993.718
        36.250          18.750
  31645389.883 7                   6021630.944
        44.250
 121320071.454 7                  22695431.863
        43.000
 118887349.480 7  92639593.35645  22623472.327    22623471.907    22623474.044
        44.000          33.500
 118124577.285 7  92045236.89947  22478318.757    22478317.984    22478319.712
        44.000          44.750
 138150464.873 6                  26289158.171
        37.250
 114009917.370 8  88838925.83346  21695355.022    21695354.951    21695356.467
        49.500          41.500
 125206088.764 7                  23825916.817
        45.500
 110129404.900 8  85815209.56549  20956901.114    20956900.654    20956899.325
        49.500          54.500
 131338981.383 6                  24526643.896
        39.250
 134802783.125 7                  25652115.729
        45.250
 147204413.011 6                  28012066.186
        36.750
 195545624.772 7                  37211131.301
        46.500
 120412550.092 7                  22589054.165
        44.000
 204853939.300 7                  38982400.242
        43.750
 151053021.928 5                  28744436.067
        34.750
 112744040.915 6                  21120740.791
        38.500
 124695460.658 7                  23728740.693
        42.500
 150542678.599 6                  28647317.120
        37.000
 123968375.377 5                  23182672.513
        32.000
 130528785.029 7                  24838761.337
        47.500
 120929823.319 7                  22662197.713
        45.500
 123270131.315 7  96054664.24445  23457519.988    23457519.801    23457521.918
        43.250          30.000
 119983632.129 7                  22461184.013
        46.000
 195972544.348 7                  37292328.937
        47.000
 131710834.239 7                  25063700.571
        46.750
 112007087.269 8  87278258.75247  21314233.532    21314233.264    21314231.340
        49.250          42.000
 107077238.701 8                  20009926.693
        52.250
 21 10  5  0 11  0.0000000  0 28G16S48R01G26G25E11G32E09G29R08E05E25
                                S25R10S23E03R22E12E04R20E24R02G18R12
                                S36E31G31R21
 133016191.528 6 103648985.22443  25312141.140    25312140.345    25312140.086
        38.500          21.000
  31644533.886 7                   6021661.915
        44.250
 121412532.316 7                  22712728.345
        42.750
 118837274.305 7  92600573.75545  22613943.457    22613943.033    22613944.824
        43.500          33.500
 118184857.865 7  92092208.77147  22489790.240    22489789.471    22489790.859
        43.500          44.500
 138062106.188 5                  26272345.266
        32.250
 114077797.235 8  88891819.19346  21708272.158    21708272.096    21708273.603
        49.000          41.500
 125276113.874 7                  23839242.085
        45.250
 110173876.433 8  85849862.71449  20965363.774    20965363.309    20965361.764
        49.500          54.250
 131447792.817 6                  24546965.431
        39.500
 134809674.657 7                  25653427.063
        44.250
 147160515.281 6                  28003712.863
        37.000
 195543193.140 7                  37210689.352
        46.750
 120461311.765 7                  22598201.095
        44.500
 204853832.056 7                  38982381.564
        43.500
 150998793.015 5                  28734117.276
        34.750
 112632458.921 6                  21099839.140
        41.000
 124631424.317 7                  23716555.066
        42.250
 150625700.095 6                  28663115.793
        37.000
 124073726.374 5                  23202374.315
        31.500
 130513361.894 7                  24835826.421
        47.250
 120928654.394 7                  22661979.138
        46.250
 123185063.058 7  95988377.39845  23441331.630    23441331.429    23441333.916
        42.000          30.250
 119917360.692 7                  22448776.820
        45.500
 195972551.255 7                  37292329.608
        47.250
 131734771.536 7                  25068255.303
        46.500
 111952223.134 8  87235507.47647  21303793.477    21303793.209    21303790.965
        49.250          42.250
 107069859.145 8                  20008547.981
        52.500
 21 10  5  0 11 30.0000000  0 28G16S48R01G26G25E11G32E09G29R08E05E25
                                S25R10S23E03R22E12E04R20E24R02G18R12
                                S36E31G31R21
 132943484.715 6 103592330.47142  25298303.974    25298303.147    25298303.589
        38.000          17.250
  31645277.530 7                   6021690.386
        44.500
 121505217.939 6                  22730067.536
        41.750
 118787314.970 7  92561644.41445  22604436.410    22604435.986    22604437.962
        44.250          34.000
 118245178.161 7  92139211.58847  22501268.906    22501268.128    22501269.644
        43.750          44.750
 137973650.968 5                  26255513.699
        30.250
 114146071.165 8  88945019.61846  21721264.373    21721264.306    21721265.630
        49.000          41.500
 125346315.750 7                  23852601.264
        45.000
 110218829.115 8  85884890.78049  20973917.983    20973917.518    20973916.023
        49.000          54.500
 131556368.759 6                  24567241.274
        38.500
 134816960.954 7                  25654813.887
        44.500
 147116608.794 6                  27995357.697
        36.250
 195540756.770 7                  37210245.414
        46.500
 120510248.411 7                  22607382.094
        44.250
 204853724.313 7                  38982358.665
        43.750
 150944857.434 5                  28723852.678
        34.000
 112521309.569 6                  21079016.481
        38.000
 124567638.734 7                  23704417.015
        42.750
 150708581.919 6                  28678887.908
        37.750
 124179513.949 5                  23222154.383
        31.000
 130497950.718 7                  24832893.791
        47.250
 120928176.975 7                  22661889.222
        46.000
 123100075.903 7  95922153.90145  23425158.943    23425158.742    23425161.188
        44.500          30.750
 119851026.661 7                  22436359.733
        45.750
 195972554.011 7                  37292332.090
        47.250
 131758713.829 7                  25072811.701
        46.250
 111897613.253 8  87192954.32047  21293401.685    21293401.422    21293399.146
        49.250          42.500
 107063310.307 8                  20007323.976
        52.750
 21 10  5  0 12  0.0000000  0 28G16S48R01G26G25E11G32E09G29R08E05E25
                                S25R10S23E03R22E12E04R20E24R02G18R12
                                S36E31G31R21
 132870874.491 5 103535751.16243  25284487.205    25284486.369    25284487.523
        31.750          18.750
  31644418.524 7                   6021718.405
        44.250
 121598121.285 7                  22747447.491
        42.500
 118737468.927 7  92522803.35245  22594950.978    22594950.554    22594952.779
        44.250          34.000
 118305535.802 7  92186243.50047  22512754.339    22512753.561    22512754.989
        44.000          44.500
 137885099.743 5                  26238664.064
        31.750
 114214734.205 8  88998523.24446  21734330.534    21734330.463    21734331.653
        49.500          41.000
 125416690.157 7                  23865993.055
        45.250
 110264258.396 8  85920290.22249  20982562.823    20982562.363    20982560.970
        49.500          54.250
 131664702.290 6                  24587471.112
        38.750
 134824639.323 7                  25656274.933
        44.250
 147072690.852 6                  27987000.751
        36.750
 195538299.981 7                  37209797.393
        46.250
 120559358.756 7                  22616594.145
        43.500
 204853612.911 7                  38982339.374
        43.500
 150891214.331 5                  28713644.832
        34.000
 112410594.578 6                  21058276.270
        39.750
 124504103.762 7                  23692326.825
        42.750
 150791320.342 5                  28694632.242
        35.250
 124285731.975 5                  23242021.256
        32.750
 130482549.132 7                  24829962.916
        47.250
 120928387.561 7                  22661928.881
        46.000
 123015169.992 7  95855993.48445  23409002.026    23409001.825    23409004.376
        44.000          30.000
 119784628.293 7                  22423930.121
        46.750
 195972558.509 7                  37292331.916
        47.000
 131782659.269 7                  25077368.333
        46.000
 111843257.286 8  87150599.02247  21283057.852    21283057.593    21283055.367
        49.000          42.000
 107057590.564 8                  20006254.892
        52.750
 21 10  5  0 12 30.0000000  0 28G16S48R01G26G25E11G32E09G29R08E05E25
                                S25R10S23E03R22E12E04R20E24R02G18R12
                                S36E31G31R21
 132798370.059 6 103479254.16243  25270691.779    25270690.984    25270690.202
        39.250          21.250
  31645167.078 7                   6021750.261
        44.250
 121691247.436 7                  22764868.140
        43.000
 118687745.567 7  92484057.88445  22585489.346    22585488.917    22585490.351
        44.500          34.250
 118365940.152 7  92233311.81147  22524249.085    22524248.307    22524249.375
        44.000          44.750
 137796464.754 6                  26221797.236
        37.000
 114283793.354 8  89052335.52346  21747472.058    21747471.987    21747473.184
        49.000          41.250
 125487244.905 7                  23879419.151
        45.250
 110310172.420 8  85956067.38449  20991299.795    20991299.335    20991298.181
        49.250          54.250
 131772800.772 6                  24607657.212
        36.750
 134832718.988 7                  25657812.368
        44.750
 147028770.706 6                  27978642.690
        36.500
 195535851.160 7                  37209350.365
        46.500
 120608653.530 7                  22625841.481
        43.500
 204853507.943 7                  38982320.401
        43.500
 150837874.847 5                  28703495.132
        35.500
 112300329.068 6                  21037619.840
        38.250
 124440831.175 7                  23680286.534
        43.000
 150873923.639 5                  28710351.094
        34.250
 124392386.430 5                  23261966.053
        32.250
 130467166.625 7                  24827035.717
        47.250
 120929295.387 7                  22662098.860
        46.000
 122930358.566 6  95789906.73744  23392862.877    23392862.685    23392865.454
        40.750          29.000
 119718176.008 7                  22411490.282
        47.250
 195972572.970 7                  37292334.084
        47.250
 131806617.910 7                  25081927.601
        46.250
 111789167.055 8  87108450.78947  21272764.810    21272764.551    21272762.117
        49.250          42.000
 107052710.297 8                  20005342.864
        52.250
 21 10  5  0 13  0.0000000  0 28G16S48R01G26G25E11G32E09G29R08E05E25
                                S25R10S23E03R22E12E04R20E24R02G18R12
                                S36E31G31R21
 132725956.037 5 103422827.76742  25256908.256    25256907.487    25256910.391
        35.000          16.500
  31645908.194 7                   6021777.515
        44.500
 121784576.431 6                  22782328.598
        40.750
 118638129.222 7  92445395.80245  22576047.121    22576046.701    22576048.574
        44.500          34.250
 118426375.665 7  92280404.40047  22535749.387    22535748.609    22535750.232
        43.500          44.750
 137707730.734 6                  26204912.036
        37.500
 114353230.522 8  89106442.36546  21760685.630    21760685.554    21760686.802
        49.000          41.250
 125557962.676 7                  23892876.399
        45.500
 110356553.370 8  85992208.38349  21000125.850    21000125.385    21000123.894
        49.000          54.000
 131880645.371 5                  24627794.476
        34.500
 134841184.109 7                  25659423.276
        44.750
 146984832.470 6                  27970282.030
        36.500
 195533372.032 7                  37208899.706
        47.000
 120658118.799 7                  22635121.786
        43.500
 204853393.603 7                  38982299.000
        44.000
 150784824.835 5                  28693399.059
        32.500
 112190502.051 6                  21017044.837
        38.500
 124377807.459 7                  23668293.477
        43.000
 150956375.089 6                  28726041.140
        37.000
 124499457.457 5                  23281989.322
        31.750
 130451787.770 7                  24824109.281
        47.000
 120930883.212 7                  22662396.506
        45.750
 122845629.242 7  95723883.83545  23376739.446    23376739.250    23376741.896
        42.000          30.250
 119651654.472 7                  22399036.296
        47.000
 195972576.746 7                  37292333.579
        47.500
 131830574.742 7                  25086486.350
        46.250
 111735329.489 8  87066499.43647  21262519.686    21262519.427    21262517.249
        49.250          42.250
 107048653.989 8                  20004584.723
        52.750
 21 10  5  0 13 30.0000000  0 28G16S48R01G26G25E11G32E09G29R08E05E25
                                S25R10S23E03R22E12E04R20E24R02G18R12
                                S36E31G31R21
 132653649.269 6 103366484.67543  25243151.289    25243150.565    25243150.095
        37.000          20.000
  31645057.433 7                   6021808.504
        44.500
 121878122.394 6                  22799827.881
        40.250
 118588636.701 7  92406830.20845  22566629.871    22566629.460    22566630.908
        44.000          34.500
 118486859.263 7  92327534.46147  22547258.791    22547258.013    22547259.875
        43.250          44.250
 137618916.571 6                  26188011.601
        37.000
 114423060.071 8  89160854.96146  21773973.629    21773973.545    21773974.979
        48.750          41.000
 125628858.660 7                  23906367.461
        45.500
 110403416.281 8  86028724.93149  21009043.678    21009043.213    21009041.861
        49.000          54.250
 131988250.168 6                  24647892.170
        41.750
 134850051.270 7                  25661110.598
        44.750
 146940892.857 6                  27961919.937
        36.250
 195530900.904 7                  37208448.341
        46.750
 120707772.595 7                  22644437.052
        43.750
 204853287.740 7                  38982278.582
        44.000
 150732082.775 5                  28683363.324
        35.500
 112081135.646 6                  20996557.289
        38.750
 124315051.968 7                  23656351.368
        43.500
 151038690.355 5                  28741705.529
        33.000
 124606958.905 5                  23302092.069
        32.500
 130436429.628 7                  24821186.589
        47.500
 120933168.389 7                  22662824.764
        45.500
 122761002.353 7  95657940.69945  23360635.433    23360635.241    23360637.893
        42.000          30.750
 119585081.894 7                  22386573.916
        47.250
 195972582.666 7                  37292336.723
        47.500
 131854547.321 7                  25091048.225
        46.250
 111681763.490 8  87024759.69847  21252326.594    21252326.326    21252324.266
        49.000          42.250
 107045439.745 8                  20003984.227
        52.500
 21 10  5  0 14  0.0000000  0 28G16S48R01G26G25E11G32E09G29R08E05E25
                                S25R10S23E03R22E12E04R20E24R02G18R12
                                S36E31G31R21
 132581436.296 6 103310215.01842  25229409.799    25229409.030    25229408.804
        39.000          17.500
  31645802.561 7                   6021837.422
        44.250
 121971866.702 6                  22817364.285
        40.000
 118539254.614 7  92368350.66245  22557232.163    22557231.743    22557234.151
        44.000          34.500
 118547377.613 7  92374691.61147  22558775.221    22558774.439    22558776.450
        43.000          44.000
 137530011.404 6                  26171093.733
        37.250
 114493266.115 8  89215560.92546  21787333.370    21787333.303    21787334.676
        48.750          40.750
 125699917.828 7                  23919889.600
        45.000
 110450746.196 8  86065605.37549  21018050.255    21018049.795    21018048.689
        49.250          54.250
 132095598.271 5                  24667937.394
        34.500
 134859306.906 7                  25662872.002
        44.500
 146896938.215 6                  27953556.106
        36.250
 195528414.093 7                  37207993.246
        46.500
 120757602.928 7                  22653784.209
        43.750
 204853177.863 7                  38982258.433
        43.500
 150679636.866 5                  28673382.592
        34.250
 111972220.706 6                  20976154.032
        38.250
 124252553.611 7                  23644458.520
        42.500
 151120854.721 6                  28757341.038
        36.500
 124714872.952 5                  23322271.072
        32.750
 130421078.901 7                  24818265.564
        47.000
 120936135.382 7                  22663381.092
        46.000
 122676467.860 7  95592069.47845  23344549.548    23344549.361    23344551.763
        42.250          31.250
 119518445.216 7                  22374099.943
        47.000
 195972586.969 7                  37292336.749
        47.500
 131878522.930 7                  25095610.753
        46.000
 111628458.100 8  86983223.03247  21242182.951    21242182.683    21242180.538
        49.000          42.250
 107043054.437 8                  20003538.234
        52.500
 21 10  5  0 14 30.0000000  0 28G16S48R01G26G25E11G32E09G29R08E05E25
                                S25R10S23E03R22E12E04R20E24R02G18R12
                                S36E31G31R21
 132509323.663 5 103254023.23542  25215685.977    25215685.244    25215685.081
        34.000          16.000
  31646550.370 7                   6021867.288
        44.500
 122065810.691 6                  22834937.377
        40.500
 118489988.741 7  92329961.68445  22547857.151    22547856.740    22547859.041
        43.500          34.750
 118607936.579 7  92421880.40047  22570299.350    22570298.572    22570300.429
        43.250          44.250
 137441023.184 5                  26154159.887
        32.500
 114563851.990 8  89270562.85746  21800765.295    21800765.228    21800766.675
        48.750          40.750
 125771144.290 7                  23933443.750
        44.500
 110498546.466 8  86102852.34449  21027146.408    21027145.943    21027144.497
        49.250          54.250
 132202694.685 6                  24687936.692
        39.500
 134868956.534 7                  25664708.075
        44.250
 146852974.141 6                  27945189.691
        36.750
 195525925.707 7                  37207536.563
        46.750
 120807617.081 7                  22663167.060
        43.500
 204853069.174 7                  38982235.892
        43.750
 150627494.466 5                  28663460.653
        34.000
 111863768.113 6                  20955837.743
        40.250
 124190320.536 7                  23632615.726
        42.500
 151202873.045 5                  28772947.852
        31.750
 124823201.929 5                  23342530.788
        32.250
 130405741.580 7                  24815346.954
        47.000
 120939790.335 7                  22664065.634
        46.000
 122592035.744 7  95526278.29345  23328482.152    23328481.960    23328484.700
        44.000          30.750
 119451751.440 7                  22361614.306
        46.500
 195972599.013 7                  37292339.294
        47.250
 131902508.048 7                  25100174.829
        45.750
 111575421.198 8  86941895.57947  21232090.415    21232090.143    21232087.764
        49.000          42.250
 107041504.403 8                  20003248.721
        52.500
 21 10  5  0 15  0.0000000  0 28G16S48R01G26G25E11G32E09G29R08E05E25
                                S25R10S23E03R22E12E04R20E24R02G18R12
                                S36E31G31R21
 132437307.405 6 103197906.77543  25201982.714    25201981.995    25201981.414
        37.500          20.000
  31645697.995 7                   6021895.624
        44.250
 122159947.063 6                  22852549.150
        40.250
 118440835.049 7  92291660.12145  22538503.631    22538503.216    22538505.184
        43.750          34.500
 118668532.178 7  92469097.73147  22581830.430    22581829.652    22581830.924
        43.250          43.750
 137351950.622 6                  26137209.854
        36.750
 114634811.170 8  89325855.67946  21814268.801    21814268.743    21814269.826
        48.750          40.500
 125842532.374 7                  23947028.130
        44.500
 110546811.764 8  86140461.67148  21036330.857    21036330.392    21036328.950
        49.000          53.750
 132309532.299 5                  24707889.041
        33.500
 134878995.818 7                  25666618.594
        44.250
 146808996.465 5                  27936821.264
        35.250
 195523430.917 7                  37207078.508
        46.500
 120857811.992 7                  22672584.338
        44.250
 204852958.175 7                  38982215.707
        43.500
 150575653.167 5                  28653595.330
        32.750
 111755778.179 6                  20935607.084
        40.750
 124128350.978 7                  23620823.466
        42.750
 151284740.275 5                  28788527.097
        34.000
 124931938.329 5                  23362864.753
        32.750
 130390413.844 7                  24812430.032
        47.000
 120944127.722 7                  22664878.109
        45.250
 122507704.904 7  95460566.12945  23312434.781    23312434.607    23312436.995
        43.000          31.750
 119384997.086 7                  22349118.226
        46.250
 195972601.131 7                  37292340.367
        47.250
 131926499.259 7                  25104740.181
        45.750
 111522651.210 8  86900776.10847  21222048.619    21222048.351    21222045.980
        49.000          42.250
 107040786.071 8                  20003114.864
        52.750
 21 10  5  0 15 30.0000000  0 28G16S48R01G26G25E11G32E09G29R08E05E25
                                S25R10S23E03R22E12E04R20E24R02G18R12
                                S36E31G31R21
 132365391.284 6 103141868.29042  25188296.714    25188295.910    25188295.803
        36.250          16.750
  31646448.372 7                   6021925.088
        44.500
 122254275.776 6                  22870196.216
        40.750
 118391797.615 7  92253449.15545  22529171.984    22529171.560    22529173.811
        43.250          33.750
 118729168.778 7  92516347.03347  22593369.007    22593368.225    22593369.624
        43.000          43.500
 137262800.119 6                  26120244.966
        36.500
 114706145.296 8  89381440.66046  21827843.281    21827843.223    21827844.371
        48.750          40.500
 125914084.535 7                  23960644.309
        44.250
 110595544.383 8  86178435.14248  21045604.491    21045604.031    21045602.608
        49.250          53.500
 132416113.695 5                  24727790.129
        35.750
 134889428.713 7                  25668603.888
        44.000
 146765009.137 6                  27928450.658
        36.500
 195520918.009 7                  37206617.953
        46.750
 120908193.809 7                  22682033.980
        42.000
 204852848.949 7                  38982194.641
        43.750
 150524118.632 5                  28643789.279
        34.000
 111648260.509 6                  20915465.000
        38.750
 124066651.369 7                  23609082.517
        42.750
 151366459.280 5                  28804077.729
        35.500
 125041082.223 5                  23383275.361
        30.750
 130375100.019 7                  24809516.059
        47.000
 120949150.902 7                  22665819.390
        46.000
 122423482.883 7  95394938.74945  23296407.728    23296407.545    23296409.845
        43.750          30.500
 119318187.189 7                  22336610.787
        46.250
 195972606.977 7                  37292341.279
        47.250
 131950501.435 7                  25109307.453
        45.750
 111470154.830 8  86859869.84347  21212058.934    21212058.666    21212056.362
        49.250          42.250
 107040903.997 8                  20003136.873
        52.500
 21 10  5  0 16  0.0000000  0 28G16S48R01G26G25E11G32E09G29R08E05E25
                                S25R10S23E03R22E12E04R20E24R02G18R12
                                S36E31G31R21
 132293571.083 5 103085904.51843  25174630.310    25174629.537    25174628.879
        32.500          18.750
  31645598.314 7                   6021955.464
        44.500
 122348787.302 6                  22887876.343
        41.000
 118342871.756 7  92215325.11945  22519861.546    22519861.131    22519863.343
        44.000          33.750
 118789841.655 7  92563624.58047  22604914.746    22604913.968    22604915.362
        43.500          43.250
 137173568.305 6                  26103264.335
        36.750
 114777847.125 8  89437312.16646  21841487.472    21841487.401    21841488.749
        49.250          40.250
 125985794.350 7                  23974290.334
        44.500
 110644737.808 8  86216767.68648  21054965.539    21054965.079    21054963.690
        49.000          53.250
 132522430.427 6                  24747644.533
        39.750
 134900250.156 7                  25670663.121
        44.000
 146721007.192 6                  27920076.997
        37.000
 195518397.379 7                  37206153.781
        46.750
 120958758.821 7                  22691520.977
        43.250
 204852737.931 7                  38982174.662
        43.750
 150472887.625 5                  28634039.976
        33.500
 111541214.909 7                  20895412.168
        42.000
 124005219.269 7                  23597392.225
        42.750
 151448024.142 6                  28819599.354
        37.750
 125150625.101 5                  23403759.536
        31.750
 130359795.647 7                  24806603.808
        47.250
 120954853.988 7                  22666888.600
        46.250
 122339368.224 7  95329394.99545  23280401.423    23280401.254    23280403.319
        43.000          30.500
 119251317.962 7                  22324092.371
        45.500
 195972622.378 7                  37292342.621
        47.500
 131974510.608 7                  25113876.565
        46.000
 111417929.800 8  86819175.01847  21202120.646    21202120.387    21202118.078
        49.750          42.250
 107041853.844 8                  20003314.209
        52.500
 21 10  5  0 16 30.0000000  0 27G16S48R01G26G25E11G32E09G29E05E25S25
                                R10S23E03R22E12E04R20E24R02G18R12S36
                                E31G31R21
 132221850.230 6 103030018.12743  25160983.260    25160982.550    25160980.194
        36.500          18.000
  31646350.651 7                   6021985.741
        44.500
 122443481.164 6                  22905591.670
        41.500
 118294060.868 7  92177290.67645  22510573.096    22510572.676    22510574.804
        44.250          34.000
 118850554.369 7  92610933.18147  22616467.669    22616466.882    22616468.501
        43.500          42.750
 137084261.356 6                  26086269.739
        37.750
 114849917.570 8  89493470.90446  21855201.965    21855201.894    21855203.166
        49.000          40.000
 126057663.629 7                  23987966.856
        44.750
 110694393.397 8  86255460.35648  21064414.887    21064414.422    21064412.927
        49.250          53.500
 134911463.286 7                  25672796.878
        43.750
 146676993.912 6                  27911701.788
        37.750
 195515867.195 7                  37205690.521
        46.500
 121009511.813 7                  22701042.425
        43.500
 204852628.367 7                  38982152.755
        43.750
 150421965.290 5                  28624350.321
        34.500
 111434649.744 6                  20875448.508
        41.000
 123944060.373 7                  23585754.083
        43.500
 151529437.284 5                  28835091.936
        35.250
 125260566.948 5                  23424318.292
        33.000
 130344504.224 7                  24803693.916
        47.500
 120961239.646 7                  22668085.593
        46.250
 122255368.285 7  95263940.79245  23264416.291    23264416.108    23264418.257
        43.500          31.000
 119184393.973 7                  22311564.651
        47.000
 195972632.510 7                  37292345.111
        47.500
 131998530.871 7                  25118447.543
        46.000
 111365981.374 8  86778695.72347  21192235.209    21192234.959    21192232.402
        49.250          42.250
 107043639.496 8                  20003648.014
        52.250
 21 10  5  0 17  0.0000000  0 27G16S48R01G26G25E11G32E09G29E05E25S25
                                R10S23E03R22E12E04R20E24R02G18R12S36
                                E31G31R21
 132150225.290 6 102974206.56642  25147351.772    25147350.977    25147350.483
        38.000          17.250
  31647102.144 7                   6022013.845
        44.500
 122538350.155 6                  22923339.551
        41.750
 118245361.331 7  92139342.99445  22501306.187    22501305.758    22501307.460
        44.250          34.000
 118911303.442 7  92658270.11447  22628028.159    22628027.372    22628028.629
        43.500          42.750
 136994874.366 4                  26069260.809
        28.250
 114922350.514 8  89549912.10546  21868985.871    21868985.809    21868986.701
        49.250          40.000
 126129687.107 7                  24001672.344
        44.500
 110744505.766 8  86294508.95248  21073950.952    21073950.487    21073948.935
        49.500          53.500
 134923064.178 7                  25675004.524
        43.750
 146632965.542 6                  27903323.610
        37.250
 195513321.853 7                  37205224.797
        46.500
 121060450.683 7                  22710598.353
        43.500
 204852517.771 7                  38982132.803
        43.500
 150371349.446 5                  28614718.283
        30.250
 111328566.220 7                  20855575.629
        42.000
 123883173.352 7                  23574167.626
        42.750
 151610694.008 5                  28850554.489
        34.500
 125370899.904 5                  23444952.670
        32.750
 130329222.521 7                  24800785.814
        47.500
 120968303.569 7                  22669408.966
        46.000
 122171482.432 7  95198575.45745  23248452.946    23248452.754    23248454.904
        44.250          31.750
 119117412.430 7                  22299024.817
        47.000
 195972633.354 7                  37292343.846
        47.000
 132022559.289 7                  25123019.707
        46.000
 111314308.484 8  86738431.13747  21182402.184    21182401.934    21182399.564
        49.500          42.250
 107046257.626 8                  20004137.239
        52.750
 21 10  5  0 17 30.0000000  0 27G16S48R01G26G25E11G32E09G29E05E25S25
                                R10S23E03R22E12E04R20E24R02G18R12S36
                                E31G31R21
 132078696.867 5 102918470.07942  25133740.076    25133739.276    25133738.198
        31.750          15.250
  31646254.925 7                   6022043.836
        44.500
 122633389.991 6                  22941119.286
        41.250
 118196773.565 7  92101482.40845  22492060.029    22492059.600    22492061.464
        44.750          34.750
 118972089.309 7  92705635.70947  22639595.613    22639594.831    22639596.136
        43.250          43.000
 136905424.10016                  26052237.059
        39.500
 114995143.721 8  89606634.03246  21882837.762    21882837.695    21882838.947
        48.750          40.250
 126201863.440 7                  24015407.263
        44.500
 110795072.995 8  86333911.98848  21083573.486    21083573.026    21083571.804
        49.000          53.750
 134935052.841 7                  25677285.775
        44.000
 146588922.239 6                  27894941.996
        37.750
 195510765.218 7                  37204755.008
        46.500
 121111577.161 7                  22720189.416
        42.750
 204852407.068 7                  38982110.874
        43.750
 150321042.020 5                  28605144.827
        34.750
 111222969.444 6                  20835794.191
        41.500
 123822560.729 7                  23562633.210
        43.000
 151691793.685 6                  28865986.910
        36.000
 125481621.292 5                  23465657.884
        34.250
 130313950.999 7                  24797879.856
        47.500
 120976044.707 7                  22670859.813
        46.000
 122087714.530 7  95133302.04145  23232512.120    23232511.924    23232513.963
        43.250          31.500
 119050374.547 8                  22286475.967
        48.000
 195972636.979 7                  37292346.457
        47.000
 132046596.918 7                  25127593.782
        46.000
 111262913.932 8  86698383.43847  21172622.226    21172621.976    21172619.723
        49.500          42.500
 107049708.675 8                  20004781.944
        52.500
 21 10  5  0 18  0.0000000  0 27G16S48R01G26G25E11G32E09G29E05E25S25
                                R10S23E03R22E12E04R20E24R02G18R12S36
                                E31G31R21
 132007261.493 6 102862806.25643  25120146.292    25120145.519    25120145.856
        37.500          19.000
  31647004.383 7                   6022071.484
        44.500
 122728593.567 7                  22958930.636
        43.000
 118148294.420 7  92063706.45645  22482835.009    22482834.598    22482836.086
        45.000          35.250
 119032909.041 7  92753027.69347  22651168.956    22651168.178    22651169.656
        43.500          43.250
 136815887.193 5                  26035199.500
        33.000
 115068291.539 8  89663632.26946  21896757.344    21896757.282    21896758.710
        48.750          40.250
 126274187.809 7                  24029170.059
        45.000
 110846090.531 8  86373665.91548  21093281.767    21093281.307    21093279.768
        49.000          53.500
 134947425.816 7                  25679640.360
        44.000
 146544860.659 6                  27886557.898
        38.250
 195509801.718 7                  37204284.477
        46.500
 121162889.344 7                  22729814.703
        42.750
 204852291.934 7                  38982089.187
        43.750
 150271041.375 5                  28595630.216
        34.000
 111117860.745 6                  20816102.908
        41.000
 123762221.704 7                  23551151.070
        43.000
 151772731.684 6                  28881388.739
        36.000
 125592723.467 5                  23486434.747
        32.750
 130298686.772 8                  24794975.114
        48.000
 120984458.907 7                  22672437.007
        46.250
 122004065.108 7  95068121.00745  23216594.136    23216593.935    23216595.367
        43.500          31.250
 118983278.117 8                  22273915.292
        48.250
 195972639.595 7                  37292347.110
        47.000
 132070641.351 7                  25132169.422
        46.500
 111211796.892 8  86658551.98147  21162894.908    21162894.649    21162892.276
        49.250          42.250
 107053989.878 8                  20005582.104
        52.500
 21 10  5  0 18 30.0000000  0 27G16S48R01G26G25E11G32E09G29E05E25S25
                                R10S23E03R22E12E04R20E24R02G18R12S36
                                E31G31R21
 131935931.108 6 102807224.10742  25106574.433    25106573.557    25106571.870
        37.250          17.750
  31647762.523 7                   6022101.896
        44.500
 122823968.646 6                  22976772.031
        41.750
 118099935.524 7  92026024.21645  22473632.546    22473632.122    22473633.862
        44.500          35.500
 119093774.437 7  92800455.25647  22662751.310    22662750.523    22662752.089
        43.000          43.250
 136726293.01616                  26018149.593
        36.000
 115141803.076 8  89720913.92746  21910746.489    21910746.431    21910747.690
        48.750          40.500
 126346670.207 7                  24042962.895
        44.750
 110897567.837 8  86413778.10348  21103077.550    21103077.094    21103075.470
        49.250          53.750
 134960194.445 7                  25682070.148
        44.000
 146500792.314 6                  27878171.652
        37.000
 195507236.948 7                  37203813.638
        46.500
 121214400.307 7                  22739479.015
        44.000
 204852184.345 7                  38982069.091
        43.500
 150221360.788 5                  28586175.692
        33.000
 111013257.089 6                  20796507.577
        41.500
 123702170.248 7                  23539723.677
        43.000
 151853518.780 6                  28896762.598
        36.500
 125704214.780 5                  23507283.597
        33.250
 130283441.742 7                  24792074.105
        47.750
 120993556.669 7                  22674142.102
        47.000
 121920549.019 7  95003043.84145  23200701.354    23200701.158    23200702.693
        44.000          31.750
 118916135.826 8                  22261346.439
        48.000
 195972648.019 7                  37292350.254
        47.250
 132094705.078 7                  25136749.088
        46.250
 111160971.351 8  86618947.66347  21153223.154    21153222.900    21153220.478
        49.500          42.750
 107059113.108 8                  20006539.434
        52.750
 21 10  5  0 19  0.0000000  0 27G16S48R01G26G25E11G32E09G29E05E25S25
                                R10S23E03R22E12E04R20E24R02G18R12S36
                                E31G31R21
 131864687.266 5 102751709.49743  25093016.136    25093015.265    25093015.100
        35.500          19.000
  31646910.567 7                   6022130.867
        44.250
 122919492.089 6                  22994642.436
        41.500
 118051677.967 7  91988420.93345  22464449.376    22464448.956    22464451.010
        44.250          35.250
 119154666.655 7  92847903.73247  22674338.584    22674337.793    22674339.355
        43.250          42.500
 136636618.750 5                  26001085.530
        32.750
 115215656.756 8  89778462.18646  21924800.465    21924800.407    21924801.584
        48.750          40.000
 126419289.994 7                  24056782.178
        44.500
 110949483.696 8  86454232.02048  21112956.947    21112956.491    21112954.912
        49.500          53.500
 134973339.377 7                  25684571.411
        44.000
 146456698.065 6                  27869780.888
        37.500
 195504648.505 7                  37203338.269
        46.500
 121266092.483 7                  22749175.550
        42.750
 204852066.892 7                  38982045.843
        43.750
 150171982.751 5                  28576780.967
        32.750
 110909143.700 6                  20777004.333
        41.750
 123642389.624 7                  23528347.807
        42.750
 151934134.884 6                  28912103.602
        37.250
 125816072.429 5                  23528200.772
        32.500
 130268197.226 7                  24789173.063
        47.500
 121003318.074 7                  22675971.050
        46.500
 121837150.920 7  94938058.64745  23184830.933    23184830.728    23184832.506
        44.000          31.750
 118848929.509 7                  22248765.231
        47.250
 195972654.918 7                  37292350.263
        47.250
 132118769.764 7                  25141328.216
        46.000
 111110420.761 8  86579557.59547  21143603.549    21143603.290    21143601.115
        49.250          42.250
 107065059.188 8                  20007650.719
        52.500
 21 10  5  0 19 30.0000000  0 27G16S48R01G26G25E11G32E09G29E05E25S25
                                R10S23E03R22E12E04R20E24R02G18R12S36
                                E31G31R21
 131793542.508 6 102696272.02343  25079478.859    25079478.010    25079475.854
        37.250          19.500
  31647664.044 7                   6022159.665
        44.500
 123015172.583 6                  23012541.947
        41.250
 118003534.476 7  91950906.54945  22455287.933    22455287.522    22455289.720
        44.750          35.500
 119215598.663 7  92895383.19947  22685933.470    22685932.683    22685934.152
        43.500          42.500
 136546886.432 6                  25984007.168
        38.500
 115289862.839 8  89836285.05246  21938921.402    21938921.344    21938922.530
        48.750          39.500
 126492058.265 7                  24070629.713
        44.750
 111001849.399 8  86495036.45848  21122921.696    21122921.240    21122919.891
        49.250          53.250
 134986872.980 7                  25687146.790
        43.750
 146412590.539 6                  27861387.502
        37.750
 195502059.998 7                  37202861.111
        46.750
 121317979.796 7                  22758909.906
        43.500
 204851952.400 7                  38982025.395
        43.750
 150122921.542 5                  28567443.830
        35.250
 110805538.322 6                  20757594.584
        41.000
 123582894.871 7                  23517026.308
        42.750
 152014591.606 5                  28927413.365
        35.000
 125928305.205 5                  23549191.175
        31.500
 130252966.144 7                  24786274.673
        47.500
 121013754.190 7                  22677926.948
        47.000
 121753887.015 7  94873178.00645  23168986.159    23168985.949    23168987.517
        43.500          31.750
 118781673.167 7                  22236174.519
        46.750
 195972661.412 7                  37292351.322
        47.000
 132142848.938 7                  25145910.373
        46.250
 111060160.101 8  86540393.44347  21134039.387    21134039.128    21134036.757
        49.250          42.250
 107071841.208 8                  20008918.437
        52.250
 21 10  5  0 20  0.0000000  0 27G16S48R01G26G25E11G32E09G29E05E25S25
                                R10S23E03R22E12E04R20E24R02G18R12S36
                                E31G31R21
 131722493.572 5 102640909.30142  25065956.478    25065955.593    25065955.814
        33.750          15.500
  31646818.191 7                   6022188.104
        44.250
 123111003.163 6                  23030469.414
        41.000
 117955501.642 7  91913478.37345  22446148.153    22446147.747    22446149.330
        44.750          35.750
 119276567.171 7  92942891.10847  22697535.310    22697534.519    22697536.063
        42.250          42.500
 136457087.340 6                  25966916.866
        40.250
 115364415.217 8  89894377.75446  21953107.839    21953107.768    21953109.436
        48.250          39.750
 126564969.842 7                  24084504.249
        44.500
 111054659.625 8  86536187.28648  21132971.416    21132970.960    21132969.273
        49.250          53.500
 135000791.416 7                  25689795.475
        43.250
 146368466.092 6                  27852991.420
        37.250
 195499459.691 7                  37202382.473
        46.500
 121370060.363 7                  22768680.846
        44.250
 204851837.911 7                  38982003.189
        43.750
 150074175.171 5                  28558168.178
        35.500
 110702442.185 6                  20738281.108
        41.250
 123523684.705 7                  23505758.921
        42.750
 152094884.650 5                  28942691.985
        32.250
 126040905.942 5                  23570247.428
        32.250
 130237745.359 7                  24783378.285
        47.250
 121024860.779 7                  22680008.390
        47.000
 121670757.131 7  94808401.79445  23153166.747    23153166.533    23153168.227
        43.750          32.000
 118714364.171 7                  22223573.726
        45.750
 195972663.970 7                  37292351.707
        47.250
 132166939.859 7                  25150494.703
        46.000
 111010188.311 8  86501454.38747  21124530.171    21124529.917    21124527.454
        49.500          42.500
 107079455.689 8                  20010340.947
        52.500
 21 10  5  0 20 30.0000000  0 27G16S48R01G26G25E11G32E09G29E05E25S25
                                R10S23E03R22E12E04R20E24R02G18R12S36
                                E31G31R21
 131651542.882 6 102585623.04343  25052455.613    25052454.800    25052454.367
        36.750          18.750
  31647576.286 7                   6022217.554
        44.250
 123206982.029 6                  23048424.376
        40.250
 117907581.953 7  91876138.36246  22437028.990    22437028.584    22437030.555
        45.000          36.000
 119337574.785 7  92990429.49447  22709145.095    22709144.295    22709145.700
        42.500          43.000
 136367221.952 6                  25949816.002
        39.250
 115439313.860 8  89952740.26246  21967361.247    21967361.171    21967362.420
        48.000          40.000
 126638025.581 7                  24098406.368
        44.250
 111107913.994 8  86577684.19448  21143105.108    21143104.652    21143103.311
        49.000          53.750
 135015096.779 7                  25692517.661
        43.750
 146324327.071 6                  27844591.555
        37.500
 195496849.696 7                  37201902.927
        46.250
 121422337.699 7                  22778486.668
        43.500
 204851726.335 7                  38981982.704
        43.500
 150025747.620 5                  28548952.004
        35.500
 110599862.488 6                  20719065.000
        41.500
 123464763.883 7                  23494546.715
        42.750
 152175015.351 5                  28957941.331
        35.750
 126153873.502 5                  23591372.846
        32.250
 130222537.588 7                  24780484.385
        47.500
 121036638.513 7                  22682215.416
        47.000
 121587767.504 7  94743734.98845  23137373.833    23137373.623    23137375.346
        43.750          32.250
 118647006.065 7                  22210964.051
        46.500
 195972671.758 7                  37292353.706
        47.250
 132191045.716 7                  25155081.892
        45.750
 110960510.134 8  86462744.11247  21115076.523    21115076.264    21115073.912
        49.250          43.000
 107087905.092 8                  20011919.650
        52.250
 21 10  5  0 21  0.0000000  0 27G16S48R01G26G25E11G32E09G29E05E25S25
                                R10S23E03R22E12E04R20E24R02G18R12S36
                                E31G31R21
 131580686.502 5 102530410.29042  25038971.726    25038970.908    25038970.855
        34.750          16.250
  31648333.717 7                   6022247.291
        44.250
 123303100.845 6                  23066406.472
        40.000
 117859771.303 7  91838883.31045  22427930.685    22427930.274    22427932.118
        45.000          35.750
 119398617.634 7  93037995.34447  22720760.712    22720759.912    22720761.997
        42.250          43.000
 136277293.959 5                  25932704.536
        32.000
 115514551.954 8  90011367.28246  21981678.530    21981678.450    21981679.836
        48.250          40.000
 126711219.626 7                  24112334.900
        44.250
 111161607.030 8  86619522.92248  21153322.478    21153322.018    21153320.781
        49.000          53.750
 135029784.492 7                  25695312.529
        44.000
 146280169.151 6                  27836188.671
        38.000
 195494234.157 7                  37201419.804
        46.500
 121474809.064 7                  22788330.271
        43.250
 204851614.132 7                  38981959.376
        43.750
 149977636.196 5                  28539797.465
        34.750
 110497799.378 6                  20699944.829
        41.250
 123406130.437 7                  23483389.115
        43.000
 152254978.542 6                  28973157.864
        38.250
 126267199.916 5                  23612564.531
        32.000
 130207339.019 7                  24777592.150
        47.500
 121049082.914 7                  22684547.379
        47.000
 121504917.067 7  94679176.54345  23121607.734    23121607.520    23121608.767
        43.500          32.000
 118579595.713 7                  22198344.618
        46.500
 195972682.688 7                  37292355.240
        47.250
 132215163.231 7                  25159671.256
        46.250
 110911123.570 8  86424261.07547  21105678.825    21105678.566    21105676.336
        49.250          43.000
 107097184.987 8                  20013653.995
        52.250
 21 10  5  0 21 30.0000000  0 27G16S48R01G26G25E11G32E09G29E05E25S25
                                R10S23E03R22E12E04R20E24R02G18R12S36
                                E31G31R21
 131509922.377 6 102475269.46643  25025506.186    25025505.341    25025505.033
        38.000          19.250
  31647489.590 7                   6022276.025
        44.500
 123399353.602 6                  23084412.893
        38.000
 117812067.585 7  91801711.58145  22418852.709    22418852.307    22418854.174
        45.000          35.250
 119459693.676 7  93085587.03847  22732383.375    22732382.571    22732384.249
        42.500          43.000
 136187303.527 6                  25915581.394
        37.750
 115590124.789 8  90070255.13546  21996059.424    21996059.344    21996060.722
        48.250          39.750
 126784548.184 7                  24126288.893
        44.000
 111215735.018 8  86661700.57949  21163622.755    21163622.299    21163620.913
        49.250          54.000
 135044852.011 7                  25698179.794
        44.000
 146235990.036 6                  27827781.197
        37.250
 195491599.991 7                  37200935.827
        46.500
 121527473.846 7                  22798210.851
        43.000
 204851498.542 7                  38981938.690
        44.000
 149929840.402 6                  28530701.762
        36.000
 110396256.028 6                  20680922.240
        40.750
 123347784.504 7                  23472286.210
        43.000
 152334771.029 5                  28988341.272
        33.250
 126380879.126 5                  23633824.373
        31.250
 130192147.715 7                  24774701.432
        47.000
 121062189.674 7                  22687003.278
        46.750
 121422207.516 7  94614727.95845  23105868.329    23105868.128    23105869.358
        44.000          32.250
 118512132.077 7                  22185715.333
        46.750
 195972685.022 7                  37292355.584
        47.500
 132239290.949 7                  25164262.255
        45.750
 110862029.259 8  86386005.76847  21096336.413    21096336.154    21096333.963
        49.500          43.250
 107107293.282 8                  20015543.362
        52.250
 21 10  5  0 22  0.0000000  0 27G16S48R01G26G25E11G32E09G29E05E25S25
                                R10S23E03R22E12E04R20E24R02G18R12S36
                                E31G31R21
 131439253.491 6 102420202.86343  25012058.663    25012057.872    25012058.225
        36.000          19.750
  31648247.293 7                   6022304.340
        44.250
 123495739.462 6                  23102443.310
        40.250
 117764473.756 7  91764625.47045  22409795.782    22409795.389    22409797.355
        44.000          34.500
 119520806.050 7  93133207.04047  22744012.767    22744011.963    22744013.656
        42.500          43.750
 136097256.138 6                  25898446.148
        38.500
 115666032.649 8  90129404.05546  22010504.117    22010504.033    22010505.301
        48.000          39.500
 126858012.493 7                  24140268.779
        44.250
 111270298.680 8  86704217.70849  21174005.816    21174005.365    21174003.990
        49.000          54.000
 135060301.782 7                  25701119.772
        43.500
 146191792.465 6                  27819371.196
        37.500
 195488957.201 7                  37200447.602
        46.500
 121580336.113 7                  22808127.744
        42.750
 204851383.609 7                  38981915.232
        43.500
 149882364.488 5                  28521666.804
        35.500
 110295239.694 6                  20661998.283
        40.750
 123289731.234 7                  23461239.072
        42.750
 152414394.453 5                  29003492.008
        33.250
 126494910.527 5                  23655147.714
        30.500
 130176966.888 7                  24771812.468
        47.000
 121075960.321 7                  22689584.267
        46.000
 121339644.761 7  94550393.59045  23090156.964    23090156.750    23090157.784
        43.750          32.250
 118444619.126 7                  22173076.809
        47.000
 195972685.736 7                  37292355.879
        47.250
 132263432.558 7                  25168856.499
        45.500
 110813232.224 8  86347982.09847  21087050.516    21087050.253    21087047.999
        49.500          43.000
 107118232.635 8                  20017587.471
        52.000
 21 10  5  0 22 30.0000000  0 27G16S48R01G26G25E11G32E09G29E05E25S25
                                R10S23E03R22E12E04R20E24R02G18R12S36
                                E31G31R21
 131368679.324 6 102365210.00943  24998628.509    24998627.722    24998627.255
        37.000          19.250
  31649005.220 7                   6022333.284
        44.500
 123592252.049 6                  23120498.344
        40.250
 117716989.003 7  91727624.37445  22400759.951    22400759.554    22400761.185
        43.500          33.750
 119581954.210 7  93180854.94747  22755648.462    22755647.653    22755650.088
        42.500          43.500
 136007151.778 6                  25881301.444
        36.500
 115742272.087 8  90188811.34746  22025012.389    22025012.313    22025013.302
        48.000          39.250
 126931610.002 7                  24154274.006
        44.250
 111325294.914 8  86747071.90848  21184471.322    21184470.866    21184469.644
        48.750          53.750
 135076132.514 7                  25704132.508
        44.000
 146147575.498 6                  27810957.099
        37.750
 195486313.140 7                  37199959.345
        46.250
 121633396.537 7                  22818082.536
        44.000
 204851267.620 7                  38981893.804
        43.750
 149835208.977 5                  28512693.895
        35.250
 110194754.254 6                  20643173.564
        40.750
 123231971.888 7                  23450247.860
        43.250
 152493847.100 5                  29018612.388
        35.250
 126609289.145 4                  23676535.059
        28.750
 130161795.997 7                  24768925.676
        47.500
 121090393.127 7                  22692288.654
        45.500
 121257231.723 7  94486175.85645  23074474.075    23074473.865    23074475.272
        43.250          32.500
 118377057.164 8                  22160429.585
        48.500
 195972695.393 7                  37292358.021
        47.250
 132287587.988 7                  25173452.963
        46.250
 110764733.889 8  86310191.18647  21077821.847    21077821.584    21077819.179
        49.250          43.000
 107130001.953 8                  20019787.006
        52.750
 21 10  5  0 23  0.0000000  0 27G16S48R01G26G25E11G32E09G29E05E25S25
                                R10S23E03R22E12E04R20E24R02G18R12S36
                                E31G31R21
 131298199.981 6 102310291.12743  24985217.429    24985216.665    24985215.338
        38.000          20.250
  31648164.732 7                   6022361.581
        44.500
 123688888.936 6                  23138575.615
        41.250
 117669613.783 7  91690708.62445  22391744.328    22391743.917    22391746.125
        43.750          34.750
 119643138.703 7  93228531.15647  22767291.449    22767290.640    22767293.142
        42.750          44.000
 135916994.320 6                  25864147.446
        40.250
 115818840.891 8  90248475.28046  22039582.966    22039582.886    22039584.003
        48.250          39.750
 127005339.442 7                  24168304.411
        44.000
 111380721.956 8  86790261.80149  21195018.862    21195018.411    21195016.873
        49.000          54.000
 135092344.159 7                  25707217.329
        43.500
 146103339.386 6                  27802538.869
        37.250
 195483662.952 7                  37199468.929
        46.500
 121686656.333 7                  22828073.034
        44.000
 204851152.207 7                  38981872.353
        43.500
 149788375.882 5                  28503782.081
        34.750
 110094804.854 6                  20624449.189
        40.250
 123174509.046 7                  23439312.897
        43.750
 152573128.184 5                  29033699.057
        32.500
 126724012.283 4                  23697995.846
        26.750
 130146635.785 7                  24766040.819
        47.250
 121105486.980 7                  22695117.322
        46.250
 121174972.398 7  94422077.90845  23058820.654    23058820.426    23058821.838
        44.250          33.500
 118309447.700 7                  22147772.646
        47.750
 195972706.046 7                  37292357.985
        47.250
 132311758.396 7                  25178052.721
        46.000
 110716537.112 8  86272635.25347  21068650.133    21068649.874    21068647.595
        49.750          43.750
 107142601.551 8                  20022141.449
        52.750
 21 10  5  0 23 30.0000000  0 27G16S48R01G26G25E11G32E09G29E05E25S25
                                R10S23E03R22E12E04R20E24R02G18R12S36
                                E31G31R21
 131227810.753 6 102255442.39443  24971821.802    24971821.047    24971820.258
        36.250          18.750
  31648922.062 7                   6022388.688
        44.500
 123785639.519 7                  23156675.865
        42.250
 117622342.938 7  91653874.21445  22382749.579    22382749.177    22382751.251
        44.000          35.250
 119704354.519 7  93276231.76647  22778940.421    22778939.617    22778942.068
        42.000          43.250
 135826802.18116                  25846981.291
        39.500
 115895731.269 8  90308389.79046  22054214.783    22054214.699    22054215.810
        48.250          39.000
 127079193.927 7                  24182358.493
        43.750
 111436572.811 8  86833781.94548  21205646.900    21205646.449    21205644.744
        48.750          53.000
 135108931.052 7                  25710373.610
        43.500
 146059078.764 6                  27794116.422
        37.750
 195480999.128 7                  37198976.509
        46.500
 121740112.226 7                  22838100.308
        43.750
 204851033.717 7                  38981850.487
        43.500
 149741861.465 5                  28494930.111
        34.500
 109995390.803 6                  20605826.067
        40.250
 123117339.720 7                  23428433.746
        43.250
 152652231.669 5                  29048752.356
        34.500
 126839070.352 3                  23719504.334
        23.500
 130131481.315 7                  24763156.995
        47.750
 121121234.868 7                  22698067.826
        44.750
 121092864.935 7  94358098.27545  23043195.978    23043195.746    23043197.220
        44.000          33.000
 118241786.433 8                  22135106.387
        48.000
 195972705.941 7                  37292359.260
        47.250
 132335939.400 7                  25182654.129
        46.000
 110668639.231 8  86235312.22747  21059535.456    21059535.197    21059532.702
        49.500          43.000
 107156025.740 8                  20024650.110
        52.500
 21 10  5  0 24  0.0000000  0 27G16S48R01G26G25E11G32E09G29E05E25S25
                                R10S23E03R22E12E04R20E24R02G18R12S36
                                E31G31R21
 131157519.304 6 102200669.91443  24958446.145    24958445.354    24958445.219
        38.500          21.000
  31648083.991 7                   6022419.891
        44.500
 123882508.019 7                  23174797.495
        42.750
 117575184.073 7  91617127.06645  22373775.880    22373775.478    22373777.639
        44.750          35.500
 119765609.583 7  93323962.96547  22790597.445    22790596.641    22790597.902
        42.000          43.500
 135736546.422 6                  25829806.604
        36.000
 115972948.095 8  90368558.68146  22068908.642    22068908.549    22068909.664
        48.000          39.000
 127153179.330 7                  24196437.605
        43.500
 111492852.720 8  86877636.41348  21216356.675    21216356.219    21216354.687
        48.750          53.000
 135125900.252 7                  25713603.042
        43.250
 146014801.070 6                  27785690.592
        37.000
 195478327.812 7                  37198481.599
        46.250
 121793772.754 7                  22848167.673
        44.000
 204850919.510 7                  38981827.396
        43.750
 149695674.599 5                  28486141.362
        33.250
 109896524.142 6                  20587305.244
        40.250
 123060473.702 7                  23417612.641
        42.750
 152731164.077 5                  29063771.865
        34.750
                                  23741083.949
        20.750
 130116340.414 7                  24760275.637
        47.000
 121137643.135 7                  22701143.324
        45.500
 121010920.861 7  94294246.19945  23027602.176    23027601.948    23027603.241
        44.250          32.750
 118174082.068 7                  22122432.201
        47.500
 195972706.820 7                  37292360.936
        47.250
 132360139.325 7                  25187259.127
        45.500
 110621049.919 8  86198229.64947  21050479.471    21050479.217    21050476.897
        49.500          43.000
 107170281.905 8                  20027313.727
        53.000
 21 10  5  0 24 30.0000000  0 27G16S48R01G26G25E11G32E09G29E05E25S25
                                R10S23E03R22E12E04R20E24R02G18R12S36
                                E31G31R21
 131087319.269 6 102145968.61643  24945088.129    24945087.320    24945085.330
        37.500          19.250
  31648845.453 7                   6022447.709
        44.250
 123979485.886 7                  23192939.309
        45.750
 117528130.974 7  91580462.33146  22364821.833    22364821.427    22364823.617
        45.250          36.500
 119826897.708 7  93371719.93147  22802259.665    22802258.870    22802261.132
        43.500          44.250
 135646249.98015                  25812622.510
        35.000
 116050482.398 8  90428974.95346  22083662.934    22083662.845    22083663.940
        48.500          39.250
 127227287.667 7                  24210539.998
        43.750
 111549554.039 8  86921819.25448  21227146.331    21227145.875    21227144.587
        49.000          53.250
 135143244.966 7                  25716903.549
        43.750
 145970499.901 6                  27777260.241
        37.250
 195475648.136 7                  37197985.459
        46.000
 121847632.819 7                  22858271.436
        44.000
 204850802.906 7                  38981805.485
        43.500
 149649810.467 6                  28477414.238
        36.000
 109798203.381 6                  20568886.178
        40.500
 123003906.881 7                  23406848.243
        43.000
 152809917.823 5                  29078758.504
        34.000
                                  23762726.102
        20.000
 130101207.183 7                  24757395.983
        47.000
 121154703.904 7                  22704340.744
        45.750
 120929136.864 7  94230518.84345  23012038.724    23012038.488    23012039.737
        44.750          34.000
 118106329.767 7                  22109748.278
        46.750
 195972713.256 7                  37292361.562
        47.250
 132384352.694 7                  25191866.913
        45.750
 110573765.289 8  86161384.49047  21041481.542    21041481.292    21041479.165
        49.500          43.500
 107185363.081 8                  20030132.241
        52.500
 21 10  5  0 25  0.0000000  0 27G16S48R01G26G25E11G32E09G29E05E25S25
                                R10S23E03R22E12E04R20E24R02G18R12S36
                                E31G31R21
 131017214.001 6 102091341.17643  24931746.372    24931745.590    24931745.630
        37.250          20.500
  31649609.737 7                   6022475.558
        44.000
 124076572.310 6                  23211101.732
        41.500
 117481187.192 7  91543882.78046  22355888.685    22355888.279    22355890.022
        45.250          36.250
 119888222.751 7  93419505.65747  22813929.889    22813929.094    22813931.056
        43.250          44.500
 135555902.103 6                  25795429.995
        37.250
 116128335.071 8  90489639.30446  22098477.788    22098477.686    22098479.029
        48.250          39.500
 127301520.785 7                  24224666.219
        44.250
 111606677.691 8  86966331.18948  21238016.808    21238016.348    21238014.936
        49.000          53.250
 135160968.203 7                  25720276.151
        44.250
 145926178.611 6                  27768826.200
        38.500
 195472952.226 7                  37197486.806
        46.250
 121901697.343 7                  22868413.675
        43.000
 204850688.007 7                  38981784.732
        43.500
 149604273.985 5                  28468747.981
        34.500
 109700436.452 6                  20550570.996
        40.250
 122947644.953 7                  23396141.999
        43.750
 152888496.148 5                  29093711.850
        32.000


 130086085.424 7                  24754518.310
        47.750
 121172418.913 7                  22707659.898
        45.750
 120847519.861 7  94166921.52645  22996507.561    22996507.333    22996507.963
        44.750          33.500
 118038534.114 7                  22097056.731
        46.750
 195972721.653 7                  37292361.768
        47.000
 132408583.824 7                  25196477.993
        46.250
 110526790.954 8  86124781.11747  21032542.732    21032542.478    21032540.039
        49.500          43.000
 107201272.658 8                  20033105.422
        52.500
 21 10  5  0 25 30.0000000  0 27G16S48R01G26G25E11G32E09G29E05E25S25
                                R10S23E03R22E12E04R20E24R02G18R12S36
                                E31G31R21
 130947201.847 6 102036786.30043  24918424.307    24918423.494    24918422.475
        37.750          20.750
  31648775.593 7                   6022506.269
        44.250
 124173760.540 7                  23229282.647
        44.500
 117434350.871 7  91507386.95646  22346975.695    22346975.289    22346977.282
        45.250          36.000
 119949582.970 7  93467318.79647  22825606.522    22825605.731    22825607.581
        42.750          44.250
 135465510.029 5                  25778228.839
        33.250
 116206501.579 8  90550548.19546  22113352.557    22113352.459    22113353.917
        48.000          39.250
 127375875.073 7                  24238815.611
        44.500
 111664219.481 8  87011168.94548  21248966.568    21248966.108    21248964.598
        48.750          53.250
 135179067.515 7                  25723720.475
        44.250
 145881835.216 6                  27760388.186
        37.750
 195470258.985 7                  37196987.518
        46.250
 121955965.645 7                  22878594.839
        44.000
 204850572.351 7                  38981761.220
        43.500
 149559064.717 5                  28460144.899
        35.750
 109603226.088 6                  20532360.478
        40.000
 122891688.159 7                  23385493.695
        43.750
 152966895.937 4                  29108630.966
        27.250


 130070973.537 8                  24751642.679
        48.250
 121190784.661 7                  22711101.905
        45.750
 120766071.363 7  94103455.42345  22981007.973    22981007.750    22981008.335
        44.000          33.250
 117970694.210 7                  22084356.922
        47.500
 195972726.008 7                  37292364.800
        47.000
 132432831.613 7                  25201091.983
        46.250
 110480127.745 8  86088420.17947  21023662.984    21023662.730    21023660.228
        49.750          43.250
 107218007.768 8                  20036232.734
        52.500
 21 10  5  0 26  0.0000000  0 27G16S48R01G26G25E11G32E09G29E05E25S25
                                R10S23E03R22E12E04R20E24R02G18R12S36
                                E31G31R21
 130877284.283 6 101982305.14243  24905119.583    24905118.743    24905118.383
        36.500          20.000
  31649542.747 7                   6022535.089
        44.250
 124271046.773 7                  23247480.517
        42.250
 117387623.211 7  91470975.79845  22338083.633    22338083.222    22338084.946
        44.000          35.000
 120010979.879 7  93515160.52647  22837289.794    22837289.003    22837290.929
        42.500          44.000
 135375077.802 5                  25761019.908
        32.750
 116284980.392 7  90611700.43446  22128286.482    22128286.393    22128288.131
        47.250          38.750
 127450350.023 7                  24252987.807
        44.500
 111722179.063 8  87056332.25148  21259995.925    21259995.465    21259993.905
        48.500          52.750
 135197543.499 7                  25727236.269
        43.750
 145837470.658 6                  27751945.505
        37.750
 195467552.029 7                  37196486.647
        46.500
 122010440.102 7                  22888813.866
        44.250
 204850459.061 7                  38981739.573
        43.500
 149514185.159 5                  28451604.944
        34.250
 109506577.956 6                  20514254.463
        40.500
 122836039.786 7                  23374904.241
        44.000
                                  29123515.012
        30.750


 130055873.051 8                  24748769.116
        48.000
 121209801.049 7                  22714665.775
        45.750
 120684796.082 7  94040124.22545  22965541.845    22965541.626    22965542.070
        44.500          33.750
 117902812.720 7                  22071649.604
        47.000
 195972733.132 7                  37292365.301
        47.250
 132457097.954 7                  25205709.993
        46.000
 110433778.850 8  86052304.16047  21014843.052    21014842.798    21014840.319
        49.000          43.000
 107235569.397 8                  20039514.184
        52.250
 21 10  5  0 26 30.0000000  0 27G16S48R01G26G25E11G32E09G29E05E25S25
                                R10S23E03R22E12E04R20E24R02G18R12S36
                                E31G31R21
 130807449.458 5 101927888.44043  24891829.199    24891828.345    24891829.007
        35.500          19.250
  31650302.274 7                   6022561.717
        44.500
 124368416.228 7                  23265695.449
        43.500
 117340992.668 7  91434640.32145  22329210.560    22329210.145    22329210.913
        45.000          34.750
 120072402.098 7  93563021.97747  22848978.199    22848977.417    22848979.026
        42.500          43.750
 135284596.124 5                  25743801.964
        35.750
 116363757.228 7  90673084.90046  22143277.087    22143276.989    22143278.856
        47.750          39.000
 127524932.310 7                  24267180.447
        44.750
 111780542.563 8  87101810.30348  21271102.156    21271101.696    21271100.150
        48.750          52.750
 135216383.980 7                  25730821.578
        44.250
 145793073.259 6                  27743497.060
        38.750
 195464825.941 7                  37195981.698
        46.500
 122065110.601 7                  22899070.781
        44.000
 204850336.448 7                  38981716.473
        43.750
 149469625.078 5                  28443125.438
        34.750
 109410484.839 6                  20496253.480
        40.250
 122780690.329 7                  23364371.447
        44.000
 153123138.19316                  29138364.015
        40.500


 130040772.651 7                  24745895.620
        47.750
 121229453.889 7                  22718349.485
        46.500
 120603686.048 7  93976921.80645  22950106.866    22950106.647    22950107.371
        44.500          34.000
 117834878.648 7                  22058932.022
        47.500
 195972733.485 7                  37292365.153
        47.250
 132481372.074 7                  25210328.865
        46.250
 110387734.837 8  86016425.71247  21006081.163    21006080.904    21006078.528
        49.750          43.250
 107253945.036 8                  20042948.459
        52.250
 21 10  5  0 27  0.0000000  0 27G16S48R01G26G25E11G32E09G29E05E25S25
                                R10S23E03R22E12E04R20E24R02G18R12S36
                                E31G31R21
 130737714.184 6 101873549.28743  24878559.793    24878558.993    24878558.895
        36.750          21.000
  31649469.474 7                   6022591.771
        44.500
 124465881.042 7                  23283929.191
        43.750
 117294475.797 7  91398393.42245  22320358.842    22320358.431    22320359.296
        45.250          35.500
 120133866.245 7  93610916.09947  22860674.147    22860673.365    22860675.257
        42.750          43.750
 135194082.983 6                  25726577.803
        37.750
 116442845.831 7  90734712.30746  22158327.557    22158327.455    22158328.880
        47.500          38.750
 127599636.701 7                  24281396.404
        44.500
 111839324.445 8  87147614.36948  21282287.766    21282287.310    21282285.990
        48.500          53.000
 135235604.865 7                  25734479.044
        44.000
 145748659.323 6                  27735045.127
        37.750
 195462093.054 7                  37195475.587
        46.250
 122119994.525 7                  22909366.421
        45.000
 204850221.357 7                  38981694.123
        43.500
 149425402.299 5                  28434710.350
        34.500
 109314967.627 6                  20478359.248
        40.500
 122725658.403 7                  23353899.364
        44.000
 153200991.66016                  29153179.511
        38.500


 130025689.126 7                  24743025.436
        47.250
 121249759.013 7                  22722154.323
        46.250
 120522761.034 7  93913863.47745  22934707.251    22934707.037    22934707.917
        44.250          34.000
 117766910.217 7                  22046208.313
        47.500
 195972747.795 7                  37292366.790
        47.000
 132505671.234 7                  25214953.194
        45.750
 110342014.898 8  85980799.78647  20997380.765    20997380.511    20997378.213
        49.750          43.250
 107273150.665 8                  20046537.482
        52.750
 21 10  5  0 27 30.0000000  0 27G16S48R01G26G25E11G32E09G29E05E25S25
                                R10S23E03R22E12E04R20E24R02G18R12S36
                                E31G31R21
 130668072.488 6 101819283.08443  24865307.288    24865306.430    24865305.703
        36.750          19.000
  31650241.389 7                   6022620.398
        44.000
 124563431.481 6                  23302177.243
        40.250
 117248066.914 7  91362230.65946  22311527.354    22311526.934    22311528.423
        45.500          36.250
 120195367.022 7  93658838.76747  22872377.285    22872376.498    22872378.320
        42.750          43.500
 135103535.304 6                  25709347.110
        37.750
 116522237.849 7  90796576.13046  22173435.560    22173435.462    22173436.744
        47.500          38.500
 127674455.800 7                  24295633.935
        44.250
 111898516.678 8  87193738.18748  21293551.921    21293551.465    21293549.846
        48.750          52.500
 135255199.853 7                  25738207.863
        43.750
 145704223.034 6                  27726589.534
        37.750
 195459357.823 7                  37194970.159
        46.250
 122175087.611 7                  22919701.830
        44.250
 204850107.878 7                  38981673.165
        43.500
 149381512.526 5                  28426357.637
        34.250
 109220025.612 6                  20460574.276
        40.750
 122670940.375 7                  23343486.749
        43.750
 153278663.195 5                  29167960.458
        32.250


 130010617.148 7                  24740157.227
        46.750
 121270708.451 7                  22726079.717
        45.250
 120442019.015 7  93850947.78245  22919342.727    22919342.508    22919342.961
        44.000          33.250
 117698902.766 8                  22033477.639
        48.250
 195972756.060 7                  37292369.553
        47.000
 132529990.560 7                  25219580.653
        45.750
 110296615.587 8  85945423.69847  20988741.675    20988741.421    20988739.217
        49.750          43.250
 107293179.987 8                  20050280.791
        53.000
 21 10  5  0 28  0.0000000  0 26G16S48R01G26G25E11G32E09G29E05E25S25
                                R10S23E03R22E12E04E24R02G18R12S36E31
                                G31R21
 130598514.047 6 101765081.73243  24852070.946    24852070.097    24852069.316
        36.250          21.000
  31649404.687 7                   6022647.903
        44.750
 124661052.159 6                  23320439.775
        38.500
 117201755.507 7  91326143.85146  22302714.419    22302714.004    22302716.299
        45.750          37.000
 120256894.017 7  93706781.86547  22884085.733    22884084.951    22884086.812
        42.250          43.500
 135012944.647 5                  25692107.961
        35.000
 116601919.901 7  90858665.95546  22188598.376    22188598.269    22188599.730
        47.750          38.750
 127749377.287 7                  24309891.211
        44.000
 111958106.454 8  87240171.78348  21304891.452    21304890.996    21304889.492
        48.750          52.750
 135275157.700 7                  25742005.697
        43.250
 145659753.607 6                  27718127.475
        37.750
 195458211.647 7                  37194459.209
        46.750
 122230380.173 7                  22930074.194
        44.000
 204849985.513 7                  38981647.471
        44.000
 149337946.425 5                  28418067.991
        35.500
 109125652.119 6                  20442894.417
        40.500
 122616527.743 7                  23333132.336
        43.750
                                  29182703.997
        27.750
 129995546.465 7                  24737289.294
        47.250
 121292290.271 7                  22730124.516
        45.000
 120361452.780 7  93788169.06845  22904010.797    22904010.583    22904011.283
        44.500          33.000
 117630846.857 8                  22020737.286
        48.250
 195972751.640 7                  37292369.593
        47.750
 132554320.183 7                  25224210.833
        45.500
 110251528.291 8  85910290.74447  20980161.861    20980161.607    20980159.716
        49.750          43.500
 107314021.466 8                  20054175.019
        52.500
 21 10  5  0 28 30.0000000  0 26G16S48R01G26G25E11G32E09G29E05E25S25
                                R10S23E03R22E12E04E24R02G18R12S36E31
                                G31R21
 130529050.370 5 101710954.23243  24838852.004    24838851.168    24838851.387
        35.250          19.000
  31650172.912 7                   6022677.747
        44.500
 124758754.014 7                  23338716.257
        42.250
 117155553.151 7  91290142.02646  22293922.216    22293921.810    22293924.378
        45.250          36.750
 120318459.076 6  93754754.61947  22895801.296    22895800.505    22895801.958
        41.750          43.250
 134922327.111 5                  25674863.414
        34.000
 116681900.837 7  90920988.66946  22203818.432    22203818.334    22203819.712
        47.750          38.500
 127824410.959 7                  24324169.713
        44.250
 112018103.487 8  87286922.71748  21316308.504    21316308.048    21316306.403
        48.500          52.500
 135295489.344 7                  25745874.749
        43.750
 145615262.446 6                  27709660.934
        36.750
 195455454.805 7                  37193947.969
        46.750
 122285885.153 7                  22940486.983
        43.750
 204849866.699 7                  38981626.969
        43.750
 149294716.828 5                  28409842.099
        35.250
 109031863.218 6                  20425324.366
        40.500
 122562434.073 7                  23322838.543
        43.750
 153433435.75615                  29197412.335
        32.500
 129980488.927 7                  24734424.046
        47.500
 121314512.972 7                  22734289.087
        46.250
 120281077.201 7  93725538.88945  22888716.085    22888715.880    22888716.027
        44.000          32.750
 117562755.326 8                  22007990.732
        48.250
 195972758.256 7                  37292370.313
        47.250
 132578672.527 7                  25228844.830
        46.000
 110206767.537 8  85875412.23447  20971644.189    20971643.935    20971641.597
        50.000          43.250
 107335685.965 8                  20058223.438
        52.500
 21 10  5  0 29  0.0000000  0 26G16S48R01G26G25E11G32E09G29E05E25S25
                                R10S23E03R22E12E04E24R02G18R12S36E31
                                G31R21
 130459676.541 6 101656896.75143  24825651.250    24825650.356    24825649.391
        36.250          19.500
  31650942.678 7                   6022705.887
        44.250
 124856525.035 6                  23357005.660
        38.500
 117109454.926 7  91254221.34846  22285149.513    22285149.107    22285152.584
        44.750          36.250
 120380057.544 7  93802753.39847  22907523.088    22907522.297    22907523.959
        42.500          44.000
 134831678.235 5                  25657612.236
        32.000
 116762172.942 7  90983538.27046  22219093.578    22219093.480    22219095.114
        47.500          38.500
 127899550.161 7                  24338468.384
        43.750
 112078500.456 8  87333985.28948  21327801.636    21327801.185    21327799.591
        48.500          52.750
 135316189.122 7                  25749813.751
        43.250
 145570744.507 6                  27701189.463
        37.500
 195452691.982 7                  37193433.692
        46.250
 122341599.107 7                  22950938.618
        43.250
 204849747.127 7                  38981605.035
        43.500
 149251820.172 5                  28401678.160
        34.750
 108938658.183 6                  20407863.759
        40.250
 122508656.585 7                  23312605.186
        43.250
 153510540.856 4                  29212084.515
        29.500
 129965439.809 7                  24731560.231
        47.000
 121337370.786 7                  22738572.700
        46.000
 120200891.024 7  93663056.35345  22873456.759    22873456.558    22873456.986
        44.500          33.500
 117494624.459 8                  21995236.395
        48.250
 195972768.491 7                  37292370.510
        47.250
 132603043.356 7                  25233482.596
        45.500
 110162329.511 8  85840785.19547  20963187.858    20963187.608    20963185.160
        49.750          43.250
 107358167.442 8                  20062424.779
        52.500
 21 10  5  0 29 30.0000000  0 26G16S48R01G26G25E11G32E09G29E05E25S25
                                R10S23E03R22E12E04E24R02G18R12S36E31
                                G31R21
 130390394.777 6 101602910.99243  24812467.642    24812466.762    24812465.935
        36.000          20.000
  31650114.893 7                   6022734.438
        44.500
 124954364.438 7                  23375309.257
        44.000
 117063463.149 7  91218383.61446  22276398.061    22276397.655    22276400.255
        44.250          36.000
 120441691.854 7  93850780.11447  22919251.877    22919251.082    22919252.864
        42.000          44.250
 134741005.367 6                  25640355.789
        36.750
 116842735.737 7  91046314.37846  22234424.286    22234424.179    22234425.875
        47.000          38.500
 127974795.367 7                  24352787.280
        43.000
 112139297.562 8  87381359.65448  21339370.993    21339370.537    21339368.966
        48.250          53.250
 135337258.665 7                  25753823.300
        43.500
 145526201.802 6                  27692713.147
        36.750
 195449913.625 7                  37192920.211
        46.500
 122397524.867 7                  22961429.847
        43.500
 204849630.016 7                  38981582.829
        43.750
 149209259.895 5                  28393579.956
        34.500
 108846043.935 6                  20390514.747
        40.250
 122455199.467 7                  23302432.753
        42.750
 153587457.725 4                  29226721.546
        26.750
 129950401.801 7                  24728698.680
        46.750
 121360863.964 7                  22742975.744
        46.000
 120120899.708 7  93600725.62645  22858234.738    22858234.533    22858235.252
        44.250          34.250
 117426457.779 8                  21982475.301
        48.250
 195972773.190 7                  37292372.035
        47.000
 132627435.730 7                  25238124.002
        45.000
 110118219.407 8  85806413.68447  20954793.937    20954793.687    20954791.540
        49.250          43.750
 107381467.374 8                  20066779.034
        52.250
 21 10  5  0 30  0.0000000  0 26G16S48R01G26G25E11G32E09G29E05E25S25
                                R10S23E03R22E12E04E24R02G18R12S36E31
                                G31R21
 130321201.485 6 101548994.17243  24799299.697    24799298.781    24799298.406
        36.500          19.500
  31650885.178 7                   6022763.276
        44.500
 125052263.481 6                  23393623.505
        40.500
 117017574.183 7  91182626.00245  22267665.792    22267665.386    22267667.203
        44.750          35.500
 120503358.541 7  93898832.03747  22930986.502    22930985.702    22930987.806
        42.500          44.500
 134650302.824 6                  25623093.732
        37.000
 116923582.786 7  91109311.98246  22249809.101    22249808.994    22249810.788
        47.250          38.250
 128050141.207 7                  24367125.066
        43.250
 112200489.087 8  87429041.35548  21351015.152    21351014.696    21351013.259
        48.500          52.750
 135358693.590 7                  25757902.307
        44.000
 145481630.577 6                  27684231.814
        37.500
 195447131.996 7                  37192402.974
        46.500
 122453660.458 7                  22971961.027
        44.000
 204849510.666 7                  38981559.277
        43.500
 149167033.636 5                  28385543.748
        35.000
 108754020.852 6                  20373274.604
        40.250
 122402061.185 7                  23292320.750
        43.500
 153664182.904 5                  29241322.209
        31.500
 129935371.572 7                  24725838.524
        47.250
 121384986.368 7                  22747495.698
        45.500
 120041103.070 7  93538546.55845  22843050.014    22843049.818    22843050.596
        44.500          33.750
 117358252.957 8                  21969706.895
        48.250
 195972771.453 7                  37292373.600
        47.250
 132651846.779 7                  25242769.350
        45.750
 110074435.829 8  85772296.60547  20946462.259    20946462.009    20946459.713
        49.500          43.500
 107405581.202 8                  20071284.933
        52.500
 21 10  5  0 30 30.0000000  0 25G16S48R01G26G25E11G32E09G29E05E25S25
                                R10S23E03R22E12E24R02G18R12S36E31G31
                                R21
 130252101.222 6 101495149.84143  24786150.039    24786149.096    24786148.844
        38.000          20.500
  31650058.917 7                   6022791.670
        44.750
 125150224.987 6                  23411949.217
        41.500
 116971792.755 7  91146952.15645  22258953.656    22258953.241    22258955.132
        45.000          35.250
 120565062.678 7  93946913.16547  22942728.243    22942727.456    22942729.611
        42.750          44.000
 134559574.150 5                  25605828.024
        34.500
 117004716.028 7  91172532.59146  22265248.386    22265248.266    22265250.178
        47.500          38.500
 128125590.620 7                  24381482.670
        43.250
 112262077.329 8  87477032.19748  21362735.116    21362734.660    21362732.953
        48.500          52.500
 135380497.872 7                  25762051.429
        44.000
 145437035.356 6                  27675745.138
        36.750
 195444340.231 7                  37191884.471
        46.750
 122510011.501 7                  22982532.259
        43.000
 204849393.907 7                  38981536.982
        44.000
 149125147.325 6                  28377573.816
        36.000
 108662598.129 6                  20356148.566
        40.500
 122349248.402 7                  23282270.798
        43.500
 129920354.166 7                  24722980.674
        47.500
 121409740.616 7                  22752134.367
        45.750
 119961509.261 7  93476525.56245  22827903.934    22827903.760    22827904.164
        44.500          33.750
 117290015.883 7                  21956932.402
        47.500
 195972778.226 7                  37292374.642
        47.250
 132676281.969 7                  25247419.304
        45.750
 110030985.419 8  85738439.13747  20938193.867    20938193.617    20938191.370
        49.500          43.500
 107430512.457 8                  20075944.193
        52.250
 21 10  5  0 31  0.0000000  0 25G16S48R01G26G25E11G32E09G29E05E25S25
                                R10S23E03R22E12E24R02G18R12S36E31G31
                                R21
 130183084.524 6 101441370.60943  24773016.770    24773015.854    24773015.518
        36.250          20.000
  31650825.039 7                   6022819.694
        44.500
 125248235.115 7                  23430283.660
        43.750
 116926109.308 7  91111354.65946  22250260.645    22250260.230    22250261.555
        45.500          36.000
 120626794.884 7  93995016.16847  22954475.689    22954474.894    22954476.604
        42.000          44.000
 134468814.837 5                  25588557.235
        35.500
 117086123.081 7  91235966.55546  22280739.744    22280739.624    22280741.466
        47.250          38.500
 128201132.268 7                  24395857.767
        42.750
 112324050.211 8  87525322.74848  21374528.176    21374527.720    21374526.383
        48.500          52.750
 135402661.197 7                  25766269.093
        44.000
 145392406.357 6                  27667252.992
        37.000
 195441538.131 7                  37191362.056
        46.750
 122566568.887 7                  22993142.767
        43.250
 204849271.482 7                  38981513.872
        43.750
 149083592.575 5                  28369665.834
        34.500
 108571770.407 6                  20339133.043
        40.500
 122296753.485 7                  23272281.245
        43.500
 129905340.257 7                  24720123.753
        47.750
 121435115.141 7                  22756889.098
        45.500
 119882112.061 7  93414657.73445  22812794.714    22812794.536    22812794.977
        44.500          33.250
 117221738.059 7                  21944150.644
        47.000
 195972782.628 7                  37292375.102
        47.250
 132700732.519 7                  25252072.102
        45.750
 109987861.000 8  85704835.68547  20929987.721    20929987.467    20929985.173
        49.500          43.750
 107456250.329 8                  20080754.074
        52.500
 21 10  5  0 31 30.0000000  0 25G16S48R01G26G25E11G32E09G29E05E25S25
                                R10S23E03R22E12E24R02G18R12S36E31G31
                                R21
 130114156.541 6 101387660.52943  24759900.453    24759899.501    24759899.127
        37.500          20.500
  31651590.354 7                   6022846.837
        44.250
 125346293.194 6                  23448626.086
        39.000
 116880528.832 7  91075837.39746  22241587.148    22241586.737    22241587.985
        45.500          36.250
 120688560.502 7  94043145.20947  22966229.294    22966228.494    22966230.103
        42.750          44.000
 134378036.548 4                  25571281.228
        28.250
 117167806.101 7  91299615.55946  22296283.515    22296283.399    22296285.376
        47.250          38.500
 128276769.319 7                  24410251.203
        43.250
 112386410.546 8  87573915.21948  21386395.010    21386394.559    21386392.862
        48.750          52.250
 135425187.776 7                  25770555.858
        44.000
 145347748.445 6                  27658754.534
        37.000
 195438716.320 7                  37190838.581
        46.750
 122623339.420 6                  23003792.397
        41.750
 204849147.827 7                  38981490.360
        43.750
 149042375.562 5                  28361823.539
        35.250
 108481546.822 6                  20322231.021
        40.250
 122244583.373 7                  23262353.640
        44.000
 129890335.194 8                  24717268.330
        48.000
 121461113.005 7                  22761761.975
        45.250
 119802919.811 7  93352949.59845  22797724.553    22797724.370    22797725.175
        43.750          33.500
 117153425.772 7                  21931362.602
        47.000
 195972784.644 7                  37292374.933
        47.250
 132725204.178 7                  25256729.038
        45.750
 109945069.701 8  85671491.80647  20921844.761    20921844.507    20921842.206
        49.750          43.750
 107482798.785 8                  20085715.105
        52.500
 21 10  5  0 32  0.0000000  0 25G16S48R01G26G25E11G32E09G29E05E25S25
                                R10S23E03R22E12E24R02G18R12S36E31G31
                                R21
 130045322.218 6 101334023.41343  24746801.235    24746800.288    24746800.211
        37.250          21.000
  31650760.591 7                   6022875.156
        44.250
 125444399.788 6                  23466978.793
        41.750
 116835056.717 7  91040404.58446  22232934.003    22232933.588    22232935.283
        45.250          36.250
 120750364.890 7  94091304.44747  22977990.378    22977989.578    22977991.150
        42.500          44.000
 134287242.650 6                  25554002.901
        37.250
 117249767.615 7  91363481.57046  22311880.244    22311880.128    22311882.253
        47.250          38.250
 128352505.357 7                  24424663.493
        43.000
 112449162.143 8  87622812.57248  21398336.083    21398335.627    21398334.250
        48.500          52.500
 135448082.132 7                  25774912.412
        43.500
 145303066.652 6                  27650252.079
        36.500
 195435888.179 7                  37190313.966
        46.500
 122680329.320 6                  23014483.207
        41.250
 204849029.306 7                  38981467.126
        43.500
 149001502.896 5                  28354045.031
        34.000
 108391936.813 6                  20305444.599
        40.750
 122192745.400 7                  23252489.147
        43.750
 129875344.571 7                  24714415.681
        47.500
 121487737.627 7                  22766751.529
        46.000
 119723941.270 7  93291407.97245  22782695.593    22782695.401    22782695.998
        43.750          33.500
 117085085.834 8                  21918569.343
        48.000
 195972790.879 7                  37292375.818
        47.000
 132749702.998 7                  25261390.868
        45.500
 109902619.312 8  85638413.57147  20913766.726    20913766.472    20913764.126
        49.500          43.750
 107510162.218 8                  20090828.431
        52.000
 21 10  5  0 32 30.0000000  0 26G16S48R01G26G25E11G32E09G29E05E25S25
                                R10S23E03R22E12E24R02G18R12S36G27E31
                                G31R21
 129976577.485 6 101280456.13143  24733719.648    24733718.718    24733718.645
        38.000          20.000
  31651531.413 7                   6022902.786
        44.750
 125542549.253 6                  23485339.097
        41.000
 116789688.877 7  91005053.03346  22224300.608    22224300.202    22224302.176
        45.250          36.250
 120812204.346 7  94139491.01747  22989757.569    22989756.778    22989759.200
        43.000          43.750
 134196428.790 5                  25536722.504
        30.750
 117332000.709 7  91427559.19846  22327528.831    22327528.720    22327530.844
        47.250          38.250
 128428334.479 7                  24439093.393
        42.750
 112512298.365 8  87672009.62648  21410350.675    21410350.219    21410348.771
        48.500          52.500
 135471339.437 7                  25779338.081
        43.250
 145258356.820 6                  27641743.797
        37.250
 195433061.654 7                  37189786.797
        46.500
 122737535.749 6                  23025215.157
        41.500
 204848911.505 7                  38981446.919
        44.000
 148960971.696 5                  28346332.237
        35.750
 108302940.784 6                  20288772.047
        41.000
 122141237.387 7                  23242687.389
        43.500
 129860364.698 7                  24711565.116
        47.500
 121514982.568 7                  22771857.406
        46.000
 119645175.863 7  93230032.43445  22767706.824    22767706.623    22767707.459
        44.500          33.750
 117016715.564 8                  21905770.420
        48.500
 195972802.262 7                  37292377.839
        47.750
 135902886.86416                  25861459.365
        39.000
 132774225.740 7                  25266057.456
        45.500
 109860507.729 8  85605599.34147  20905752.928    20905752.678    20905750.638
        49.750          43.750
 107538335.294 8                  20096093.444
        52.250
 21 10  5  0 33  0.0000000  0 26G16S48R01G26G25E11G32E09G29E05E25S25
                                R10S23E03R22E12E24R02G18R12S36G27E31
                                G31R21
 129907916.167 6 101226953.79443  24720653.507    24720652.640    24720651.553
        37.000          19.500
  31652296.681 7                   6022932.808
        44.750
 125640730.349 6                  23503705.886
        36.250
 116744419.114 7  90969777.89746  22215686.180    22215685.765    22215687.631
        45.000          36.000
 120874072.991 7  94187700.34147  23001531.112    23001530.317    23001532.682
        42.500          44.000
 134105596.070 6                  25519437.365
        37.750
 117414496.328 7  91491841.38846  22343227.253    22343227.151    22343229.324
        47.250          38.250
 128504248.716 7                  24453539.849
        43.250
 112575810.341 8  87721499.47648  21422436.612    21422436.152    21422434.574
        48.250          52.500
 135494952.636 7                  25783831.443
        43.250
 145213612.511 6                  27633229.271
        37.750
 195430227.887 7                  37189257.491
        46.750
 122794953.443 6                  23035987.123
        41.500
 204848789.122 7                  38981421.225
        44.000
 148920776.734 5                  28338682.944
        35.000
 108214556.199 6                  20272215.488
        40.500
 122090055.013 7                  23232947.684
        43.750
 129845389.631 7                  24708715.444
        47.500
 121542839.495 7                  22777077.654
        47.000
 119566620.696 7  93168820.75445  22752758.296    22752758.113    22752758.905
        44.250          34.250
 116948309.899 8                  21892965.335
        48.500
 195972804.183 7                  37292379.140
        47.750
                                  25840730.391
        40.000
 132798766.857 7                  25270727.420
        45.500
 109818730.948 8  85573046.00047  20897803.254    20897803.000    20897800.912
        49.750          44.000
 107567310.019 8                  20101508.234
        52.250
 21 10  5  0 33 30.0000000  0 26G16S48R01G26G25E11G32E09G29E05E25S25
                                R10S23E03R22E12E24R02G18R12S36G27E31
                                G31R21
 129839345.001 6 101173521.74143  24707605.417    24707604.532    24707603.814
        36.750          20.250
  31651460.031 7                   6022960.295
        44.500
 125738945.179 6                  23522078.622
        41.500
 116699254.108 7  90934584.38845  22207091.394    22207090.983    22207092.457
        45.500          35.750
 120935977.569 7  94235937.65847  23013311.101    23013310.301    23013312.537
        42.250          43.500
 134014754.222 4                  25502150.594
        29.000
 117497258.290 7  91556331.11046  22358976.442    22358976.349    22358978.415
        47.250          37.750
 128580252.888 7                  24468003.019
        43.500
 112639702.709 8  87771285.73548  21434594.727    21434594.267    21434593.104
        48.250          52.500
 135518927.501 7                  25788393.972
        43.750
 145168840.222 6                  27624709.122
        37.750
 195427382.242 7                  37188727.765
        46.750
 122852589.768 6                  23046799.590
        41.750
 204848668.218 7                  38981396.237
        43.750
 148880925.908 5                  28331099.930
        35.750
 108126794.200 6                  20255774.150
        41.000
 122039206.856 7                  23223271.503
        44.000
 129830426.350 7                  24705868.072
        47.750
 121571312.901 7                  22782413.795
        46.250
 119488285.741 7  93107780.66745  22737851.614    22737851.436    22737852.000
        45.250          34.750
 116879876.768 8                  21880154.188
        48.250
 195972806.221 7                  37292379.503
        47.250
 135685120.92616 105728678.30453  25820020.366    25820020.353    25820023.809
        38.500          21.250
 132823333.781 7                  25275402.249
        45.750
 109777298.010 8  85540760.58447  20889918.843    20889918.593    20889916.189
        49.750          43.500
 107597092.117 8                  20107073.416
        52.500
 21 10  5  0 34  0.0000000  0 26G16S48R01G26G25E11G32E09G29E05E25S25
                                R10S23E03R22E12E24R02G18R12S36G27E31
                                G31R21
 129770862.324 6 101120158.64543  24694573.973    24694573.088    24694573.001
        36.750          21.000
  31652224.430 7                   6022988.891
        44.250
 125837190.333 7                  23540459.532
        42.250
 116654192.418 7  90899471.37945  22198516.529    22198516.114    22198517.276
        45.500          35.750
 120997916.997 7  94284202.14247  23025097.844    23025097.044    23025099.175
        42.000          43.500
 133923900.242 5                  25484860.258
        31.250
 117580282.305 7  91621025.03246  22374775.380    22374775.287    22374777.368
        47.000          37.500
 128656343.786 7                  24482482.726
        43.500
 112703971.611 8  87821365.39248  21446824.806    21446824.350    21446822.987
        48.250          52.000
 135543261.791 7                  25793024.319
        43.750
 145124038.301 6                  27616183.853
        38.000
 195424529.052 7                  37188195.012
        46.500
 122910444.604 6                  23057652.582
        39.750
 204848547.285 7                  38981375.337
        43.500
 148841418.887 5                  28323581.664
        35.750
 108039657.560 6                  20239450.862
        41.250
 121988693.322 7                  23213659.076
        44.000
 129815473.758 7                  24703022.684
        47.750
 121600398.961 7                  22787864.025
        45.750
 119410172.887 7  93046913.63345  22722987.424    22722987.241    22722987.289
        44.750          34.000
 116811416.075 8                  21867338.314
        48.250
 195972809.703 7                  37292381.193
        47.500
 135576378.156 5 105643943.48943  25799327.138    25799327.058    25799331.152
        32.500          18.000
 132847925.873 7                  25280082.255
        46.000
 109736209.286 8  85508743.39447  20882099.978    20882099.728    20882097.352
        49.500          43.500
 107627678.887 8                  20112789.658
        52.500
 21 10  5  0 34 30.0000000  0 26G16S48R01G26G25E11G32E09G29E05E25S25
                                R10S23E03R22E12E24R02G18R12S36G27E31
                                G31R21
 129702465.391 6 101066862.36743  24681558.121    24681557.250    24681556.761
        37.750          19.250
  31651386.170 7                   6023018.082
        44.500
 125935456.734 6                  23558841.441
        41.250
 116609231.411 7  90864436.81846  22189960.620    22189960.209    22189961.448
        45.250          36.000
 121059888.781 7  94332491.83347  23036890.587    23036889.787    23036892.020
        42.000          43.000
 133833030.586 6                  25467569.972
        37.250
 117663562.805 7  91685918.80746  22390623.452    22390623.359    22390625.232
        46.750          37.500
 128732516.879 7                  24496978.117
        44.000
 112768612.143 8  87871734.63648  21459125.402    21459124.946    21459123.647
        48.000          52.250
 135567951.978 7                  25797722.951
        43.750
 145079203.890 6                  27607652.250
        37.500
 195421654.163 7                  37187661.185
        46.750
 122968516.644 6                  23068547.071
        40.250
 204848425.634 7                  38981353.618
        43.750
 148802254.121 6                  28316129.225
        36.000
 107953147.514 6                  20223243.738
        40.750
 121938513.679 7                  23204110.143
        44.000
 129800529.532 7                  24700178.908
        47.750
 121630092.334 7                  22793428.700
        46.000
 119332282.839 7  92986220.18345  22708165.356    22708165.164    22708164.996
        44.500          33.750
 116742926.463 8                  21854517.126
        48.500
 195972816.158 7                  37292381.077
        47.250
 135467726.898 6 105559279.30342  25778652.484    25778652.400    25778655.232
        36.000          12.250
 132872541.232 7                  25284766.387
        46.000
 109695464.196 8  85476993.96647  20874346.482    20874346.232    20874343.804
        49.250          43.750
 107659065.892 8                  20118654.795
        52.500
 21 10  5  0 35  0.0000000  0 26G16S48R01G26G25E11G32E09G29E05E25S25
                                R10S23E03R22E12E24R02G18R12S36G27E31
                                G31R21
 129634153.659 6 101013632.46343  24668559.125    24668558.254    24668557.244
        37.000          20.250
  31652144.880 7                   6023045.627
        44.500
 126033742.373 6                  23577226.883
        38.500
 116564370.776 7  90829480.48546  22181424.018    22181423.607    22181425.214
        45.000          36.250
 121121892.933 7  94380806.73047  23048689.880    23048689.080    23048690.597
        42.000          42.750
 133742151.084 6                  25450277.265
        38.250
 117747096.631 7  91751009.97746  22406519.467    22406519.383    22406521.381
        46.750          37.500
 128808770.068 7                  24511488.629
        44.000
 112833621.969 8  87922391.63448  21471496.660    21471496.204    21471494.762
        48.250          52.250
 135592996.806 7                  25802488.638
        43.500
 145034336.457 6                  27599114.209
        37.500
 195418781.230 7                  37187124.366
        46.500
 123026805.760 6                  23079481.522
        39.750
 204848302.373 7                  38981329.981
        43.750
 148763432.374 5                  28308742.026
        35.250
 107867267.393 6                  20207155.693
        41.000
 121888669.401 7                  23194625.195
        44.250
 129785593.670 8                  24697336.622
        48.000
 121660390.958 7                  22799106.849
        46.000
 119254618.689 7  92925702.78745  22693386.108    22693385.916    22693385.886
        44.750          34.250
 116674408.924 8                  21841690.186
        48.250
 195972826.223 7                  37292382.042
        47.250
 135359169.766 6 105474689.64743  25757995.134    25757995.014    25757997.798
        39.500          22.500
 132897180.329 7                  25289454.928
        45.750
 109655064.682 8  85445513.82047  20866658.730    20866658.480    20866656.320
        49.500          44.000
 107691251.463 8                  20124669.298
        52.250
 21 10  5  0 35 30.0000000  0 26G16S48R01G26G25E11G32E09G29E05E25S25
                                R10S23E03R22E12E24R02G18R12S36G27E31
                                G31R21
 129565927.058 6 100960468.90543  24655575.568    24655574.710    24655573.351
        37.000          19.000
  31652900.446 7                   6023072.904
        44.250
 126132041.500 6                  23595616.356
        39.500
 116519610.283 7  90794602.18646  22172906.499    22172906.079    22172908.066
        45.000          36.750
 121183929.422 6  94429146.83147  23060494.458    23060493.658    23060495.734
        41.750          42.250
 133651231.69416                  25432983.120
        38.500
 117830880.679 7  91816296.12046  22422462.843    22422462.763    22422465.314
        47.250          37.500
 128885101.304 7                  24526014.190
        43.750
 112898998.495 8  87973334.37248  21483937.230    21483936.770    21483935.576
        48.500          52.250
 135618395.216 7                  25807321.928
        43.250
 144989435.584 6                  27590569.684
        38.250
 195415892.719 7                  37186585.049
        46.500
 123085313.375 6                  23090457.173
        40.250
 204848177.309 7                  38981306.550
        44.000
 148724954.472 5                  28301419.103
        35.500
 107782021.145 6                  20191186.361
        41.000
 121839162.147 7                  23185204.217
        44.250
 129770666.182 7                  24694496.158
        47.750
 121691291.834 7                  22804896.102
        44.750
 119177183.554 7  92865363.84745  22678650.348    22678650.165    22678650.673
        45.750          34.500
 116605864.601 8                  21828858.763
        48.000
 195972824.719 7                  37292382.883
        47.000
 135250706.305 5 105390171.90341  25737354.268    25737353.996    25737358.103
        30.500          11.750
 132921843.591 7                  25294148.059
        45.500
 109615013.139 8  85414304.82447  20859037.273    20859037.023    20859034.771
        50.000          44.000
 107724233.890 8                  20130833.101
        52.000
 21 10  5  0 36  0.0000000  0 26G16S48R01G26G25E11G32E09G29E05E25S25
                                R10S23E03R22E12E24R02G18R12S36G27E31
                                G31R21
 129497790.753 6 100907375.67943  24642610.018    24642609.182    24642606.406
        37.750          19.000
  31652057.203 7                   6023100.338
        44.250
 126230353.431 6                  23614007.886
        40.250
 116474955.007 7  90759805.87446  22164408.864    22164408.444    22164410.673
        45.500          37.000
 121246003.517 7  94477516.22247  23072307.241    23072306.446    23072308.786
        42.250          42.750
 133560343.984 5                  25415689.600
        32.250
 117914917.093 7  91881778.90746  22438454.475    22438454.404    22438457.034
        47.250          37.750
 128961513.803 7                  24540555.202
        43.500
 112964744.032 8  88024564.65648  21496448.085    21496447.629    21496446.336
        48.500          52.250
 135644151.266 7                  25812223.239
        43.750
 144944506.111 6                  27582019.890
        38.500
 195412999.941 7                  37186044.662
        46.250
 123144045.198 6                  23101476.160
        41.250
 204848056.134 7                  38981281.831
        43.500
 148686826.585 6                  28294164.438
        36.500
 107697418.014 6                  20175338.132
        40.750
 121789998.744 7                  23175848.819
        44.500
 129755752.503 8                  24691658.074
        48.000
 121722797.658 7                  22810801.159
        45.000
 119099985.628 7  92805209.69145  22663960.263    22663960.080    22663960.311
        45.500          35.000
 116537300.145 8                  21816022.897
        48.250
 195972827.404 7                  37292383.447
        47.000
                                  25716737.450    25716737.731    25716741.566
        33.500          19.000
 132946536.884 7                  25298846.930
        45.500
 109575316.827 8  85383372.63048  20851483.243    20851482.984    20851480.577
        49.500          50.000
 107758016.576 8                  20137146.084
        52.000
 21 10  5  0 36 30.0000000  0 26G16S48R01G26G25E11G32E09G29E05E25S25
                                R10S23E03R22E12E24R02G18R12S36G27E31
                                G31R21
 129429738.683 6 100854348.12543  24629659.407    24629658.540    24629657.799
        36.000          19.000
  31652809.241 7                   6023128.379
        44.250
 126328671.624 6                  23632400.276
        37.000
 116430399.119 7  90725087.00646  22155930.030    22155929.628    22155931.622
        45.750          37.000
 121308109.786 7  94525910.68947  23084125.541    23084124.746    23084127.101
        42.000          42.750
 133469453.844 6                  25398394.698
        36.000
 117999197.143 7  91947451.53546  22454492.860    22454492.798    22454495.054
        47.250          37.750
 129037999.906 7                  24555110.201
        43.000
 113030850.820 8  88076076.43848  21509027.954    21509027.498    21509025.989
        48.250          52.000
 135670258.235 7                  25817191.154
        43.250
 144899542.047 6                  27573463.719
        38.750
 195410099.181 7                  37185504.570
        46.000
 123202996.262 6                  23112534.042
        40.500
 204847933.026 7                  38981258.507
        43.250
 148649043.881 6                  28286973.999
        37.000
 107613456.260 6                  20159608.287
        41.250
 121741175.245 7                  23166557.801
        44.250
 129740847.168 7                  24688821.662
        47.250
 121754900.171 7                  22816817.503
        45.750
 119023022.549 7  92745238.53945  22649314.660    22649314.468    22649314.746
        45.000          34.250
 116468710.958 7                  21803182.636
        47.250
 195972831.518 7                  37292383.943
        47.000


 132971255.118 7                  25303550.953
        45.000
 109535971.359 8  85352713.82149  20843996.179    20843995.925    20843993.377
        49.750          54.000
 107792592.046 8                  20143607.324
        52.000
 21 10  5  0 37  0.0000000  0 27G16S48R01G26G25E11G32E09G29E05E25S25
                                R10S23E03R22E12E24R02G18R12R23S36G27
                                E31G31R21
 129361771.513 6 100801386.70643  24616726.560    24616725.689    24616724.758
        38.500          19.500
  31651958.746 7                   6023155.665
        44.500
 126426993.442 6                  23650794.706
        41.000
 116385943.887 7  90690446.57046  22147470.498    22147470.092    22147471.728
        45.500          36.500
 121370249.665 6  94574331.34747  23095950.541    23095949.746    23095951.672
        41.750          42.250
 133378569.880 6                  25381098.181
        37.500
 118083719.160 7  92013312.70646  22470576.891    22470576.842    22470579.069
        47.000          37.750
 129114559.023 7                  24569679.188
        42.750
 113097317.376 8  88127868.55248  21521676.157    21521675.697    21521674.394
        48.000          52.000
 135696716.365 7                  25822225.894
        43.250
 144854544.393 6                  27564901.166
        38.000
 195407186.852 7                  37184959.390
        46.250
 123262168.968 6                  23123635.551
        40.250
 204847808.704 7                  38981235.161
        43.500
 148611608.550 5                  28279850.466
        34.750
 107530140.466 6                  20144000.090
        41.250
 121692694.624 7                  23157332.187
        44.250
 129725951.695 7                  24685987.098
        47.750
 121787597.775 7                  22822944.843
        45.500
 118946298.940 7  92685453.99945  22634714.694    22634714.493    22634714.581
        44.750          34.250
 116400099.457 8                  21790338.471
        48.000
 133176442.57516                  24895931.068
        40.000
 195972833.803 7                  37292385.419
        47.250
 134925918.89015 105137085.33553  25675550.761    25675550.854    25675552.181
        35.250          18.000
 132996000.290 7                  25308259.468
        45.000
 109496980.050 8  85322330.98249  20836576.293    20836576.039    20836573.591
        49.750          54.000
 107827959.910 8                  20150216.689
        52.000
 21 10  5  0 37 30.0000000  0 26G16S48R01G26G25E11G32E09G29E05E25S25
                                R10S23E03R22E12E24R02G18R12S36G27E31
                                G31R21
 129293890.966 6 100748492.79043  24603809.309    24603808.420    24603807.331
        37.500          20.000
  31652706.824 7                   6023183.514
        44.500
 126525317.977 6                  23669187.223
        39.750
 116341590.998 7  90655885.87645  22139030.403    22139029.997    22139031.554
        45.250          35.750
 121432424.966 6  94622779.61346  23107781.824    23107781.033    23107783.134
        41.750          41.250
 133287684.856 6                  25363803.190
        36.500
 118168481.928 7  92079361.47446  22486707.018    22486706.969    22486709.075
        47.750          37.500
 129191191.075 7                  24584261.721
        42.750
 113164143.357 8  88179940.74748  21534392.648    21534392.188    21534390.540
        48.500          51.250
 135723526.437 7                  25827327.863
        43.500
 144809514.669 6                  27556332.027
        39.000
 195404271.608 7                  37184414.170
        46.500
 123321565.817 6                  23134777.484
        41.250
 204847684.906 7                  38981212.123
        44.000
 148574523.457 5                  28272792.438
        34.500
 107447476.617 6                  20128514.881
        41.500
 121644560.389 7                  23148172.518
        44.250
 129711068.155 7                  24683154.877
        47.750
 121820890.226 7                  22829183.392
        45.000
 118869819.674 7  92625859.85445  22620160.984    22620160.779    22620160.862
        45.000          34.000
 116331469.071 8                  21777491.138
        48.500
 195972834.937 7                  37292385.794
        47.250
 134817854.45116 105052890.05753  25654986.656    25654987.094    25654989.322
        38.000          18.000
 133020774.866 7                  25312974.158
        45.500
 109458346.840 8  85292227.18048  20829224.601    20829224.342    20829221.927
        49.750          53.750
 107864120.169 8                  20156973.886
        51.750
 21 10  5  0 38  0.0000000  0 26G16S48R01G26G25E11G32E09G29E05E25S25
                                R10S23E03R22E12E24R02G18R12S36G27E31
                                G31R21
 129226096.193 6 100695665.73443  24590908.356    24590907.458    24590906.168
        38.000          19.000
  31653452.539 7                   6023212.030
        44.500
 126623637.052 7                  23687578.424
        42.250
 116297339.337 7  90621404.05845  22130609.460    22130609.058    22130610.630
        45.250          35.500
 121494635.023 7  94671254.95347  23119620.366    23119619.575    23119621.138
        42.250          42.000
 133196803.178 5                  25346509.205
        31.250
 118253481.435 7  92145594.70246  22502881.840    22502881.791    22502884.154
        47.000          37.250
 129267893.017 7                  24598857.763
        42.750
 113231325.078 8  88232290.14248  21547177.087    21547176.627    21547174.810
        48.250          51.500
 135750686.291 7                  25832496.230
        44.000
 144764451.525 6                  27547756.926
        39.250
 195401346.471 7                  37183866.763
        46.250
 123381186.602 6                  23145963.122
        41.000
 204847561.855 7                  38981186.831
        43.750
 148537788.384 5                  28265802.974
        35.250
 107365467.293 6                  20113151.399
        41.000
 121596773.171 7                  23139078.894
        44.250
 129696195.715 8                  24680324.800
        48.000
 121854773.512 7                  22835533.041
        45.750
 118793586.984 7  92566457.83245  22605654.619    22605654.414    22605654.194
        45.000          34.000
 116262820.024 8                  21764640.209
        49.000
 195972839.293 7                  37292386.644
        47.250
 134709911.31716 104968781.97354  25634444.237    25634444.339    25634448.512
        36.750          24.500
 133045578.490 7                  25317694.112
        45.500
 109420072.615 8  85262403.10849  20821941.360    20821941.101    20821938.776
        49.750          54.000
 107901069.970 8                  20163878.988
        52.000
 21 10  5  0 38 30.0000000  0 26G16S48R01G26G25E11G32E09G29E05E25S25
                                R10S23E03R22E12E24R02G18R12S36G27E31
                                G31R21
 129158387.904 6 100642906.03243  24578023.474    24578022.585    24578021.340
        37.500          19.750
  31652599.573 7                   6023240.626
        44.250
 126721945.972 6                  23705970.659
        37.250
 116253190.011 7  90587001.97846  22122208.312    22122207.910    22122209.695
        45.000          36.000
 121556881.037 6  94719758.31147  23131465.429    23131464.638    23131466.171
        41.750          42.000
 133105929.54815                  25329216.702
        34.500
 118338715.793 7  92212010.93046  22519101.636    22519101.587    22519103.995
        46.750          37.250
 129344664.111 7                  24613466.895
        42.500
 113298861.234 8  88284915.71648  21560028.775    21560028.315    21560026.620
        48.000          51.750
 135778195.977 7                  25837731.328
        43.250
 144719355.792 6                  27539175.441
        37.500
 195398414.773 7                  37183318.725
        46.250
 123441033.234 6                  23157190.161
        40.750
 204847440.761 7                  38981166.190
        43.250
 148501405.345 5                  28258878.719
        34.000
 107284117.251 6                  20097911.827
        41.000
 121549335.786 7                  23130051.783
        44.250
 129681335.788 7                  24677497.130
        47.500
 121889246.492 7                  22841994.360
        45.750
 118717605.184 7  92507251.29445  22591195.350    22591195.145    22591195.288
        45.500          34.500
 116194154.641 8                  21751785.538
        49.000
 195972856.619 7                  37292388.835
        47.000
 134602062.677 6 104884742.77443  25613921.198    25613921.051    25613925.437
        38.250          21.000
 133070412.914 7                  25322419.663
        45.000
 109382160.693 8  85232861.35249  20814727.015    20814726.756    20814724.417
        50.000          54.250
 107938808.682 8                  20170931.442
        52.000
 21 10  5  0 39  0.0000000  0 26G16S48R01G26G25E11G32E09G29E05E25S25
                                R10S23E03R22E12E24R02G18R12S36G27E31
                                G31R21
 129090758.203 6 100590207.60143  24565154.049    24565153.195    24565151.898
        38.250          19.750
  31653337.870 7                   6023267.599
        44.000
 126820236.858 6                  23724357.397
        40.000
 116209135.254 7  90552673.60046  22113825.024    22113824.622    22113826.265
        45.500          36.250
 121619155.576 6  94768283.91247  23143315.897    23143315.097    23143316.968
        41.750          42.000
 133015060.389 5                  25311924.225
        33.000
 118424174.265 7  92278601.79346  22535363.825    22535363.785    22535366.410
        46.500          36.500
 129421494.739 7                  24628087.500
        42.250
 113366741.604 8  88337809.51448  21572945.807    21572945.342    21572943.819
        48.500          51.500
 135806046.742 7                  25843031.040
        43.500
 144674219.556 6                  27530586.360
        38.000
 195395461.921 7                  37182767.575
        46.250
 123501098.776 7                  23168458.642
        43.500
 204847314.079 7                  38981140.085
        43.250
 148465367.504 5                  28252021.495
        34.750
 107203422.561 6                  20082795.552
        41.250
 121502242.203 7                  23121090.176
        44.250
 129666480.979 7                  24674670.317
        47.500
 121924298.285 7                  22848562.442
        45.750
 118641869.855 7  92448236.82545  22576783.407    22576783.193    22576783.212
        45.000          34.000
 116125466.489 8                  21738926.989
        48.750
 195972860.459 7                  37292389.067
        46.750
 134494313.891 6 104800780.45442  25593419.451    25593419.085    25593422.475
        37.250          15.000
 133095271.136 7                  25327150.413
        45.000
 109344605.538 8  85203597.59449  20807580.431    20807580.163    20807577.758
        50.000          54.000
 107977326.319 8                  20178129.369
        52.000
 21 10  5  0 39 30.0000000  0 27G16S48R01G26G25E11G32E09G29E05E25S25
                                R23R10S23E03R22E12E24R02G18R12S36G27
                                E31G31R21
 129023213.013 6 100537574.98343  24552300.863    24552300.023    24552297.530
        37.250          19.750
  31654074.929 7                   6023296.172
        44.000
 126918512.038 6                  23742741.900
        40.750
 116165180.911 7  90518423.47046  22105460.528    22105460.126    22105462.207
        46.000          36.750
 121681464.658 7  94816836.43846  23155173.142    23155172.342    23155174.011
        42.500          41.750
 132924196.262 5                  25294633.821
        35.750
 118509859.839 7  92345369.60845  22551669.403    22551669.345    22551671.801
        46.250          35.750
 129498388.911 7                  24642720.063
        42.000
 113434969.782 8  88390974.31948  21585929.295    21585928.830    21585927.300
        48.250          51.250
 135834243.375 7                  25848396.557
        43.750
 144629048.476 6                  27521990.095
        37.750
 195392500.956 7                  37182213.492
        46.000
 132501114.91816                  24769682.847
        39.000
 123561389.910 7                  23179769.408
        43.750
 204847187.586 7                  38981115.518
        43.250
 148429681.737 5                  28245231.058
        34.500
 107123393.059 6                  20067803.201
        41.750
 121455499.986 7                  23112195.374
        43.750
 129651637.471 7                  24671845.745
        47.750
 121959932.145 7                  22855240.805
        45.500
 118566390.117 7  92389421.50545  22562420.150    22562419.931    22562419.824
        45.500          34.500
 116056762.943 8                  21726065.624
        48.750
 195972858.112 7                  37292389.112
        46.500
 134386675.124 5 104716903.81943  25572937.582    25572937.225    25572942.972
        34.500          18.500
 133120159.762 7                  25331886.418
        45.000
 109307414.717 8  85174617.73549  20800503.298    20800503.030    20800500.691
        49.750          54.000
 108016627.156 8                  20185473.666
        52.250
 21 10  5  0 40  0.0000000  0 27G16S48R01G26G25E11G32E09G29E05E25S25
                                R23R10S23E03R22E12E24R02G18R12S36G27
                                E31G31R21
 128955754.426 6 100485009.88043  24539463.434    24539462.598    24539461.416
        38.000          19.500
  31653213.163 7                   6023323.015
        44.250
 127016766.380 6                  23761121.802
        40.750
 116121329.188 7  90484253.30446  22097115.986    22097115.593    22097117.547
        45.500          36.500
 121743810.844 7  94865417.85646  23167036.861    23167036.061    23167038.214
        42.250          41.750
 132833351.62316                  25277346.472
        39.000
 118595771.733 7  92412313.77045  22568017.982    22568017.915    22568020.420
        46.500          35.750
 129575346.927 7                  24657364.792
        42.000
 113503545.827 8  88444410.20248  21598978.824    21598978.359    21598976.644
        48.500          50.750
 135862787.023 7                  25853828.378
        43.250
 144583844.502 6                  27513388.335
        38.000
 195389533.687 7                  37181658.349
        46.000
 132365866.356 7                  24744401.446
        42.250
 123621910.090 7                  23191122.425
        43.500
 204847063.661 7                  38981093.683
        43.250
 148394351.267 5                  28238507.336
        35.500
 107044034.200 6                  20052936.154
        41.750
 121409113.036 7                  23103368.226
        44.000
 129636807.770 7                  24669023.697
        47.750
 121996147.652 7                  22862027.010
        46.000
 118491171.395 7  92330809.56945  22548106.288    22548106.069    22548106.317
        46.000          35.000
 115988047.793 8                  21713201.670
        48.500
 195972856.462 7                  37292390.078
        47.000
 134279152.119 5 104633118.08143  25552477.373    25552476.850    25552484.011
        33.750          19.500
 133145081.762 7                  25336629.030
        45.250
 109270592.748 8  85145925.29249  20793496.063    20793495.795    20793493.994
        49.750          54.250
 108056711.248 8                  20192964.578
        52.000
 21 10  5  0 40 30.0000000  0 27G16S48R01G26G25E11G32E09G29E05E25S25
                                R23R10S23E03R22E12E24R02G18R12S36G27
                                E31G31R21
 128888375.645 6 100432506.95243  24526641.722    24526640.900    24526639.942
        38.250          20.000
  31653943.879 7                   6023350.757
        44.250
 127114991.943 6                  23779497.866
        41.000
 116077573.904 7  90450158.28546  22088789.750    22088789.357    22088790.818
        45.500          36.250
 121806188.071 7  94914023.46846  23178907.336    23178906.532    23178908.069
        42.500          41.250
 132742517.70916                  25260061.477
        38.000
 118681900.732 7  92479427.10845  22584408.046    22584407.975    22584410.589
        46.250          35.750
 129652360.760 7                  24672020.178
        42.000
 113572460.938 8  88498110.28548  21612092.936    21612092.476    21612091.014
        48.250          51.250
 135891670.397 7                  25859324.651
        43.250
 144538601.154 6                  27504778.603
        37.000
 195386554.555 7                  37181102.093
        46.000
 132230572.27917                  24719108.864
        42.500
 123682653.531 7                  23202516.499
        43.500
 204846935.860 7                  38981067.506
        43.500
 148359370.625 5                  28231851.227
        35.250
 106965343.831 6                  20038194.604
        41.500
 121363076.762 7                  23094607.617
        44.250
 129621985.913 7                  24666203.147
        47.750
 122032935.831 7                  22868921.104
        45.250
 118416210.748 7  92272398.74345  22533841.735    22533841.512    22533841.568
        45.500          35.000
 115919316.336 8                  21700335.149
        48.750
 195972860.631 7                  37292389.819
        47.000
 134171739.411 5 104549418.51743  25532038.738    25532038.171    25532045.642
        34.000          18.500
 133170031.574 7                  25341376.684
        45.250
 109234135.048 8  85117516.69449  20786558.566    20786558.298    20786556.164
        49.750          54.000
 108097570.443 8                  20200599.890
        52.250
 21 10  5  0 41  0.0000000  0 27G16S48R01G26G25E11G32E09G29E05E25S25
                                R23R10S23E03R22E12E24R02G18R12S36G27
                                E31G31R21
 128821085.225 6 100380072.85943  24513836.638    24513835.793    24513835.960
        37.000          20.750
  31653077.387 7                   6023378.821
        44.250
 127213194.829 6                  23797867.259
        39.500
 116033923.637 7  90416145.09246  22080483.174    22080482.781    22080484.274
        45.250          36.250
 121868605.239 6  94962660.19146  23190784.594    23190783.785    23190785.924
        41.250          40.500
 132651700.092 6                  25242780.368
        37.750
 118768252.535 7  92546714.05846  22600840.041    22600839.974    22600842.890
        46.000          36.000
 129729437.192 6                  24686687.519
        41.750
 113641721.039 7  88552079.18348  21625272.610    21625272.150    21625270.688
        47.750          51.250
 135920901.045 7                  25864887.068
        43.750
 144493326.902 6                  27496163.285
        37.500
 195383575.456 7                  37180544.275
        46.250
 132095225.237 6                  24693806.574
        40.750
 123743629.837 7                  23213957.050
        44.250
 204846813.616 7                  38981046.172
        43.500
 148324749.380 5                  28225261.850
        35.000
 106887334.113 6                  20023581.503
        41.500
 121317401.494 7                  23085916.093
        44.000
 129607180.997 7                  24663385.949
        47.750
 122070302.386 7                  22875924.631
        45.750
 118341520.092 7  92214198.30045  22519628.402    22519628.179    22519628.136
        45.250          35.250
 115850578.419 8                  21687466.944
        48.000
 195972868.339 7                  37292391.415
        47.250
 134064448.322 5 104465814.50643  25511622.915    25511622.321    25511630.364
        35.750          23.000
 133195018.645 7                  25346131.650
        45.000
 109198052.452 8  85089400.38949  20779692.232    20779691.964    20779689.844
        49.500          54.500
 108139211.571 8                  20208381.703
        52.000
 21 10  5  0 41 30.0000000  0 27G16S48R01G26G25E11G32E09G29E05E25S25
                                R23R10S23E03R22E12E24R02G18R12S36G27
                                E31G31R21
 128753874.717 6 100327701.07143  24501046.967    24501046.136    24501045.939
        38.750          21.500
  31653806.797 7                   6023406.662
        44.250
 127311362.930 6                  23816229.237
        40.250
 115990369.964 7  90382207.16146  22072195.541    22072195.144    22072196.090
        45.500          36.250
 121931054.237 6  95011321.73246  23202668.488    23202667.675    23202669.082
        41.250          41.000
 132560897.841 6                  25225501.043
        37.000
 118854815.675 7  92614165.67946  22617312.889    22617312.818    22617315.418
        45.500          36.000
 129806565.784 7                  24701364.817
        42.250
 113711315.741 7  88606308.81448  21638516.028    21638515.568    21638514.181
        47.750          51.250
 135950469.354 7                  25870513.751
        43.750
 144448013.031 6                  27487540.176
        37.500
 195380585.728 7                  37179983.963
        46.000
 131959827.447 5                  24668495.511
        35.500
 123804831.588 7                  23225437.295
        43.250
 204846687.682 7                  38981019.821
        43.000
 148290479.908 5                  28218742.021
        35.750
 106809999.935 6                  20009093.991
        41.750
 121272080.412 7                  23077291.560
        44.250
 129592384.778 7                  24660570.320
        47.500
 122108236.979 7                  22883033.184
        46.000
 118267094.104 7  92156204.09445  22505465.656    22505465.433    22505465.300
        45.250          35.000
 115781827.318 8                  21674596.371
        48.250
 195972874.512 7                  37292392.403
        47.000
 133957272.039 5 104382300.32544  25491227.902    25491227.263    25491235.401
        35.000          25.500
 133220035.219 7                  25350892.272
        45.250
 109162338.715 8  85061571.50849  20772896.109    20772895.841    20772893.685
        49.500          54.250
 108181623.706 8                  20216306.926
        52.000
 21 10  5  0 42  0.0000000  0 27G16S48R01G26G25E11G32E09G29E05E25S25
                                R23R10S23E03R22E12E24R02G18R12S36G27
                                E31G31R21
 128686747.154 6 100275393.91643  24488273.385    24488272.554    24488271.171
        38.500          22.000
  31654531.645 7                   6023434.569
        44.250
 127409492.754 7                  23834588.527
        43.250
 115946915.981 7  90348346.92446  22063926.290    22063925.893    22063927.139
        45.500          36.250
 121993538.345 6  95060010.62046  23214558.488    23214557.675    23214559.788
        41.500          40.750
 132470116.524 6                  25208225.976
        37.250
 118941590.336 7  92681782.11845  22633825.502    22633825.431    22633828.234
        46.250          35.750
 129883747.772 7                  24716052.279
        42.000
 113781245.527 8  88660799.55748  21651823.188    21651822.728    21651821.475
        48.000          51.000
 135980377.350 7                  25876205.206
        43.250
 144402662.427 6                  27478910.394
        37.250
 195379182.107 7                  37179421.652
        46.000
 131824384.952 6                  24643175.379
        37.750
 123866262.280 7                  23236961.784
        44.000
 204846562.582 7                  38980996.617
        43.500
 148256566.277 5                  28212287.915
        35.750
 106733348.093 6                  19994734.213
        41.750
 121227118.251 7                  23068735.669
        44.000
 129577600.759 7                  24657756.951
        47.750
 122146738.584 7                  22890247.974
        44.500
 118192939.215 7  92098421.14345  22491354.267    22491354.044    22491354.272
        45.500          35.500
 115713067.461 8                  21661724.668
        48.500
 195972876.143 7                  37292393.736
        47.250
 133850214.053 6 104298878.01544  25470856.760    25470856.130    25470862.684
        39.500          24.250
 133245085.164 7                  25355659.093
        45.250
 109126998.668 8  85034033.81049  20766171.102    20766170.834    20766168.355
        49.750          54.000
 108224807.913 8                  20224377.109
        51.750
 21 10  5  0 42 30.0000000  0 27G16S48R01G26G25E11G32E09G29E05E25S25
                                R23R10S23E03R22E12E24R02G18R12S36G27
                                E31G31R21
 128619697.140 6 100223147.17443  24475513.428    24475512.615    24475512.630
        38.250          22.000
  31653648.817 7                   6023461.180
        44.500
 127507572.953 5                  23852935.643
        35.500
 115903556.609 7  90314560.40746  22055675.426    22055675.033    22055676.320
        46.000          36.750
 122056052.738 7  95108723.10746  23226454.872    23226454.068    23226456.138
        42.000          41.250
 132379352.208 6                  25190954.104
        37.500
 119028568.437 7  92749557.06946  22650377.194    22650377.114    22650379.789
        46.750          36.000
 129960976.308 7                  24730748.521
        42.250
 113851502.809 8  88715545.49948  21665192.814    21665192.354    21665190.888
        48.250          51.000
 136010618.795 7                  25881959.822
        42.750
 144357269.828 6                  27470272.239
        37.000
 195376168.317 7                  37178858.621
        46.500
 131688897.494 6                  24617848.111
        41.750
 123927917.802 7                  23248527.878
        43.500
 204846432.440 7                  38980971.549
        43.500
 148223004.206 5                  28205901.419
        35.250
 106657377.320 6                  19980502.175
        41.750
 121182511.577 7                  23060247.275
        43.500
 129562824.164 7                  24654945.027
        47.000
 122185800.069 7                  22897567.974
        45.000
 118119053.574 7  92040848.04145  22477294.396    22477294.177    22477294.400
        45.750          35.750
 115644295.319 8                  21648850.695
        48.750
 195972876.762 7                  37292394.263
        47.000
 133743272.049 6 104215546.35943  25450507.037    25450506.376    25450512.410
        40.000          20.000
 133270164.096 7                  25360431.527
        45.000
 109092029.539 8  85006785.13849  20759516.686    20759516.418    20759513.955
        49.750          54.250
 108268757.189 8                  20232590.320
        52.000
 21 10  5  0 43  0.0000000  0 28G16S48R01G26G25E11G32R03E09G29E05E25
                                S25R23R10S23E03R22E12E24R02G18R12S36
                                G27E31G31R21
 128552731.081 6 100170965.83943  24462771.235    24462770.408    24462769.087
        39.000          22.250
  31654366.935 7                   6023488.971
        44.250
 127605612.127 6                  23871276.608
        38.500
 115860298.482 7  90280852.79046  22047443.598    22047443.201    22047444.738
        45.750          36.750
 122118604.217 6  95157464.48446  23238357.963    23238357.150    23238359.762
        41.500          40.750
 132288613.532 6                  25173686.798
        38.250
 119115753.591 7  92817493.37245  22666968.009    22666967.929    22666970.541
        46.000          35.500
 131961926.61715                  24651599.241
        31.750
 130038256.041 7                  24745454.461
        42.500
 113922091.674 8  88770549.80648  21678625.441    21678624.981    21678623.687
        48.000          50.750
 136041199.188 7                  25887779.137
        42.250
 144311841.581 6                  27461627.873
        37.750
 195373150.897 7                  37178293.319
        46.500
 131553374.985 5                  24592511.166
        35.750
 123989805.332 7                  23260138.368
        43.250
 204846305.114 7                  38980948.722
        43.500
 148189801.076 5                  28199582.695
        35.750
 106582097.501 7                  19966400.350
        42.000
 121138268.553 7                  23051827.962
        43.750
 129548061.999 7                  24652136.001
        47.000
 122225424.876 7                  22904993.755
        44.750
 118045446.894 7  91983492.28945  22463287.319    22463287.105    22463287.230
        45.500          35.500
 115575518.856 8                  21635975.705
        48.750
 195972881.450 7                  37292393.995
        47.250
 133636454.464 6 104132311.66044  25430180.029    25430179.412    25430186.511
        41.250          26.250
 133295279.326 7                  25365210.733
        45.000
 109057439.554 8  84979831.90149  20752934.522    20752934.254    20752932.026
        49.750          54.250
 108313475.674 8                  20240946.793
        51.500
 21 10  5  0 43 30.0000000  0 28G16S48R01G26G25E11G32R03E09G29E05E25
                                S25R23R10S23E03R22E12E24R02G18R12S36
                                G27E31G31R21
 128485846.813 6 100118848.26643  24450042.796    24450041.965    24450042.366
        38.250          22.500
  31655083.017 7                   6023515.219
        44.250
 127703601.611 6                  23889607.058
        41.500
 115817139.568 7  90247222.47546  22039230.552    22039230.159    22039232.174
        45.750          36.750
 122181191.178 6  95206233.53746  23250267.951    23250267.138    23250269.196
        41.250          40.500
 132197900.512 6                  25156424.736
        38.250
 119203140.720 7  92885587.05445  22683597.419    22683597.343    22683600.054
        46.000          35.750
 131924119.032 4                  24644535.008
        26.000
 130115582.983 7                  24760169.569
        43.250
 113993007.767 8  88825809.09948  21692120.284    21692119.819    21692118.660
        48.000          51.250
 136072115.243 7                  25893662.067
        42.750
 144266375.417 6                  27452975.789
        38.000
 195370122.283 7                  37177726.246
        46.500
 131417817.156 6                  24567170.686
        39.750
 124051923.756 7                  23271792.035
        43.000
 204846177.967 7                  38980924.038
        43.500
 148156955.684 6                  28193333.092
        37.000
 106507510.026 6                  19952427.250
        41.750
 121094388.731 7                  23043477.887
        44.000
 129533312.514 7                  24649329.220
        47.500
 122265607.832 7                  22912524.768
        45.000
 117972120.352 7  91926354.82045  22449333.605    22449333.395    22449333.411
        45.500          35.750
 115506737.928 8                  21623099.739
        49.000
 195972882.195 7                  37292393.503
        47.250
 133529761.652 6 104049174.38744  25409877.588    25409876.994    25409883.641
        39.750          24.250
 133320429.579 7                  25369996.562
        45.000
 109023228.747 8  84953174.13149  20746424.360    20746424.088    20746421.876
        49.750          54.250
 108358959.099 8                  20249447.003
        52.000
 21 10  5  0 44  0.0000000  0 28G16S48R01G26G25E11G32R03E09G29E05E25
                                S25R23R10S23E03R22E12E24R02G18R12S36
                                G27E31G31R21
 128419042.075 6 100066792.63543  24437330.871    24437330.040    24437329.230
        38.000          22.750
  31654195.104 7                   6023542.612
        44.250
 127801536.761 6                  23907926.025
        37.500
 115774077.846 7  90213667.89046  22031036.234    22031035.837    22031037.644
        45.250          36.750
 122243811.717 6  95255028.74446  23262184.199    23262183.381    23262185.904
        41.250          40.500
 132107213.240 6                  25139167.145
        38.250
 119290724.849 7  92953834.23845  22700263.988    22700263.917    22700267.017
        46.000          35.750


 130192953.374 7                  24774892.684
        43.750
 114064246.484 8  88881319.78348  21705676.804    21705676.344    21705675.041
        48.000          51.000
 136103363.751 7                  25899608.596
        42.750
 144220869.137 6                  27444316.204
        38.250
 195367092.492 7                  37177157.245
        46.750
 131282227.587 7                  24541825.521
        43.750
 124114271.354 7                  23283487.876
        43.000
 204846049.223 7                  38980898.514
        43.500
 148124466.795 6                  28187150.639
        36.000
 106433616.176 6                  19938583.663
        41.500
 121050871.642 7                  23035196.948
        44.250
 129518574.047 7                  24646524.628
        47.500
 122306344.520 7                  22920157.933
        44.750
 117899075.069 7  91869436.46045  22435433.717    22435433.512    22435433.127
        45.250          35.250
 115437951.620 8                  21610222.822
        49.250
 195972881.025 7                  37292394.670
        47.250
 133423193.233 6 103966134.29943  25389595.969    25389595.384    25389603.831
        37.750          19.000
 133345613.576 7                  25374789.108
        45.500
 108989397.011 8  84926811.73649  20739986.579    20739986.307    20739983.849
        50.000          54.500
 108405203.207 8                  20258088.259
        51.750
 21 10  5  0 44 30.0000000  0 28G16S48R01G26G25E11G32R03E09G29E05E25
                                S25R23R10S23E03R22E12E24R02G18R12S36
                                G27E31G31R21
 128352319.043 6 100014800.70343  24424633.165    24424632.343    24424632.639
        37.750          22.000
  31654907.123 7                   6023569.294
        44.250
 127899412.522 6                  23926236.334
        39.000
 115731115.780 7  90180190.96146  22022860.826    22022860.429    22022862.252
        45.750          37.250
 122306468.563 6  95303852.24946  23274107.694    23274106.881    23274108.457
        41.500          39.750
 132016556.656 6                  25121915.931
        39.000
 119378505.391 7  93022234.47245  22716968.670    22716968.603    22716971.317
        46.250          35.750


 130270367.675 7                  24789624.313
        43.500
 114135807.856 8  88937081.88948  21719294.341    21719293.876    21719292.732
        48.000          51.000
 136134946.030 7                  25905618.430
        42.750
 144175324.893 6                  27435649.379
        38.500
 195364052.402 7                  37176586.076
        46.500
 131146611.397 6                  24516472.971
        39.250
 124176851.872 7                  23295227.741
        42.500
 204845921.218 7                  38980873.402
        43.750
 148092337.663 5                  28181036.174
        35.750
 106360421.938 6                  19924872.369
        41.750
 121007721.309 7                  23026985.570
        44.000
 129503849.404 7                  24643722.552
        47.500
 122347633.865 7                  22927896.095
        45.250
 117826316.656 7  91812741.62145  22421588.234    22421588.024    22421587.664
        45.750          35.250
 115369164.148 8                  21597345.544
        49.000
 195972890.759 7                  37292395.185
        47.250
 133316753.984 6 103883195.44243  25369342.305    25369341.787    25369348.852
        36.750          21.750
 133370834.515 7                  25379588.397
        45.500
 108955948.839 8  84900748.22349  20733621.387    20733621.110    20733618.856
        50.000          54.250
 108452208.186 8                  20266872.426
        51.500
 21 10  5  0 45  0.0000000  0 28G16S48R01G26G25E11G32R03E09G29E05E25
                                S25R23R10S23E03R22E12E24R02G18R12S36
                                G27E31G31R21
 128285675.444 6  99962870.64643  24411951.841    24411951.014    24411950.384
        38.000          22.250
  31655615.646 7                   6023598.069
        44.250
 127997224.920 6                  23944532.439
        38.500
 115688251.099 7  90146789.91646  22014704.015    22014703.613    22014705.771
        45.500          37.500
 122369159.692 6  95352702.47246  23286037.083    23286036.265    23286037.785
        41.000          39.500
 131925930.480 6                  25104670.075
        39.000
 119466477.123 7  93090783.67846  22733709.127    22733709.065    22733712.053
        46.250          36.250


 130347821.652 7                  24804363.560
        43.000
 114207686.951 7  88993091.57548  21732972.500    21732972.035    21732970.675
        47.500          50.750
 136166858.560 7                  25911691.339
        42.750
 144129740.303 6                  27426975.268
        38.750
 195360994.982 7                  37176010.873
        46.250
 131010970.157 6                  24491113.548
        38.000
 124239663.479 7                  23307012.160
        43.000
 204845792.071 7                  38980851.397
        43.500
 148060566.765 5                  28174990.372
        35.000
 106287928.342 6                  19911291.836
        41.750
 120964936.994 7                  23018843.866
        44.250
 129489136.692 7                  24640922.772
        47.750
 122389470.958 7                  22935735.747
        45.000
 117753846.031 7  91756271.01445  22407797.532    22407797.327    22407797.194
        45.000          35.500
 115300374.538 8                  21584467.760
        48.500
 195972896.663 7                  37292395.779
        47.250
 133210441.413 6 103800354.47343  25349108.976    25349108.440    25349117.510
        36.750          23.000
 133396090.824 7                  25384394.543
        45.500
 108922883.502 8  84874983.01949  20727329.373    20727329.096    20727326.689
        49.750          54.500
 108499969.305 8                  20275797.802
        51.750
 21 10  5  0 45 30.0000000  0 28G16S48R01G26G25E11G32R03E09G29E05E25
                                S25R23R10S23E03R22E12E24R02G18R12S36
                                G27E31G31R21
 128219114.160 6  99911004.72843  24399286.356    24399285.534    24399283.888
        37.250          22.250
  31654724.651 7                   6023625.762
        44.250
 128094972.889 6                  23962821.434
        39.500
 115645487.038 7  90113467.28046  22006566.113    22006565.711    22006567.445
        45.750          37.500
 122431888.641 6  95401582.14746  23297974.263    23297973.450    23297975.068
        41.500          40.000
 131835339.862 6                  25087431.145
        38.250
 119554640.222 7  93159481.99446  22750485.934    22750485.872    22750489.388
        45.750          36.250
 131779089.24915                  24617441.863
        33.750
 130425316.700 7                  24819110.202
        42.000
 114279884.820 7  89049349.65048  21746711.377    21746710.912    21746709.556
        47.500          51.000
 136199103.377 7                  25917827.300
        42.750
 144084118.296 6                  27418293.070
        38.750
 195357927.311 7                  37175435.612
        46.250
 130875308.963 6                  24465755.045
        39.750
 124302710.126 6                  23318839.013
        41.750
 204845664.608 7                  38980827.022
        43.750
 148029158.118 5                  28169013.668
        35.250
 106216142.118 6                  19897844.173
        41.750
 120922523.480 7                  23010773.009
        44.250
 129474439.447 7                  24638125.964
        47.750
 122431855.627 7                  22943679.410
        46.250
 117681669.699 7  91700029.74645  22394062.755    22394062.545    22394062.439
        45.250          35.750
 115231588.091 8                  21571590.952
        49.000
 195972893.807 7                  37292396.539
        47.250
 133104263.256 5 103717618.74143  25328904.116    25328903.620    25328911.916
        35.250          21.250
 133421386.506 7                  25389207.987
        45.000
 108890206.524 8  84849520.43549  20721111.051    20721110.774    20721108.625
        50.000          55.000
 108548487.333 8                  20284864.281
        51.750
 21 10  5  0 46  0.0000000  0 28G16S48R01G26G25E11G32R03E09G29E05E25
                                S25R23R10S23E03R22E12E24R02G18R12S36
                                G27E31G31R21
 128152630.842 6  99859199.57643  24386634.090    24386633.241    24386631.950
        38.000          22.000
  31655427.485 7                   6023653.267
        44.250
 128192650.046 6                  23981093.163
        40.500
 115602819.170 7  90080219.59846  21998446.835    21998446.438    21998447.770
        45.750          37.500
 122494651.195 6  95450488.01246  23309917.120    23309916.302    23309919.018
        40.000          39.750
 131744782.484 6                  25070198.153
        38.250
 119642987.241 7  93228323.62345  22767298.094    22767298.041    22767301.374
        45.500          35.500
 131744381.204 5                  24610957.539
        30.750
 130502846.432 6                  24833863.778
        41.000
 114352394.728 7  89105850.87248  21760509.280    21760508.815    21760507.642
        47.750          50.750
 136231674.750 7                  25924025.323
        42.750
 144038454.239 6                  27409604.073
        39.000
 195354856.398 7                  37174859.050
        46.000
 130739627.974 6                  24440391.307
        38.000
 124365987.858 7                  23330709.594
        43.500
 204845535.170 7                  38980801.784
        43.500
 147998107.992 6                  28163105.199
        36.000
 106145061.558 6                  19884528.379
        41.500
 120880477.732 7                  23002771.927
        44.000
 129459753.553 7                  24635331.391
        47.250
 122474781.072 7                  22951723.250
        44.750
 117609786.310 7  91644016.75045  22380383.578    22380383.368    22380383.348
        45.250          35.750
 115162801.488 8                  21558714.010
        48.500
 195972898.306 7                  37292396.875
        47.000
 132998215.808 6 103634985.23244  25308723.913    25308723.413    25308731.604
        36.250          24.250
 133446717.707 7                  25394028.565
        45.000
 108857915.059 8  84824358.25149  20714966.283    20714966.006    20714963.846
        50.000          54.750
 108597755.491 8                  20294071.249
        51.750
 21 10  5  0 46 30.0000000  0 28G16S48R01G26G25E11G32R03E09G29E05E25
                                S25R23R10S23E03R22E12E24R02G18R12S36
                                G27E31G31R21
 128086230.191 6  99807458.81443  24373998.316    24373997.467    24373996.665
        38.500          22.500
  31656131.100 7                   6023681.013
        44.250
 128290258.142 6                  23999352.687
        38.750
 115560252.577 7  90047050.82646  21990346.568    21990346.162    21990348.016
        45.750          37.250
 122557452.700 6  95499424.23746  23321867.864    23321867.051    23321869.697
        40.750          40.000
 131654265.560 6                  25052973.078
        38.000
 119731520.201 7  93297310.13045  22784145.539    22784145.477    22784148.624
        45.250          35.250
 131710299.024 4                  24604592.360
        29.000
 130580414.000 6                  24848624.574
        41.500
 114425218.991 7  89162597.04548  21774367.413    21774366.948    21774365.527
        47.250          50.250
 136264576.477 7                  25930286.587
        42.500
 143992752.855 6                  27400906.999
        37.250
 195351786.117 7                  37174279.385
        46.250
 130603934.251 6                  24415024.955
        38.500
 124429502.641 7                  23342625.334
        44.250
 204845409.640 7                  38980775.478
        43.250
 147967422.074 6                  28157265.683
        36.250
 106074695.615 6                  19871346.710
        41.750
 120838806.345 7                  22994842.161
        44.000
 129445084.443 7                  24632539.874
        47.500
 122518249.038 7                  22959869.754
        45.500
 117538204.054 7  91588238.40045  22366762.056    22366761.851    22366761.587
        45.000          35.500
 115094021.569 8                  21545837.534
        48.500
 195972903.376 7                  37292398.959
        47.500
 132892305.859 5 103552459.00243  25288568.700    25288568.231    25288576.320
        30.250          21.750
 133472090.329 7                  25398856.779
        45.000
 108826016.226 8  84799502.01049  20708896.043    20708895.766    20708893.677
        49.750          54.500
 108647776.430 8                  20303418.980
        51.750
 21 10  5  0 47  0.0000000  0 28G16S48R01G26G25E11G32R03E09G29E05E25
                                S25R23R10S23E03R22E12E24R02G18R12S36
                                G27E31G31R21
 128019903.780 6  99755775.94443  24361376.895    24361376.050    24361375.126
        38.250          22.250
  31655227.270 7                   6023706.081
        44.500
 128387784.169 6                  24017595.165
        37.000
 115517779.534 7  90013954.95146  21982264.047    21982263.645    21982265.809
        45.750          37.250
 122620285.659 6  95548384.95746  23333824.703    23333823.885    23333825.998
        40.250          39.000
 131563783.475 6                  25035754.709
        38.250
 119820228.379 7  93366433.17245  22801026.370    22801026.299    22801029.232
        45.000          34.750
 131676836.277 4                  24598341.296
        28.250
 130658009.967 6                  24863390.552
        40.500
 114498347.331 7  89219580.16748  21788283.391    21788282.931    21788281.431
        47.500          50.500
 136297799.579 7                  25936608.575
        43.000
 143947006.361 6                  27392202.074
        38.250
 195348697.158 7                  37173699.245
        46.250
 130468225.794 6                  24389656.346
        41.250
 124493247.131 7                  23354582.879
        42.250
 204845279.428 7                  38980750.768
        43.750
 147937093.468 6                  28151494.012
        36.250
 106005039.416 7                  19858297.511
        42.000
 120797503.075 7                  22986982.343
        44.250
 129430424.780 8                  24629750.290
        48.000
 122562247.847 7                  22968114.969
        46.000
 117466918.329 7  91532691.09546  22353196.661    22353196.447    22353196.375
        45.750          36.000
 115025242.275 8                  21532962.402
        48.500
 195972902.871 7                  37292400.045
        47.250
 132786526.940 5 103470034.26344  25268439.132    25268438.672    25268446.184
        33.750          26.500
 133497497.316 7                  25403691.541
        45.500
 108794504.214 8  84774947.19549  20702899.629    20702899.352    20702897.186
        50.000          55.000
 108698539.653 8                  20312905.174
        51.750
 21 10  5  0 47 30.0000000  0 28G16S48R01G26G25E11G32R03E09G29E05E25
                                S25R23R10S23E03R22E12E24R02G18R12S36
                                G27E31G31R21
 127953658.382 6  99704156.17543  24348770.888    24348770.043    24348769.175
        38.250          22.500
  31655924.904 7                   6023734.293
        44.750
 128485229.754 6                  24035823.910
        36.000
 115475406.669 7  89980937.14346  21974200.938    21974200.541    21974202.181
        45.250          36.750
 122683156.926 6  95597375.53346  23345788.881    23345788.077    23345790.043
        40.500          38.500
 131473344.897 6                  25018544.713
        38.000
 119909115.148 7  93435695.37645  22817941.076    22817941.005    22817943.900
        45.250          34.500
                                  24592202.121
        22.500
 130735638.796 6                  24878162.989
        40.500
 114571783.919 7  89276803.47348  21802257.907    21802257.447    21802255.922
        47.500          50.500
 136331349.331 7                  25942992.945
        42.500
 143901221.022 6                  27383489.155
        37.750
 195345597.726 7                  37173116.307
        46.250
 130332513.628 7                  24364287.213
        44.750
 124557228.573 7                  23366585.304
        42.750
 204845151.338 7                  38980726.223
        44.000
 147907129.391 6                  28145792.586
        37.000
 105936102.841 7                  19845382.457
        42.000
 120756575.921 7                  22979194.237
        44.000
 129415781.478 7                  24626963.821
        47.500
 122606782.004 7                  22976459.619
        44.750
 117395938.818 7  91477382.40445  22339689.716    22339689.502    22339689.580
        45.250          35.500
 114956471.702 8                  21520088.461
        49.000
 195972908.394 7                  37292399.781
        47.250
 132680888.699 5 103387719.65543  25248337.036    25248336.630    25248342.453
        35.500          21.500
 133522945.938 7                  25408534.483
        45.250
 108763387.387 8  84750700.31349  20696978.248    20696977.971    20696975.663
        49.750          54.500
 108750049.354 8                  20322530.560
        51.250
 21 10  5  0 48  0.0000000  0 28G16S48R01G26G25E11G32R03E09G29E05E25
                                S25R23R10S23E03R22E12E24R02G18R12S36
                                G27E31G31R21
 127887487.551 6  99652594.51543  24336178.646    24336177.775    24336176.920
        38.000          21.250
  31656616.835 7                   6023760.564
        44.250
 128582584.545 6                  24054038.213
        40.500
 115433127.756 7  89947992.54846  21966155.796    21966155.390    21966156.739
        46.000          37.250
 122746060.541 6  95646391.32446  23357759.343    23357758.530    23357760.232
        41.000          39.250
 131382945.687 6                  25001341.974
        38.250
 119998171.550 7  93505089.75945  22834888.045    22834887.978    22834891.041
        45.000          33.750
                                  24586187.480
        28.250
 130813292.426 6                  24892940.291
        41.000
 114645519.700 7  89334259.92248  21816289.177    21816288.717    21816287.297
        47.500          49.750
 136365218.246 7                  25949438.108
        42.750
 143855390.428 6                  27374767.820
        39.000
 195342492.981 7                  37172532.165
        46.000
 130196794.616 7                  24338916.831
        43.500
 124621441.532 7                  23378632.097
        44.000
 204845018.838 7                  38980699.017
        43.250
 147877524.273 6                  28140158.657
        37.250
 105867882.641 6                  19832603.566
        41.750
 120716020.128 7                  22971476.664
        44.000
 129401148.671 7                  24624179.352
        47.750
 122651841.295 7                  22984905.159
        46.000
 117325262.504 7  91422309.97946  22326240.623    22326240.413    22326240.258
        46.000          36.000
 114887705.234 8                  21507214.816
        48.500
 195972906.962 7                  37292401.168
        47.250
 132575384.862 6 103305509.28344  25228260.658    25228260.278    25228265.990
        37.750          24.500
 133548430.847 7                  25413384.056
        45.500
 108732661.313 8  84726757.91249  20691131.201    20691130.924    20691128.654
        50.000          54.500
 108802296.324 8                  20332294.592
        51.500
 21 10  5  0 48 30.0000000  0 28G16S48R01G26G25E11G32R03E09G29E05E25
                                S25R23R10S23E03R22E12E24R02G18R12S36
                                G27E31G31R21
 127821396.291 6  99601094.85843  24323602.409    24323601.569    24323599.655
        39.500          22.250
  31655705.877 7                   6023787.666
        44.250
 128679850.497 6                  24072234.781
        39.000
 115390947.979 7  89915125.19646  21958129.081    21958128.684    21958130.624
        46.250          37.500
 122809001.974 6  95695436.59346  23369736.237    23369735.433    23369737.665
        41.250          39.500
 131292593.125 6                  24984148.123
        38.500
 120087399.641 7  93574617.93445  22851867.753    22851867.695    22851870.820
        45.500          34.000
                                  24580292.138
        28.000
 130890974.188 6                  24907722.940
        40.750
 114719557.865 8  89391952.00548  21830378.304    21830377.844    21830376.047
        48.000          50.000
 136399410.152 7                  25955944.414
        42.750
 143809519.518 6                  27366038.995
        39.000
 195339380.448 7                  37171946.736
        46.250
 130061077.306 6                  24313545.024
        41.000
 124685891.652 7                  23390722.643
        44.250
 204844887.860 7                  38980673.663
        43.500
 147848283.942 6                  28134594.522
        36.750
 105800387.165 6                  19819958.953
        41.750
 120675842.288 7                  22963831.004
        44.250
 129386531.926 8                  24621397.714
        48.000
 122697428.374 7                  22993447.668
        44.500
 117254897.618 7  91367480.26346  22312850.495    22312850.299    22312850.266
        45.750          36.250
 114818949.576 8                  21494343.972
        49.500
 195972908.766 7                  37292400.559
        47.500
 132470023.908 6 103223410.17744  25208211.803    25208211.446    25208215.865
        41.250          28.500
 133573957.803 7                  25418241.546
        45.000
 108702333.158 8  84703125.57849  20685360.139    20685359.862    20685357.556
        50.000          54.750
 108855283.585 8                  20342196.483
        51.500
 21 10  5  0 49  0.0000000  0 28G16S48R01G26G25E11G32R03E09G29E05E25
                                S25R23R10S23E03R22E12E24R02G18R12S36
                                G27E31G31R21
 127755386.916 6  99549659.01543  24311041.021    24311040.172    24311038.831
        38.500          21.000
  31656396.535 7                   6023815.654
        44.250
 128777029.654 6                  24090417.208
        38.750
 115348869.936 7  89882337.10846  21950121.840    21950121.438    21950123.204
        46.250          37.500
 122871983.951 6  95744513.43746  23381721.223    23381720.419    23381722.942
        40.500          39.250
 131202291.816 6                  24966964.511
        39.250
 120176798.886 7  93644279.47345  22868880.294    22868880.236    22868883.032
        45.500          34.000
                                  24574503.533
        29.750
 130968684.580 6                  24922510.650
        41.250
 114793898.340 7  89449879.64848  21844524.897    21844524.437    21844522.830
        47.250          50.250
 136433926.245 7                  25962512.885
        43.000
 143763610.593 6                  27357303.057
        38.250
 195336258.666 7                  37171361.503
        46.250
 129925366.549 6                  24288176.456
        41.250
 124750582.242 7                  23402858.485
        44.250
 204844761.191 7                  38980650.178
        43.500
 147819411.610 5                  28129099.692
        35.750
 105733622.160 7                  19807452.263
        42.000
 120636046.339 7                  22956258.067
        44.500
 129371934.138 8                  24618619.895
        48.250
 122743542.678 7                  23002089.632
        45.500
 117184849.794 7  91312897.60446  22299520.666    22299520.470    22299520.579
        46.000          36.500
 114750209.274 8                  21481475.871
        49.250
 195972920.910 7                  37292402.388
        47.250
 132364810.578 6 103141426.42744  25188189.655    25188189.266    25188193.415
        41.500          25.500
 133599530.130 7                  25423107.548
        45.750
 108672407.299 8  84679806.72749  20679665.330    20679665.049    20679662.904
        49.750          54.750
 108909010.650 8                  20352236.513
        51.250
 21 10  5  0 49 30.0000000  0 28G16S48R01G26G25E11G32R03E09G29E05E25
                                S25R23R10S23E03R22E12E24R02G18R12S36
                                G27E31G31R21
 127689452.947 6  99498281.93443  24298493.730    24298492.881    24298491.293
        39.250          22.500
  31657083.569 7                   6023842.967
        44.750
 128874110.079 6                  24108575.244
        36.000
 115306887.292 7  89849623.36146  21942132.592    21942132.190    21942134.123
        46.250          37.250
 122935000.485 6  95793617.21146  23393713.111    23393712.307    23393714.412
        40.500          39.250
 131112037.585 6                  24949789.210
        38.750
 120266359.951 7  93714067.09945  22885923.274    22885923.221    22885926.599
        45.750          33.750
                                  24568835.877
        30.750
 131046415.482 7                  24937302.640
        42.000
 114868531.910 7  89508035.66448  21858727.052    21858726.596    21858725.289
        47.750          50.250
 136468758.943 7                  25969141.352
        43.000
 143717657.133 6                  27348558.109
        38.750
 195333123.484 7                  37170771.746
        46.500
 129789662.345 7                  24262806.979
        43.500
 124815507.053 7                  23415038.116
        42.250
 204844632.118 7                  38980626.559
        44.000
 147790901.562 6                  28123674.790
        37.250
 105667584.107 7                  19795080.397
        42.000
 120596627.370 7                  22948756.983
        44.500
 129357349.372 8                  24615844.493
        48.000
 122790173.174 7                  23010828.505
        44.750
 117115115.845 7  91258559.54246  22286250.782    22286250.586    22286250.372
        46.250          36.250
 114681479.373 8                  21468609.571
        49.500
 195972925.555 7                  37292401.932
        47.250
 132259741.430 6 103059555.91443  25168193.696    25168193.223    25168198.081
        37.500          21.000
 133625142.254 7                  25427981.615
        45.500
 108642879.051 8  84656797.69949  20674046.177    20674045.896    20674043.877
        50.000          55.000
 108963468.601 8                  20362413.550
        51.750
 21 10  5  0 50  0.0000000  0 28G16S48R01G26G25E11G32R03E09G29E05E25
                                S25R23R10S23E03R22E12E24R02G18R12S36
                                G27E31G31R21
 127623592.937 6  99446962.48243  24285960.979    24285960.148    24285958.940
        37.500          21.000
  31656166.061 7                   6023869.738
        44.750
 128971087.532 6                  24126720.558
        41.250
 115264999.034 7  89816983.16846  21934161.918    21934161.521    21934162.942
        46.250          37.500
 122998050.792 6  95842747.30346  23405710.987    23405710.187    23405712.477
        39.750          38.500
 131021831.425 6                  24932622.887
        39.000
 120356078.709 7  93783977.61245  22902996.177    22902996.115    22902999.728
        45.750          34.000
                                  24563288.820
        30.750
 131124163.853 6                  24952097.896
        41.500
 114943455.460 7  89566417.64648  21872984.559    21872984.099    21872982.423
        47.250          49.500
 136503905.774 7                  25975829.396
        43.000
 143671657.878 6                  27339804.737
        39.000
 195329985.447 7                  37170181.764
        46.500
 129653966.651 6                  24237440.429
        40.750
 124880665.899 6                  23427262.444
        38.000
 204844499.717 7                  38980601.697
        43.750
 147762753.346 5                  28118318.632
        35.000
 105602274.691 7                  19782845.535
        42.000
 120557585.672 7                  22941327.418
        44.500
 129342776.931 8                  24613071.467
        48.000
 122837316.561 7                  23019663.233
        45.250
 117045697.538 7  91204467.39246  22273040.788    22273040.601    22273040.345
        46.250          36.000
 114612760.530 8                  21455744.998
        48.750
 195972921.241 7                  37292403.233
        47.500
 132154813.733 6 102977794.84044  25148226.927    25148226.427    25148229.916
        39.250          25.500
 133650793.782 7                  25432862.919
        45.500
 108613749.286 8  84634099.17749  20668502.941    20668502.660    20668500.760
        50.000          54.500
 109018653.557 8                  20372726.129
        51.250
 21 10  5  0 50 30.0000000  0 28G16S48R01G26G25E11G32R03E09G29E05E25
                                S25R23R10S23E03R22E12E24R02G18R12S36
                                G27E31G31R21
 127557810.532 6  99395703.50843  24273443.186    24273442.350    24273441.312
        38.750          21.750
  31656846.567 7                   6023898.218
        44.500
 129067961.392 5                  24144841.234
        33.500
 115223209.309 7  89784419.75546  21926209.361    21926208.964    21926211.015
        46.500          38.000
 123061139.195 6  95891907.05646  23417716.132    23417715.332    23417717.514
        39.500          37.750
 130931679.449 6                  24915467.384
        38.500
 120445956.169 7  93854011.79345  22920099.441    22920099.383    22920102.929
        45.250          34.000
                                  24557857.968
        31.250
 131201931.747 7                  24966896.956
        42.000
 115018670.836 7  89625027.02548  21887297.706    21887297.241    21887295.514
        47.250          50.000
 136539369.389 7                  25982578.075
        43.000
 143625616.651 6                  27331043.259
        38.500
 195326835.741 7                  37169589.873
        46.500
 129518287.138 7                  24212075.137
        43.750
 124946063.334 5                  23439531.273
        35.000
 204844368.583 7                  38980575.458
        43.500
 147734971.623 6                  28113031.524
        36.750
 105537701.345 7                  19770749.153
        42.000
 120518926.661 7                  22933970.972
        44.500
 129328221.231 8                  24610301.644
        48.250
 122884974.084 7                  23028592.773
        44.750
 116976602.103 7  91150626.82346  22259892.690    22259892.494    22259891.991
        45.750          36.000
 114544058.454 8                  21442883.520
        49.500
 195972926.329 7                  37292403.457
        47.250
 132050033.305 6 102896147.45544  25128288.551    25128288.024    25128290.669
        40.000          26.500
 133676489.456 7                  25437752.487
        45.750
 108585023.635 8  84611715.54749  20663036.737    20663036.460    20663034.241
        49.750          54.750
 109074566.771 8                  20383175.103
        51.750
 21 10  5  0 51  0.0000000  0 28G16S48R01G26G25E11G32R03E09G29E05E25
                                S25R23R10S23E03R22E12E24R02G18R12S36
                                G27E31G31R21
 127492104.025 6  99344503.68543  24260940.098    24260939.244    24260937.198
        38.000          21.500
  31655925.531 7                   6023924.918
        44.500
 129164726.184 5                  24162943.563
        32.500
 115181516.388 7  89751931.76946  21918275.652    21918275.250    21918277.105
        45.750          37.750
 123124264.234 6  95941095.38046  23429728.671    23429727.871    23429730.394
        39.250          37.750
 130841582.021 6                  24898322.312
        38.750
 120535987.629 7  93924165.95945  22937232.259    22937232.206    22937235.714
        45.500          34.250
                                  24552542.867
        32.500
 131279715.670 7                  24981699.002
        42.000
 115094173.153 7  89683859.98548  21901665.148    21901664.683    21901663.253
        47.500          50.000
 136575146.797 7                  25989386.334
        42.750
 143579531.513 6                  27322273.769
        38.750
 195323672.482 7                  37168996.614
        46.250
 129382624.445 7                  24186714.369
        43.750
 125011698.456 5                  23451844.050
        31.000
 204844236.618 7                  38980551.870
        43.500
 147707555.241 6                  28107814.877
        36.500
 105473864.928 7                  19758790.046
        42.250
 120480649.999 7                  22926687.033
        44.500
 129313680.983 8                  24607534.789
        48.000
 122933139.706 7                  23037619.914
        44.500
 116907830.964 7  91097038.94146  22246805.712    22246805.511    22246805.139
        46.000          36.000
 114475373.078 8                  21430025.254
        49.250
 195972928.868 7                  37292403.072
        47.250
 131945401.369 6 102814615.34843  25108377.850    25108377.314    25108379.858
        38.500          22.250
 133702228.376 7                  25442650.563
        45.500
 108556702.351 8  84589647.01249  20657647.336    20657647.055    20657644.823
        50.000          54.750
 109131203.749 8                  20393758.658
        51.250
 21 10  5  0 51 30.0000000  0 28G16S48R01G26G25E11G32R03E09G29E05E25
                                S25R23R10S23E03R22E12E24R02G18R12S36
                                G27E31G31R21
 127426474.277 6  99293363.64543  24248450.533    24248449.715    24248448.927
        38.250          21.500
  31656601.255 7                   6023951.404
        44.500
 129261380.958 6                  24181024.889
        41.750
 115139921.494 7  89719520.16646  21910360.094    21910359.692    21910361.434
        46.000          37.250
 123187427.373 6  95990313.38446  23441748.926    23441748.122    23441749.578
        39.000          37.000
 130751542.502 6                  24881187.950
        39.000
 120626171.188 7  93994438.64345  22954393.932    22954393.883    22954397.157
        45.250          34.250
 131403887.62715                  24547349.088
        34.750
 131357514.990 7                  24996503.941
        42.250
 115169961.312 7  89742915.69548  21916087.516    21916087.051    21916084.961
        47.000          49.000
 136611237.790 7                  25996254.074
        42.750
 143533403.460 6                  27313495.860
        38.000
 195320504.636 7                  37168401.240
        46.250
 129246981.522 7                  24161357.387
        43.250
 125077572.721 4                  23464201.625
        27.000
 204844105.240 7                  38980525.152
        43.500
 147680506.008 6                  28102667.121
        36.000
 105410769.718 7                  19746970.733
        42.000
 120442758.189 7                  22919476.570
        44.250
 129299157.754 7                  24604771.047
        47.750
 122981811.706 7                  23046741.227
        45.500
 116839388.331 7  91043707.01645  22233781.810    22233781.614    22233780.778
        45.750          35.500
 114406707.733 8                  21417171.475
        49.500
 195972928.419 7                  37292403.439
        47.250
 131840923.615 6 102733204.41643  25088495.734    25088495.149    25088500.481
        39.000          20.750
 133728012.395 7                  25447557.311
        45.250
 108528788.503 8  84567895.95949  20652335.580    20652335.299    20652333.058
        50.000          54.500
 109188562.919 8                  20404477.840
        51.500
 21 10  5  0 52  0.0000000  0 28G16S48R01G26G25E11G32R03E09G29E05E25
                                S25R23R10S23E03R22E12E24R02G18R12S36
                                G27E31G31R21
 127360916.859 6  99242279.97143  24235975.343    24235974.530    24235973.869
        37.750          21.750
  31657273.450 7                   6023977.473
        44.250
 129357916.622 5                  24199080.383
        32.000
 115098420.540 7  89687181.76446  21902462.745    21902462.343    21902463.860
        45.500          37.000
 123250624.753 6  96039558.04746  23453774.381    23453773.577    23453775.395
        39.000          36.750
 130661558.721 6                  24864064.533
        39.250
 120716499.609 7  94064824.19845  22971582.815    22971582.762    22971586.159
        45.250          34.500
 131376700.172 5                  24542269.088
        34.000
 131435323.459 7                  25011310.606
        42.750
 115246028.293 7  89802188.66148  21930562.295    21930561.826    21930560.198
        47.500          49.500
 136647636.738 7                  26003180.829
        43.000
 143487228.127 6                  27304708.377
        38.750
 195317331.767 7                  37167804.270
        46.250
 129111358.852 6                  24136005.743
        40.000
 125143682.214 4                  23476602.759
        28.500
 204843970.835 7                  38980501.416
        43.250
 147653820.211 6                  28097589.674
        36.250
 105348414.021 6                  19735288.920
        41.750
 120405248.345 7                  22912338.650
        44.250
 129284647.741 7                  24602009.737
        47.750
 123030982.697 7                  23055956.043
        44.750
 116771273.073 7  90990630.19446  22220819.660    22220819.450    22220818.882
        46.000          36.250
 114338059.675 8                  21404320.105
        49.000
 195972929.409 7                  37292403.994
        47.250
 131736595.741 6 102651910.29944  25068641.419    25068640.838    25068646.039
        38.500          24.250
 133753838.071 7                  25452471.713
        45.250
 108501279.263 8  84546460.19049  20647100.640    20647100.359    20647098.407
        50.000          55.000
 109246637.082 8                  20415330.228
        51.250
 21 10  5  0 52 30.0000000  0 28G16S48R01G26G25E11G32R03E09G29E05E25
                                S25R23R10S23E03R22E12E24R02G18R12S36
                                G27E31G31R21
 127295437.523 6  99191257.15943  24223515.520    24223514.729    24223513.630
        37.000          21.500
  31657944.851 7                   6024003.686
        44.250
 129454333.747 6                  24217116.948
        38.500
 115057019.381 7  89654921.12146  21894584.342    21894583.931    21894585.447
        45.750          37.000
 123313862.437 6  96088834.15146  23465808.138    23465807.334    23465809.403
        39.250          37.000
 130571638.636 6                  24846953.027
        39.250
 120806975.740 7  94135324.85045  22988799.772    22988799.714    22988803.279
        45.500          34.500
 131350146.459 5                  24537310.407
        35.000
 131513145.011 7                  25026119.972
        42.500
 115322377.971 7  89861681.91848  21945091.044    21945090.575    21945088.973
        47.000          49.250
 136684348.067 7                  26010166.850
        43.250
 143441011.101 6                  27295913.753
        38.500
 195314151.843 7                  37167205.264
        46.500
 128975770.736 7                  24110658.100
        44.500
                                  23489049.482
        27.750
 204843839.375 7                  38980475.490
        43.500
 147627504.265 6                  28092581.646
        36.250
 105286806.901 7                  19723748.307
        42.000
 120368127.604 7                  22905274.748
        44.250
 129270157.195 7                  24599252.301
        47.250
 123080655.026 7                  23065265.029
        45.750
 116703493.992 7  90937815.34346  22207921.776    22207921.575    22207921.215
        46.000          36.250
 114269436.272 8                  21391473.713
        49.000
 195972934.107 7                  37292403.873
        47.250
 131632425.369 6 102570739.05443  25048818.758    25048818.186    25048820.613
        37.750          22.500
 133779712.009 7                  25457395.365
        45.250
 108474182.568 8  84525345.88349  20641944.397    20641944.116    20641942.112
        50.000          55.000
 109305429.137 8                  20426316.853
        51.250
 21 10  5  0 53  0.0000000  0 28G16S48R01G26G25E11G32R03E09G29E05E25
                                S25R23R10S23E03R22E12E24R02G18R12S36
                                G27E31G31R21
 127230029.730 6  99140290.09543  24211068.239    24211067.430    24211066.645
        38.750          22.250
  31657008.201 7                   6024029.626
        44.500
 129550622.813 5                  24235130.313
        35.500
 115015712.045 7  89622733.58746  21886723.834    21886723.428    21886725.202
        46.250          37.500
 123377134.715 6  96138137.20246  23477848.618    23477847.800    23477849.385
        40.000          37.000
 130481778.261 6                  24829852.921
        39.250
 120897590.511 7  94205933.52445  23006043.431    23006043.373    23006046.732
        45.000          33.750
 131324220.808 5                  24532464.798
        33.250
 131590971.731 6                  25040929.838
        41.750
 115399001.603 7  89921388.63548  21959671.924    21959671.451    21959670.219
        47.250          49.500
 136721364.330 7                  26017210.674
        43.000
 143394746.098 6                  27287109.982
        37.750
 195310960.882 7                  37166603.536
        46.500
 128840211.549 7                  24085316.229
        42.250
                                  23501542.681
        24.000
 204843704.006 7                  38980449.349
        44.000
 147601552.710 6                  28087643.755
        37.750
 105225944.598 7                  19712346.309
        42.000
 120331391.238 7                  22898284.002
        44.000
 129255680.448 7                  24596497.554
        47.250
 123130819.244 7                  23074664.852
        44.750
 116636048.131 7  90885260.14746  22195087.339    22195087.138    22195086.867
        47.000          37.000
 114200833.648 8                  21378631.325
        49.250
 195972934.719 7                  37292403.953
        47.250
 131528406.723 5 102489685.23343  25029024.388    25029023.825    25029027.043
        35.750          19.000
 133805628.853 7                  25462327.381
        45.250
 108447493.948 8  84504549.55049  20636865.904    20636865.623    20636863.270
        50.000          55.000
 109364930.233 8                  20437436.210
        51.000
 21 10  5  0 53 30.0000000  0 27G16S48R01G26G25E11G32R03E09G29E05E25
                                S25R23S23E03R22E12E24R02G18R12S36G27
                                E31G31R21
 127164700.651 6  99089384.36643  24198636.385    24198635.576    24198635.136
        38.000          21.750
  31657675.675 7                   6024056.187
        44.250
 129646789.093 6                  24253122.293
        36.750
 114974505.819 7  89590624.83646  21878882.682    21878882.267    21878884.091
        45.750          37.750
 123440449.085 6  96187473.02246  23489897.181    23489896.363    23489898.865
        38.500          37.500
 130391986.847 6                  24812765.756
        38.500
 120988348.006 7  94276653.38245  23023314.028    23023313.975    23023317.958
        44.250          33.250
 131298931.479 5                  24527741.430
        34.750
 131668808.953 6                  25055741.823
        41.500
 115475903.617 7  89981312.27348  21974306.140    21974305.667    21974304.199
        47.250          49.500
 136758691.302 7                  26024313.817
        42.500
 143348440.222 6                  27278298.221
        38.000
 195307767.784 7                  37166000.730
        46.500
 128704691.853 7                  24059981.763
        43.500
 204843572.526 7                  38980424.697
        43.500
 147575973.218 6                  28082775.609
        36.500
 105165837.651 7                  19701086.765
        42.000
 120295047.748 7                  22891368.062
        44.250
 129241225.138 7                  24593746.787
        47.250
 123181479.332 7                  23084158.701
        45.250
 116568945.672 7  90832972.55046  22182318.053    22182317.852    22182317.451
        46.250          36.750
 114132260.524 8                  21365793.849
        49.000
 195972933.940 7                  37292405.062
        47.250
 131424550.806 6 102408758.49743  25009262.100    25009261.528    25009264.931
        40.250          23.000
 133831596.546 7                  25467268.846
        45.250
 108421222.168 8  84484078.03049  20631866.441    20631866.151    20631863.907
        50.000          55.000
 109425144.400 8                  20448688.474
        51.250
 21 10  5  0 54  0.0000000  0 27G16S48R01G26G25E11G32R03E09G29E05E25
                                S25R23S23E03R22E12E24R02G18R12S36G27
                                E31G31R21
 127099444.598 6  99038535.51043  24186219.384    24186218.504    24186217.373
        37.500          22.500
  31658341.504 7                   6024084.238
        44.250
 129742822.062 6                  24271087.892
        38.500
 114933395.264 7  89558590.65146  21871059.323    21871058.903    21871060.629
        46.250          37.500
 123503800.283 6  96236837.59546  23501952.069    23501951.247    23501953.059
        40.000          37.500
 130302261.052 6                  24795691.242
        38.750
 121079239.831 7  94347477.92445  23040610.365    23040610.321    23040614.279
        44.000          33.000
 131274273.112 6                  24523137.592
        37.000
 131746649.298 6                  25070554.601
        41.000
 115553076.339 7  90041446.85148  21988991.417    21988990.944    21988989.615
        47.250          49.250
 136796322.095 7                  26031474.895
        42.750
 143302087.769 6                  27269477.681
        38.000
 195304561.203 7                  37165394.763
        46.500
 128569208.804 7                  24034655.220
        43.500
 204843439.816 7                  38980398.645
        43.500
 147550760.785 6                  28077977.922
        36.500
 105106482.439 7                  19689967.031
        42.250
 120259092.899 7                  22884525.999
        44.000
 129226786.213 7                  24590999.142
        47.250
 123232626.543 7                  23093743.754
        45.250
 116502184.165 7  90780950.63946  22169613.602    22169613.401    22169613.214
        46.250          36.750
 114063713.401 8                  21352962.368
        49.750
 195972933.500 7                  37292404.638
        47.250
 131320856.945 6 102327959.52543  24989527.014    24989526.456    24989531.490
        37.000          23.500
 133857610.377 7                  25472218.950
        45.000
 108395363.851 8  84463928.69449  20626945.643    20626945.357    20626943.320
        50.250          55.250
 109486063.230 8                  20460072.600
        51.000
 21 10  5  0 54 30.0000000  0 28G16S48R01G26G25E11G32R03E09G29E05E25
                                S25R23R10S23E03R22E12E24R02G18R12S36
                                G27E31G31R21
 127034263.715 6  98987745.24043  24173815.360    24173814.493    24173813.034
        38.500          22.250
  31657405.310 7                   6024110.258
        44.500
 129838722.863 7                  24289029.360
        42.500
 114892382.906 7  89526632.97846  21863255.068    21863254.653    21863256.369
        46.250          37.750
 123567191.099 6  96286233.01546  23514015.308    23514014.486    23514015.779
        38.500          36.000
 130212605.436 6                  24778630.087
        39.250
 121170265.341 7  94418406.63345  23057932.450    23057932.397    23057936.129
        43.750          32.500
 131250248.622 5                  24518646.063
        33.750
 131824493.272 6                  25085367.838
        40.750
 115630519.974 7  90101792.53148  22003728.631    22003728.162    22003726.787
        47.750          49.250
 136834257.678 7                  26038693.940
        43.250
 143255690.974 6                  27260648.591
        39.250
 195301352.845 7                  37164788.487
        46.500
 128433768.208 7                  24009337.856
        42.250
                                  23539290.116
        22.000
 204843307.521 7                  38980374.722
        43.750
 147525918.398 5                  28073250.442
        35.250
 105047884.591 7                  19678989.454
        42.000
 120223530.401 7                  22877758.744
        44.500
 129212366.540 7                  24588255.155
        47.750
 123284258.643 7                  23103419.799
        45.250
 116435769.055 7  90729198.67046  22156975.154    22156974.953    22156974.857
        46.750          36.750
 113995196.539 8                  21340135.669
        49.000
 195972939.899 7                  37292405.076
        47.250
 131217322.174 5 102247283.54943  24969825.974    24969825.389    24969827.335
        35.500          21.000
 133883673.451 7                  25477178.487
        45.000
 108369922.921 8  84444104.58849  20622104.434    20622104.144    20622101.867
        50.250          55.000
 109547686.180 8                  20471588.591
        51.000
 21 10  5  0 55  0.0000000  0 27G16S48R01G26G25E11G32R03E09G29E05E25
                                S25R23S23E03R22E12E24R02G18R12S36G27
                                E31G31R21
 126969153.367 6  98937009.94343  24161425.767    24161424.882    24161423.496
        38.250          22.500
  31658064.980 7                   6024137.316
        44.250
 129934481.197 6                  24306940.835
        40.000
 114851464.446 7  89494748.46646  21855468.642    21855468.227    21855470.197
        46.500          38.000
 123630617.441 6  96335656.10946  23526084.595    23526083.764    23526086.030
        39.500          37.000
 130123017.689 6                  24761582.201
        39.750
 121261417.079 7  94489433.71445  23075277.990    23075277.937    23075282.103
        44.250          33.000
 131226854.223 6                  24514277.813
        36.000
 131902334.598 6                  25100180.672
        40.750
 115708226.887 7  90162343.36648  22018515.677    22018515.204    22018513.986
        47.250          49.250
 136872492.217 7                  26045969.494
        43.000
 143209245.312 6                  27251810.287
        38.500
 195298127.420 7                  37164179.434
        46.500
 128298370.684 7                  23984027.401
        42.500
 204843172.116 7                  38980347.924
        43.750
 147501442.127 6                  28068592.799
        36.000
 104990042.342 6                  19668154.308
        41.750
 120188357.065 7                  22871065.478
        44.500
 129197962.144 7                  24585514.139
        47.750
 123336368.074 7                  23113184.436
        45.000
 116369698.891 7  90677715.49946  22144402.347    22144402.142    22144402.157
        46.500          36.750
 113926707.138 8                  21327314.273
        49.500
 195972942.686 7                  37292405.420
        47.250
 131113944.948 6 102166728.62543  24950154.232    24950153.709    24950154.543
        37.500          19.500
 133909782.217 7                  25482147.225
        44.750
 108344896.722 8  84424603.65149  20617341.995    20617341.709    20617339.661
        50.250          55.000
 109610005.633 8                  20483234.491
        51.250
 21 10  5  0 55 30.0000000  0 27G16S48R01G26G25E11G32R03E09G29E05E25
                                S25R23S23E03R22E12E24R02G18R12S36G27
                                E31G31R21
 126904115.784 6  98886331.33843  24149049.661    24149048.798    24149046.841
        39.500          23.500
  31658722.074 7                   6024163.434
        44.500
 130030097.410 6                  24324829.546
        40.500
 114810642.578 7  89462939.22046  21847700.468    21847700.048    21847701.839
        46.500          38.000
 123694082.269 6  96385109.19446  23538161.314    23538160.487    23538162.581
        40.000          36.750
 130033502.429 6                  24744547.719
        39.750
 121352694.705 7  94560558.90045  23092648.006    23092647.953    23092651.866
        45.000          33.250
 131204092.564 5                  24510023.503
        33.250
 131980173.952 6                  25114993.176
        39.750
 115786197.282 7  90223099.51348  22033352.828    22033352.359    22033351.045
        47.500          49.250
 136911026.825 7                  26053302.536
        43.000
 143162753.193 6                  27242963.389
        38.750
 195294893.857 7                  37163569.522
        46.250
 128163023.763 7                  23958726.087
        44.500
 204843036.386 7                  38980322.355
        44.000
 147477335.048 6                  28064005.685
        37.000
 104932960.450 7                  19657460.981
        42.000
 120153576.724 7                  22864446.908
        44.250
 129183576.069 7                  24582776.641
        47.750
 123388954.856 7                  23123039.381
        45.000
 116303979.292 7  90626505.48146  22131896.258    22131896.057    22131895.981
        47.000          37.000
 113858249.760 8                  21314498.927
        49.500
 195972945.013 7                  37292404.088
        47.500
 131010730.364 5 102086299.77843  24930515.190    24930514.605    24930517.068
        34.000          18.250
 133935939.956 7                  25487124.468
        45.000
 108320289.391 8  84405429.10549  20612659.575    20612659.285    20612657.009
        50.500          55.000
 109673021.029 8                  20495010.412
        51.500
 21 10  5  0 56  0.0000000  0 27G16S48R01G26G25E11G32R03E09G29E05E25
                                S25R23S23E03R22E12E24R02G18R12S36G27
                                E31G31R21
 126839153.528 6  98835711.41243  24136687.399    24136686.545    24136685.818
        39.500          23.000
  31657778.843 7                   6024191.163
        44.250
 130125570.575 6                  24342691.008
        41.500
 114769919.944 7  89431207.31246  21839951.239    21839950.815    21839952.566
        46.000          38.000
 123757588.395 6  96434594.45946  23550246.620    23550245.807    23550247.575
        40.000          37.250
 129944064.394 6                  24727527.787
        39.000
 121444097.718 7  94631781.77445  23110041.449    23110041.382    23110045.118
        45.000          33.000
 131181967.208 6                  24505890.628
        36.500
 132058012.012 6                  25129805.337
        39.750
 115864432.031 7  90284061.64848  22048240.642    22048240.173    22048238.852
        47.250          49.500
 136949862.638 7                  26060692.595
        42.750
 143116217.028 6                  27234108.032
        38.750
 195291663.137 7                  37162957.464
        46.250
 128027732.113 7                  23933436.826
        43.500
 204842902.740 7                  38980296.160
        43.500
 147453600.167 5                  28059488.267
        34.750
 104876644.064 7                  19646910.223
        42.000
 120119193.186 7                  22857904.002
        44.250
 129169211.337 7                  24580043.110
        47.500
 123442017.654 7                  23132983.533
        45.000
 116238615.718 7  90575572.88246  22119458.041    22119457.845    22119457.586
        46.500          37.000
 113789828.804 8                  21301690.228
        49.500
 195972946.539 7                  37292405.264
        47.250
 130907686.239 5 102006004.37643  24910908.385    24910907.795    24910911.780
        33.250          22.000
 133962150.027 7                  25492112.261
        45.000
 108296105.362 8  84386584.40149  20608057.386    20608057.096    20608054.838
        50.250          55.000
 109736732.067 8                  20506916.388
        51.250
 21 10  5  0 56 30.0000000  0 27G16S48R01G26G25E11G32R03E09G29E05E25
                                S25R23S23E03R22E12E24R02G18R12S36G27
                                E31G31R21
 126774264.320 6  98785148.43943  24124338.729    24124337.875    24124336.740
        38.500          22.250
  31658433.884 7                   6024216.584
        44.250
 130220896.049 6                  24360520.659
        37.500
 114729294.746 7  89399551.32946  21832220.610    21832220.195    21832221.905
        46.250          38.000
 123821134.272 6  96484110.71446  23562339.230    23562338.417    23562339.460
        39.000          36.500
 129854703.694 6                  24710522.988
        39.250
 121535621.198 7  94703098.51445  23127458.264    23127458.202    23127461.766
        45.500          33.000
 131160476.019 5                  24501876.154
        34.250
 132135845.047 6                  25144616.953
        40.750
 115942926.304 7  90345226.01748  22063177.571    22063177.098    22063175.846
        47.000          49.000
 136988996.259 7                  26068139.675
        43.000
 143069634.653 6                  27225243.422
        39.500
 195288426.215 7                  37162345.550
        46.250
 127892500.470 6                  23908158.319
        41.750
 204842769.363 7                  38980272.277
        43.500
 147430235.987 6                  28055042.852
        37.000
 104821093.789 6                  19636504.643
        41.750
 120085205.733 7                  22851436.389
        44.500
 129154866.447 8                  24577313.361
        48.000
 123495550.464 7                  23143016.592
        46.000
 116173609.249 7  90524918.53546  22107087.453    22107087.257    22107087.263
        46.250          36.500
 113721444.166 8                  21288888.698
        49.500
 195972948.428 7                  37292407.097
        47.250
 130804812.058 6 101925842.19243  24891332.449    24891331.828    24891334.512
        38.750          21.750
 133988411.245 7                  25497109.308
        44.500
 108272344.255 8  84368069.24649  20603535.837    20603535.547    20603533.169
        50.250          55.000
 109801133.548 8                  20518950.881
        51.500
 21 10  5  0 57  0.0000000  0 27G16S48R01G26G25E11G32R03E09G29E05E25
                                S25R23S23E03R22E12E24R02G18R12S36G27
                                E31G31R21
 126709444.575 6  98734639.57443  24112004.175    24112003.295    24112002.341
        39.000          22.500
  31659083.953 7                   6024242.269
        44.250
 130316066.282 5                  24378322.302
        32.500
 114688763.908 7  89367968.87146  21824507.845    21824507.430    21824508.798
        46.000          38.000
 123884717.033 6  96533655.70346  23574438.231    23574437.413    23574439.715
        39.500          38.500
 129765419.230 6                  24693532.589
        39.500
 121627258.927 7  94774504.28745  23144896.362    23144896.300    23144900.133
        45.500          33.000
 131139616.229 6                  24497980.223
        37.750
 132213668.041 6                  25159426.320
        40.250
 116021674.468 7  90406588.22248  22078162.953    22078162.480    22078161.161
        46.750          48.750
 137028422.964 7                  26075642.246
        43.250
 143023002.817 6                  27216369.873
        39.500
 195285178.190 7                  37161729.606
        46.250
 127757328.093 7                  23882889.332
        44.250
 204842633.750 7                  38980245.962
        43.750
 147407239.792 6                  28050666.405
        36.250
 104766309.130 6                  19626241.168
        41.750
 120051612.350 7                  22845043.749
        44.500
 129140538.703 8                  24574586.815
        48.000
 123549546.925 7                  23153134.440
        44.750
 116108959.558 7  90474542.17646  22094785.296    22094785.104    22094784.680
        46.000          36.500
 113653094.627 8                  21276093.302
        50.000
 195972944.280 7                  37292407.566
        47.000
 130702105.885 6 101845811.50943  24871787.864    24871787.221    24871790.172
        39.000          21.250
 134014721.126 7                  25502116.192
        45.000
 108249004.685 8  84349882.56149  20599094.366    20599094.076    20599091.810
        50.000          55.000
 109866218.979 8                  20531113.953
        51.500
 21 10  5  0 57 30.0000000  0 27G16S48R01G26G25E11G32R03E09G29E05E25
                                S25R23S23E03R22E12E24R02G18R12S36G27
                                E31G31R21
 126644697.398 6  98684187.25343  24099683.266    24099682.368    24099680.852
        39.000          22.000
  31658134.913 7                   6024268.383
        44.250
 130411079.946 5                  24396096.533
        34.750
 114648330.616 7  89336462.42246  21816813.498    21816813.087    21816814.486
        46.750          38.000
 123948339.995 6  96583232.00746  23586545.666    23586544.848    23586547.277
        40.000          38.250
 129676216.212 6                  24676557.665
        40.000
 121719011.004 7  94845999.16245  23162356.626    23162356.568    23162360.200
        45.250          32.250
 131119391.070 6                  24494201.110
        36.500
 132291482.202 6                  25174234.045
        40.500
 116100676.911 7  90468148.55948  22093196.656    22093196.183    22093194.850
        46.750          48.500
 137068144.425 7                  26083201.130
        42.500
 142976324.443 6                  27207487.230
        39.000
 195281918.535 7                  37161113.001
        46.000
 127622227.343 7                  23857632.037
        42.000
 204842497.158 7                  38980220.286
        43.500
 147384615.072 6                  28046361.255
        36.500
 104712295.247 7                  19616122.281
        42.000
 120018417.247 7                  22838726.867
        44.000
 129126231.676 7                  24571864.311
        47.500
 123604007.038 7                  23163340.558
        45.000
 116044672.755 7  90424448.58446  22082551.549    22082551.357    22082551.018
        46.250          36.500
 113584785.284 8                  21263305.852
        49.750
 195972941.160 7                  37292407.182
        47.000
 130599570.337 6 101765913.17943  24852275.955    24852275.374    24852279.633
        37.000          22.500
 134041083.565 7                  25507132.593
        44.250
 108226091.401 8  84332028.04849  20594734.196    20594733.906    20594731.616
        50.500          55.000
 109931988.385 8                  20543404.215
        51.250
 21 10  5  0 58  0.0000000  0 27G16S48R01G26G25E11G32R03E09G29E05E25
                                S25R23S23E03R22E12E24R02G18R12S36G27
                                E31G31R21
 126580021.170 6  98633790.23043  24087375.572    24087374.683    24087373.534
        38.500          22.500
  31658783.890 7                   6024295.947
        44.250
                                  24413843.066
        40.250
 114607993.672 7  89305031.04646  21809137.601    21809137.190    21809138.615
        46.000          37.500
 124012002.218 6  96632838.92246  23598659.846    23598659.037    23598661.470
        38.750          37.750
 129587095.390 6                  24659598.347
        40.000
 121810873.136 7  94917579.80145  23179837.540    23179837.478    23179841.642
        44.750          32.250
 131099799.559 6                  24490542.565
        39.000
 132369284.177 6                  25189039.428
        41.000
 116179929.355 7  90529903.70848  22108277.977    22108277.499    22108276.131
        46.750          48.500
 137108157.770 7                  26090815.347
        42.250
 142929597.972 6                  27198595.363
        39.000
 195278654.494 7                  37160495.657
        46.250
 127487197.760 7                  23832387.558
        46.250
 204842359.331 7                  38980193.635
        43.750
 147362360.867 6                  28042126.311
        36.000
 104659053.477 7                  19606148.875
        42.000
 119985620.310 7                  22832485.831
        44.000
 129111944.452 7                  24569145.517
        47.500
 123658925.236 7                  23173632.128
        44.750
 115980750.467 7  90374639.04346  22070387.682    22070387.486    22070387.185
        46.750          37.000
 113516516.484 8                  21250525.367
        49.500
 195972946.387 7                  37292406.551
        47.250
 130497208.758 6 101686151.18943  24832795.766    24832795.203    24832800.785
        39.000          22.500
 134067497.937 7                  25512159.053
        44.250
 108203604.484 8  84314505.76849  20590455.048    20590454.758    20590452.756
        50.000          55.250
 109998437.070 8                  20555822.330
        51.500
 21 10  5  0 58 30.0000000  0 27G16S48R01G26G25E11G32R03E09G29E05E25
                                S25R23S23E03R22E12E24R02G18R12S36G27
                                E31G31R21
 126515416.600 6  98583449.03043  24075081.694    24075080.805    24075079.192
        39.750          22.500
  31659429.283 7                   6024321.806
        44.250
 130600621.672 6                  24431557.654
        39.750
 114567754.196 7  89273675.61246  21801480.155    21801479.749    21801481.346
        46.750          37.750
 124075705.019 6  96682477.44646  23610782.258    23610781.454    23610783.494
        39.000          37.000
 129498059.777 6                  24642655.108
        40.000
 121902843.278 7  94989244.62745  23197338.978    23197338.911    23197343.072
        45.000          31.750
 131080843.027 6                  24486998.105
        36.500
 132447073.083 6                  25203842.344
        40.750
 116259431.224 7  90591853.21448  22123406.564    22123406.091    22123404.824
        46.750          48.750
 137148462.466 7                  26098485.068
        42.250
 142882824.321 6                  27189694.814
        39.750
 195275379.136 7                  37159876.856
        46.500
 127352235.774 7                  23807155.719
        42.750
 204842223.407 7                  38980168.339
        43.750
 147340478.626 6                  28037962.490
        36.750
 104606586.827 7                  19596319.275
        42.000
 119953223.665 7                  22826320.904
        44.250
 129097678.512 8                  24566430.830
        48.000
 123714298.473 7                  23184009.186
        44.000
 115917196.623 7  90325116.62246  22058293.897    22058293.701    22058293.396
        46.500          37.250
 113448291.421 8                  21237753.511
        49.500
 195972946.411 7                  37292406.516
        47.500
 130395026.580 6 101606531.19544  24813350.182    24813349.543    24813354.646
        36.500          24.750
 134093966.026 7                  25517196.015
        45.000
 108181546.472 8  84297317.70449  20586257.623    20586257.333    20586255.218
        50.500          55.250
 110065562.821 8                  20568366.171
        51.000
 21 10  5  0 59  0.0000000  0 27G16S48R01G26G25E11G32R03E09G29E05E25
                                S25R23S23E03R22E12E24R02G18R12S36G27
                                E31G31R21
 126450887.981 6  98533167.01343  24062802.365    24062801.480    24062800.770
        38.750          22.750
  31658477.224 7                   6024347.674
        44.250
 130695181.23416                  24449239.394
        40.750
 114527616.767 7  89242399.69946  21793842.322    21793841.916    21793843.623
        46.500          38.250
 124139453.112 6  96732151.25946  23622912.766    23622911.971    23622914.366
        39.750          38.500
 129409115.940 6                  24625729.492
        39.500
 121994922.756 7  95060994.64945  23214861.177    23214861.093    23214865.031
        44.250          30.750
 131062526.056 6                  24483578.947
        38.500
 132524851.521 6                  25218643.311
        41.000
 116339184.104 7  90653998.31348  22138583.004    22138582.535    22138581.104
        46.750          48.750
 137189061.338 7                  26106211.067
        42.500
 142836007.696 6                  27180785.438
        39.000
 195272096.729 7                  37159255.815
        46.500
 127217355.364 7                  23781940.578
        43.000
 204842092.532 7                  38980141.741
        43.500
 147318973.054 6                  28033870.039
        36.500
 104554902.036 6                  19586637.285
        41.750
 119921232.826 7                  22820233.347
        44.000
 129083438.735 7                  24563721.076
        47.500
 123770128.658 7                  23194471.896
        45.000
 115854018.490 7  90275886.98446  22046271.403    22046271.207    22046271.010
        46.750          37.250
 113380116.287 8                  21224991.136
        49.500
 195972946.383 7                  37292408.228
        47.500
 130293022.354 6 101527048.67343  24793938.610    24793938.043    24793941.316
        36.500          23.500
 134120493.003 7                  25522243.777
        44.500
 108159923.470 8  84280468.60849  20582142.973    20582142.683    20582140.502
        50.250          55.250
 110133366.800 8                  20581036.829
        51.000
 21 10  5  0 59 30.0000000  0 27G16S48R01G26G25E11G32R03E09G29E05E25
                                S25R23S23E03R22E12E24R02G18R12S36G27
                                E31G31R21
 126386427.259 6  98482937.92343  24050536.081    24050535.183    24050534.385
        38.500          23.500
  31659122.821 7                   6024373.806
        44.250
 130789534.844 6                  24466890.400
        39.750
 114487573.647 7  89211197.27946  21786222.087    21786221.690    21786224.076
        46.250          38.500
 124203239.093 6  96781854.60846  23635051.108    23635050.308    23635052.205
        39.000          37.500
 129320258.165 6                  24608820.300
        39.500
 122087100.782 7  95132821.44545  23232402.080    23232401.996    23232406.191
        43.500          31.000
 131044840.906 6                  24480275.409
        37.500
 132602609.818 6                  25233440.418
        41.500
 116419177.403 7  90716330.75348  22153804.973    22153804.508    22153803.384
        46.750          49.000
 137229945.119 7                  26113990.902
        42.250
 142789140.177 6                  27171866.844
        38.500
 195268814.356 7                  37158633.683
        46.500
 127082546.558 7                  23756741.183
        43.250
 204841958.156 7                  38980117.402
        43.500
 147297836.746 6                  28029848.026
        37.000
 104503993.503 7                  19577100.044
        42.000
 119889641.109 7                  22814221.573
        43.750
 129069217.789 7                  24561014.922
        47.250
 123826403.576 7                  23205017.467
        44.250
 115791211.132 7  90226946.24946  22034319.458    22034319.266    22034319.194
        46.750          37.750
 113311985.352 8                  21212236.906
        49.500
 195972953.620 7                  37292408.215
        47.000
 130191191.421 6 101447700.18144  24774560.184    24774559.612    24774563.946
        40.000          26.500
 134147071.810 7                  25527301.430
        44.000
 108138729.382 8  84263953.72949  20578109.974    20578109.679    20578107.318
        50.250          55.500
 110201837.714 8                  20593832.101
        50.750
 21 10  5  1  0  0.0000000  0 27G16S48R01G26G25E11G32R03E09G29E05E25
                                S25R23S23E03R22E12E24R02G18R12S36G27
                                E31G31R21
 126322035.094 6  98432762.23843  24038282.868    24038281.988    24038280.761
        39.250          23.000
  31659764.956 7                   6024399.782
        44.250
 130883711.803 4                  24484505.919
        27.250
 114447625.973 7  89180069.23046  21778620.611    21778620.209    21778622.331
        46.000          38.250
 124267064.173 6  96831588.41346  23647197.099    23647196.299    23647198.152
        40.250          39.250
 129231489.522 6                  24591928.358
        40.250
 122179375.363 7  95204723.46445  23249961.752    23249961.668    23249965.815
        43.000          31.000
 131027788.373 6                  24477088.706
        38.000
 132680347.062 6                  25248233.471
        41.250
 116499410.004 7  90778849.65448  22169072.957    22169072.488    22169071.381
        46.250          49.000
 137271113.168 7                  26121824.790
        42.250
 142742222.543 6                  27162938.605
        38.750
 195265515.232 7                  37158007.933
        46.250
 126947818.010 6                  23731556.372
        41.500
 204841820.764 7                  38980088.802
        43.500
 147277070.958 6                  28025896.306
        37.250
 104453864.349 7                  19567709.885
        42.000
 119858450.539 7                  22808286.026
        44.250
 129055017.113 7                  24558312.677
        47.750
 123883120.203 7                  23215646.041
        43.500
 115728778.352 7  90178297.39246  22022438.919    22022438.723    22022438.420
        46.750          37.500
 113243901.329 8                  21199491.656
        49.750
 195972958.465 7                  37292408.675
        47.250
 130089536.622 6 101368488.24644  24755216.225    24755215.644    24755219.390
        38.500          26.500
 134173704.152 7                  25532369.505
        44.500
 108117966.448 8  84247774.81149  20574158.576    20574158.286    20574156.438
        50.500          55.750
 110270973.240 8                  20606751.543
        50.500
 21 10  5  1  0 30.0000000  0 27G16S48R01G26G25E11G32R03E09G29E05E25
                                S25R23S23E03R22E12E24R02G18R12S36G27
                                E31G31R21
 126257715.825 6  98382643.36143  24026043.052    24026042.145    24026040.213
        39.000          22.500
  31658808.403 7                   6024426.200
        44.500
 130977713.330 6                  24502091.667
        36.000
 114407778.298 7  89149019.09446  21771037.990    21771037.588    21771039.323
        46.750          38.250
 124330933.122 6  96881356.39646  23659350.082    23659349.282    23659351.924
        38.750          38.250
 129142816.559 6                  24575054.164
        41.500
 122271747.915 7  95276701.82545  23267539.537    23267539.439    23267544.613
        43.250          31.500
 131011373.042 6                  24474021.622
        37.500
 132758065.789 6                  25263022.959
        41.000
 116579883.428 7  90841556.20948  22184386.355    22184385.890    22184384.716
        47.000          48.500
 137312568.407 7                  26129713.471
        42.500
 142695259.166 6                  27154001.964
        37.250
 195262213.934 7                  37157379.799
        46.500
 126813181.737 7                  23706388.609
        44.500
 204841685.914 7                  38980065.563
        43.500
 147256680.540 6                  28022016.280
        37.000
 104404521.247 7                  19558466.003
        42.250
 119827666.652 7                  22802428.185
        44.250
 129040841.670 7                  24555615.207
        47.750
 123940280.258 7                  23226357.822
        44.250
 115666727.470 7  90129946.12246  22010630.973    22010630.790    22010630.291
        47.500          37.750
 113175870.772 8                  21186756.228
        50.250
 195972959.826 7                  37292409.127
        47.250
 129988064.246 6 101289417.81844  24735907.425    24735906.871    24735911.720
        38.250          25.000
 134200395.240 7                  25537448.757
        45.000
 108097640.932 8  84231936.74149  20570290.944    20570290.649    20570288.713
        50.750          55.750
 110340774.591 8                  20619795.751
        51.000
 21 10  5  1  1  0.0000000  0 27G16S48R01G26G25E11G32R03E09G29E05E25
                                S25R23S23E03R22E12E24R02G18R12S36G27
                                E31G31R21
 126193463.482 6  98332576.60643  24013816.223    24013815.334    24013813.805
        38.750          22.500
  31659447.523 7                   6024453.428
        44.250
 131071519.73916                  24519640.470
        37.750
 114368025.161 7  89118042.63246  21763473.047    21763472.645    21763474.428
        46.500          38.250
 124394840.656 6  96931154.44046  23671511.553    23671510.766    23671512.957
        38.500          37.500
 129054235.521 6                  24558197.318
        40.500
 122364209.803 7  95348749.79145  23285134.434    23285134.350    23285139.647
        43.000          31.000
 130995589.096 6                  24471073.247
        36.000
 132835758.273 6                  25277807.486
        40.500
 116660589.921 7  90904444.38448  22199744.724    22199744.264    22199742.768
        46.000          48.000
 137354303.591 7                  26137655.461
        42.250
 142648244.227 6                  27145055.268
        37.750
 195258896.618 7                  37156750.687
        46.000
 126678634.678 7                  23681236.095
        44.750
 204841548.210 7                  38980037.848
        43.250
 147236660.123 6                  28018206.042
        36.250
 104355960.729 7                  19549368.918
        42.000
 119797284.868 7                  22796646.754
        44.250
 129026686.277 7                  24552921.502
        47.500
 123997873.696 7                  23237150.681
        44.500
 115605055.673 7  90081890.22946  21998895.314    21998895.131    21998894.415
        46.750          37.250
 113107890.022 8                  21174029.891
        50.250
 195972957.134 7                  37292409.096
        47.000
 129886772.148 6 101210488.15944  24716632.829    24716632.284    24716637.537
        38.250          26.000
 134227140.139 7                  25542538.333
        44.250
 108077748.633 8  84216436.24649  20566505.640    20566505.345    20566503.194
        50.500          55.750
 110411232.468 8                  20632963.066
        51.000
 21 10  5  1  1 30.0000000  0 27G16S48R01G26G25E11G32R03E09G29E05E25
                                S25R23S23E03R22E12E24R02G18R12S36G27
                                E31G31R21
 126129279.286 6  98282562.96343  24001602.509    24001601.597    24001599.997
        38.250          22.000
  31660087.496 7                   6024479.453
        44.250
 131165243.87817                  24537158.024
        42.250
 114328368.128 7  89087141.05246  21755926.686    21755926.289    21755928.105
        46.500          38.500
 124458788.580 6  96980983.98946  23683680.698    23683679.920    23683681.718
        38.250          37.500
 128965750.097 6                  24541358.753
        40.750
 122456759.517 7  95420866.19245  23302746.223    23302746.143    23302751.861
        43.500          32.250
 130980438.187 6                  24468242.671
        37.500
 132913424.408 6                  25292587.047
        40.250
 116741528.590 7  90967513.47248  22215146.612    22215146.147    22215145.048
        46.250          48.250
 137396318.646 7                  26145650.706
        42.250
 142601179.051 6                  27136098.991
        38.000
 195255573.517 7                  37156119.079
        45.750
 126544180.172 7                  23656102.178
        45.250
 204841409.570 7                  38980013.285
        43.250
 147217011.467 6                  28014467.214
        36.500
 104308185.870 7                  19540419.093
        42.250
 119767307.727 7                  22790942.230
        44.250
 129012552.908 7                  24550231.896
        47.750
 124055898.490 7                  23248024.391
        44.000
 115543767.282 7  90034133.08246  21987232.332    21987232.149    21987231.569
        46.500          37.250
 113039962.466 8                  21161313.885
        49.500
 195972956.576 7                  37292409.248
        47.000
 129785663.081 6 101131701.24244  24697392.932    24697392.391    24697397.876
        38.500          25.000
 134253941.111 7                  25547638.475
        44.750
 108058292.324 8  84201275.48349  20562803.163    20562802.873    20562800.842
        50.500          55.750
 110482344.985 8                  20646251.844
        50.500
 21 10  5  1  2  0.0000000  0 27G16S48R01G26G25E11G32R03E09G29E05E25
                                S25R23S23E03R22E12E24R02G18R12S36G27
                                E31G31R21
 126065163.356 6  98232602.53943  23989401.059    23989400.147    23989399.747
        39.250          22.250
  31659124.328 7                   6024504.056
        44.250
 131258688.388 5                  24554632.982
        31.500
 114288807.905 7  89056314.91046  21748398.775    21748398.378    21748399.922
        46.250          38.250
 124522777.658 6  97030845.57946  23695857.405    23695856.627    23695859.171
        38.250          38.000
 128877362.890 6                  24524539.325
        41.000
 122549394.555 7  95493049.09245  23320374.530    23320374.446    23320380.008
        43.750          32.750
 130965920.626 6                  24465532.611
        38.000
 132991063.138 6                  25307361.107
        40.250
 116822697.113 7  91030761.67448  22230592.329    22230591.864    22230590.846
        46.500          48.250
 137438612.483 7                  26153699.160
        42.250
 142554064.033 6                  27127133.541
        38.250
 195252242.621 7                  37155487.279
        46.000
 126409825.539 7                  23630985.514
        44.000
 204841270.824 7                  38979986.397
        43.500
 147197735.397 6                  28010798.777
        37.500
 104261199.455 7                  19531617.123
        42.250
 119737736.711 7                  22785314.948
        44.500
 128998442.593 8                  24547546.769
        48.000
 124114351.626 7                  23258978.921
        44.250
 115482865.692 7  89986677.34046  21975643.153    21975642.970    21975642.376
        46.750          37.000
 112972090.725 8                  21148607.867
        49.500
 195972957.478 7                  37292408.939
        46.750
 129684737.893 6 101053057.03544  24678188.511    24678188.002    24678193.634
        36.250          26.000
 134280799.454 7                  25552749.293
        44.750
 108039274.478 8  84186456.37749  20559184.229    20559183.939    20559181.757
        50.500          55.500
 110554109.179 8                  20659662.858
        50.750
 21 10  5  1  2 30.0000000  0 27G16S48R01G26G25E11G32R03E09G29E05E25
                                S25R23S23E03R22E12E24R02G18R12S36G27
                                E31G31R21
 126001118.186 6  98182697.22143  23977214.093    23977213.186    23977212.143
        39.250          22.250
  31659761.647 7                   6024529.951
        44.500
 131351942.454 6                  24572076.036
        36.250
 114249347.234 7  89025566.34546  21740889.459    21740889.057    21740890.740
        46.750          38.500
 124586810.822 6  97080741.52946  23708042.695    23708041.908    23708044.218
        39.500          38.000
 128789078.352 6                  24507739.087
        40.250
 122642114.394 7  95565298.05845  23338018.827    23338018.760    23338023.935
        44.500          32.750
 130952039.253 6                  24462937.977
        37.250
 133068674.730 6                  25322130.360
        40.000
 116904095.938 7  91094189.33147  22246082.059    22246081.599    22246080.136
        46.500          47.500
 137481186.055 7                  26161800.493
        42.500
 142506901.589 6                  27118158.592
        38.500
 195248910.853 7                  37154853.673
        46.250
 126275573.483 7                  23605889.470
        43.500
 204841133.906 7                  38979960.203
        43.750
 147178834.709 6                  28007202.586
        36.500
 104215006.168 7                  19522963.632
        42.250
 119708575.445 7                  22779766.030
        44.000
 128984358.399 7                  24544866.763
        47.750
 124173231.631 7                  23270013.737
        45.000
 115422356.287 7  89939527.19246  21964128.522    21964128.339    21964127.670
        47.500          37.250
 112904279.450 8                  21135913.731
        50.000
 195972959.766 7                  37292409.355
        47.250
 129584002.524 6 100974560.99744  24659019.217    24659018.721    24659025.201
        37.500          24.000
 134307718.438 7                  25557871.764
        44.500
 108020699.251 8  84171982.17049  20555649.417    20555649.122    20555646.993
        50.750          55.750
 110626524.027 8                  20673194.840
        50.750
 21 10  5  1  3  0.0000000  0 27G16S48R01G26G25E11G32R03E09G29E05E25
                                S25R23S23E03R22E12E24R02G18R12S36G27
                                E31G31R21
 125937144.522 6  98132847.62743  23965040.119    23965039.243    23965037.967
        39.750          22.500
  31660401.062 7                   6024555.873
        44.250
                                  24589483.201
        24.750
 114209987.009 7  88994896.04646  21733399.177    21733398.775    21733400.817
        46.750          38.500
 124650889.195 6  97130672.74146  23720236.645    23720235.858    23720237.550
        39.750          38.750
 128700899.461 6                  24490959.071
        40.250
 122734916.824 7  95637611.35245  23355679.002    23355678.913    23355684.318
        44.250          33.000
 130938794.503 6                  24460464.756
        38.500
 133146258.123 6                  25336893.655
        38.500
 116985722.963 7  91157794.80847  22261615.254    22261614.785    22261613.117
        46.000          47.250
 137524038.478 7                  26169955.170
        42.250
 142459692.339 6                  27109175.198
        37.750
 195245571.553 7                  37154219.869
        46.000
 126141429.411 7                  23580813.541
        45.500
 204840998.590 7                  38979932.792
        43.500
 147160310.408 6                  28003677.649
        36.500
 104169608.458 7                  19514458.483
        42.250
 119679825.605 7                  22774294.941
        44.000
 128970301.544 7                  24542191.737
        47.500
 124232535.487 7                  23281127.228
        44.750
 115362242.539 7  89892685.35846  21952689.387    21952689.204    21952688.312
        46.750          37.250
 112836531.347 8                  21123231.220
        50.000
 195972963.512 7                  37292409.887
        47.250
 129483462.373 6 100896218.86944  24639886.982    24639886.504    24639893.749
        39.250          24.250
 134334699.503 7                  25563006.099
        44.750
 108002568.305 8  84157854.15949  20552199.124    20552198.829    20552196.774
        50.750          55.500
 110699587.142 8                  20686848.742
        50.500
 21 10  5  1  3 30.0000000  0 27G16S48R01G26G25E11G32R03E09G29E05E25
                                S25R23S23E03R22E12E24R02G18R12S36G27
                                E31G31R21
 125873230.447 6  98083044.45843  23952878.234    23952877.376    23952875.346
        40.250          22.750
  31659433.624 7                   6024582.112
        44.250
                                  24606857.298
        41.000
 114170715.862 7  88964295.15846  21725926.165    21725925.763    21725927.832
        46.500          38.500
 124715001.581 6  97180630.43146  23732436.624    23732435.842    23732437.979
        39.000          38.500
 128612816.840 6                  24474197.197
        40.500
 122827787.412 7  95709977.76545  23373351.722    23373351.615    23373357.440
        45.250          33.750
 130926174.392 6                  24458106.646
        38.000
 133223800.072 6                  25351649.428
        39.500
 117067564.036 7  91221567.06648  22277189.178    22277188.705    22277187.291
        46.500          48.000
 137567156.630 7                  26178160.282
        42.000
 142412424.643 6                  27100180.285
        38.750
 195242218.050 7                  37153582.265
        46.250
 126007385.970 7                  23555756.540
        46.000
 204840854.558 7                  38979906.977
        43.500
 147142151.190 6                  28000222.087
        37.000
 104124996.582 7                  19506100.695
        42.250
 119651476.711 7                  22768900.257
        44.000
 128956261.018 7                  24539519.923
        47.750
 124292246.798 7                  23292316.617
        44.750
 115302515.746 7  89846145.07346  21941323.560    21941323.377    21941322.793
        47.500          37.750
 112768836.770 8                  21110558.439
        50.000
 195972955.614 7                  37292409.203
        47.000
 129383104.512 6 100818019.30244  24620788.415    24620787.977    24620794.121
        37.750          25.000
 134361731.923 7                  25568150.286
        44.500
 107984871.741 8  84144064.62449  20548831.715    20548831.420    20548829.213
        50.750          55.750
 110773282.998 8                  20700620.602
        50.500
 21 10  5  1  4  0.0000000  0 27G16S48R01G26G25E11G32R03E09G29E05E25
                                S25R23S23E03R22E12E24R02G18R12S36G27
                                E31G31R21
 125809390.896 6  98033299.37243  23940729.435    23940728.568    23940727.066
        40.250          22.750
  31660071.691 7                   6024607.856
        44.250
 131630400.85716                  24624191.639
        41.750
 114131549.344 7  88933775.79946  21718473.353    21718472.947    21718474.541
        46.250          38.250
 124779163.705 6  97230626.86646  23744646.494    23744645.707    23744647.722
        40.000          39.500
 128524847.759 6                  24457457.183
        40.250
 122920738.479 7  95782406.90545  23391040.325    23391040.209    23391045.574
        44.250          32.500
 130914194.462 6                  24455868.794
        38.000
 133301313.438 6                  25366399.563
        39.500
 117149632.562 7  91285516.56547  22292806.351    22292805.882    22292804.187
        46.750          47.250
 137610554.222 7                  26186418.551
        42.000
 142365113.753 6                  27091177.687
        38.750
 195238864.283 7                  37152944.223
        46.250
 125873463.542 7                  23530721.050
        46.000
 204840716.548 7                  38979880.375
        43.500
 147124372.645 6                  27996838.617
        36.000
 104081188.065 7                  19497894.228
        42.500
 119623545.024 7                  22763585.096
        44.000
 128942252.691 7                  24536854.251
        47.500
 124352378.969 7                  23303584.975
        43.750
 115243194.005 7  89799920.40646  21930034.950    21930034.772    21930034.205
        47.000          37.500
 112701213.482 8                  21097899.021
        50.000
 195972955.737 7                  37292409.552
        47.000
 129282941.953 6 100739970.37443  24601728.151    24601727.686    24601732.506
        36.750          23.250
 134388831.843 7                  25573306.947
        44.500
 107967626.667 8  84130626.90149  20545550.032    20545549.737    20545547.525
        50.750          55.500
 110847623.918 8                  20714512.433
        50.250
 21 10  5  1  4 30.0000000  0 27G16S48R01G26G25E11G32R03E09G29E05E25
                                S25R23S23E03R22E12E24R02G18R12S36G27
                                E31G31R21
 125745620.464 6  97983608.14143  23928594.925    23928594.085    23928592.191
        39.500          23.000
  31660713.107 7                   6024634.574
        44.500
 131722852.685 7                  24641488.071
        42.000
 114092482.392 7  88903334.02646  21711039.105    21711038.699    21711040.254
        46.750          38.750
 124843370.640 6  97280658.21746  23756864.283    23756863.492    23756866.296
        40.000          39.750
 128436989.047 6                  24440738.040
        41.250
 123013761.870 7  95854892.40445  23408742.052    23408741.941    23408747.198
        44.250          32.000
 130902848.965 6                  24453747.682
        36.750
 133378791.617 6                  25381143.243
        40.000
 117231920.405 7  91349636.95947  22308464.967    22308464.494    22308462.893
        45.750          47.000
 137654224.448 7                  26194729.036
        42.500
 142317754.404 6                  27082165.207
        40.250
 195235499.625 7                  37152305.420
        46.250
 125739660.406 7                  23505708.001
        43.750
 204840580.645 7                  38979855.531
        43.500
 147106969.830 6                  27993527.344
        37.000
 104038178.748 7                  19489837.410
        42.500
 119596026.362 7                  22758348.406
        44.750
 128928271.921 8                  24534193.835
        48.250
 124412922.099 7                  23314931.423
        44.500
 115184274.860 7  89754009.45346  21918822.988    21918822.805    21918822.465
        46.750          38.000
 112633658.293 8                  21085252.893
        50.000
 195972959.109 7                  37292410.625
        47.000
 129182972.751 5 100662071.14544  24582705.642    24582705.137    24582710.439
        35.750          24.250
 134415994.809 7                  25578476.186
        45.000
 107950828.820 8  84117537.66549  20542353.533    20542353.238    20542351.080
        50.750          56.000
 110922600.710 8                  20728524.469
        50.750
 21 10  5  1  5  0.0000000  0 27G16S48R01G26G25E11G32R03E09G29E05E25
                                S25R23S23E03R22E12E24R02G18R12S36G27
                                E31G31R21
 125681911.871 6  97933965.09143  23916471.100    23916470.269    23916468.826
        39.750          23.750
  31661347.008 7                   6024659.382
        44.250
 131815089.749 4                  24658742.877
        29.500
 114053508.095 7  88872964.44746  21703622.665    21703622.259    21703623.960
        46.750          39.000
 124907615.554 6  97330719.17746  23769089.249    23769088.462    23769091.238
        38.750          37.750
 128349235.664 6                  24424039.133
        40.500
 123106847.401 7  95927426.29045  23426455.703    23426455.587    23426461.491
        43.500          31.250
 130892130.426 6                  24451746.886
        40.500
 133456226.092 6                  25395878.815
        39.500
 117314418.417 7  91413921.11847  22324163.885    22324163.407    22324161.843
        46.500          47.500
 137698158.478 7                  26203089.360
        42.000
 142270339.263 6                  27073142.721
        39.500
 195232129.943 7                  37151663.393
        46.000
 125605972.511 7                  23480716.434
        44.250
 204840438.731 7                  38979826.917
        43.250
 147089935.763 6                  27990285.671
        36.250
 103995963.662 7                  19481929.060
        42.250
 119568914.427 7                  22753189.175
        44.000
 128914312.048 7                  24531537.395
        47.500
 124473865.521 7                  23326351.247
        43.750
 115125753.893 7  89708408.75246  21907686.781    21907686.598    21907686.305
        46.750          38.000
 112566165.984 8                  21072617.892
        50.000
 195972960.145 7                  37292409.530
        46.750
 129083193.008 6 100584319.50344  24563719.568    24563719.054    24563724.537
        38.750          25.500
 134443214.420 7                  25583655.823
        44.250
 107934472.714 8  84104792.64549  20539241.083    20539240.788    20539238.674
        50.750          56.000
 110998202.453 8                  20742651.938
        50.750
 21 10  5  1  5 30.0000000  0 28G16S48R01G04G26G25E11G32R03E09G29E05
                                E25S25R23S23E03R22E12E24R02G18R12S36
                                G27E31G31R21
 125618269.513 6  97884373.65843  23904360.539    23904359.717    23904358.322
        40.000          23.250
  31660381.444 7                   6024683.498
        44.250
 131907119.57316                  24675958.491
        40.500
                                  25652437.701
        31.500
 114014631.331 7  88842670.87246  21696224.427    21696224.021    21696225.732
        46.750          38.750
 124971903.554 6  97380813.68646  23781323.090    23781322.299    23781324.632
        40.250          38.500
 128261594.287 6                  24407361.107
        40.500
 123199996.868 7  96000010.04845  23444181.951    23444181.840    23444186.698
        43.250          30.250
 130882043.259 6                  24449862.475
        41.500
 133533619.100 6                  25410606.323
        39.500
 117397128.443 7  91478370.49247  22339902.859    22339902.390    22339900.970
        46.750          47.750
 137742359.397 7                  26211500.469
        42.250
 142222872.985 6                  27064110.033
        39.750
 195228748.176 7                  37151019.931
        46.250
 125472408.271 6                  23455748.841
        39.250
 204840296.234 7                  38979799.108
        43.250
 147073275.322 6                  27987115.624
        36.000
 103954549.191 7                  19474170.506
        42.500
 119542214.913 7                  22748108.484
        44.000
 128900378.338 7                  24528885.819
        47.750
 124535209.903 7                  23337848.288
        44.500
 115067638.591 7  89663124.15546  21896627.720    21896627.537    21896627.249
        47.000          38.000
 112498743.602 8                  21059996.639
        50.000
 195972959.110 7                  37292410.004
        47.250
 128983609.125 5 100506720.58443  24544770.301    24544769.783    24544775.947
        35.250          23.250
 134470496.191 7                  25588847.363
        44.250
 107918564.238 8  84092396.42849  20536213.801    20536213.506    20536211.426
        50.750          56.000
 111074430.497 8                  20756897.241
        51.000
 21 10  5  1  6  0.0000000  0 28G16S48R01G04G26G25E11G32R03E09G29E05
                                E25S25R23S23E03R22E12E24R02G18R12S36
                                G27E31G31R21
 125554696.813 6  97834836.49743  23892262.762    23892261.913    23892260.642
        39.500          23.750
  31661019.821 7                   6024711.696
        44.500
 131998933.640 5                  24693132.412
        33.000


 113975856.003 7  88812456.33246  21688845.682    21688845.271    21688846.938
        46.500          39.000
 125036238.686 6  97430944.94346  23793565.680    23793564.889    23793567.187
        39.250          39.000
 128174070.708 6                  24390705.914
        40.500
 123293210.985 7  96072644.17244  23461919.886    23461919.779    23461924.825
        42.500          29.750
 130872591.102 6                  24448097.150
        40.250
 133610972.357 6                  25425326.038
        40.000
 117480051.934 7  91542986.19547  22355683.175    22355682.706    22355681.063
        45.500          47.500
 137786829.224 7                  26219962.687
        42.250
 142175359.072 6                  27055068.570
        39.750
 195225367.890 7                  37150376.250
        46.250
 125338975.695 7                  23430804.936
        44.250
 204840156.825 7                  38979773.392
        43.250
 147056992.388 5                  27984016.657
        35.750
 103913940.531 7                  19466563.835
        42.250
 119515932.370 7                  22743106.935
        44.250
 128886475.001 7                  24526240.054
        47.500
 124596954.595 7                  23349418.946
        44.500
 115009935.297 7  89618160.60646  21885647.082    21885646.899    21885646.541
        47.000          38.000
 112431396.841 8                  21047388.792
        50.000
 195972952.331 7                  37292410.791
        47.000
 128884226.708 6 100429278.82143  24525858.697    24525858.188    24525864.660
        37.250          23.750
 134497844.514 7                  25594051.473
        44.250
 107903109.022 8  84080353.39749  20533272.801    20533272.502    20533270.332
        50.750          56.250
 111151285.027 8                  20771259.025
        51.000
 21 10  5  1  6 30.0000000  0 28G16S48R01G04G26G25E11G32R03E09G29E05
                                E25S25R23S23E03R22E12E24R02G18R12S36
                                G27E31G31R21
 125491190.775 6  97785351.29043  23880177.785    23880176.949    23880175.483
        38.750          22.500
  31661657.359 7                   6024736.039
        44.250
 132090529.999 4                  24710268.190
        27.000
 134669815.28215                  25626812.865
        33.500
 113937179.290 7  88782318.64346  21681485.784    21681485.373    21681487.358
        46.500          39.250
 125100618.240 6  97481110.80946  23805817.058    23805816.263    23805818.230
        39.500          38.000
 128086664.002 6                  24374072.585
        40.750
 123386483.762 6  96145323.99044  23479669.110    23479669.003    23479674.465
        41.750          28.750
 130863770.186 6                  24446449.996
        40.500
 133688281.316 6                  25440037.363
        39.500
 117563183.637 7  91607764.13147  22371502.417    22371501.948    22371500.505
        46.000          47.250
 137831563.277 7                  26228475.385
        42.250
 142127794.511 6                  27046017.393
        39.500
 195221975.315 7                  37149729.815
        46.000
 125205673.770 7                  23405885.949
        43.500
 204840017.264 7                  38979747.116
        43.000
 147041084.077 6                  27980989.423
        36.000
 103874136.752 7                  19459107.222
        42.250
 119490064.699 7                  22738184.561
        43.750
 128872599.579 7                  24523599.740
        47.500
 124659092.990 7                  23361062.327
        42.250
 114952643.714 7  89573517.85746  21874744.642    21874744.455    21874744.157
        46.750          37.750
 112364124.730 8                  21034795.432
        49.750
 195972952.713 7                  37292409.266
        46.750
 128785045.614 6 100351994.80044  24506985.166    24506984.657    24506991.850
        37.000          24.250
 134525257.119 7                  25599267.932
        44.250
 107888105.339 8  84068662.21549  20530417.625    20530417.321    20530415.112
        50.750          56.000
 111228759.302 8                  20785736.961
        51.250
