     2.11           OBSERVATION DATA    M (MIXED)           RINEX VERSION / TYPE
teqc  2019Feb25                         20230504 17:05:26UTCPGM / RUN BY / DATE
Linux2.6.32-573.12.1.el6.x86_64|x86_64|gcc|Win64-MinGW64|=+ COMMENT
BIT 2 OF LLI FLAGS DATA COLLECTED UNDER A/S CONDITION       COMMENT
CVBB                                                        MARKER NAME
CVBB                                                        MARKER NUMBER
RFGH                SEGAL                                   OBSERVER / AGENCY
3055330             SEPT POLARX5        5.3.2               REC # / TYPE / VERS
1909270038          TWIVP6050_CONE  NONE                    ANT # / TYPE
  6378137.0000        0.0000        0.0000                  APPROX POSITION XYZ
        0.1190        0.0000        0.0000                  ANTENNA: DELTA H/E/N
     1     1                                                WAVELENGTH FACT L1/2
     7    L1    L2    C1    P1    P2    S1    S2            # / TYPES OF OBSERV
 SNR is mapped to RINEX snr flag value [0-9]                COMMENT
  L1 & L2: min(max(int(snr_dBHz/6), 0), 9)                  COMMENT
  2021    10    13    12    12    0.0000000     GPS         TIME OF FIRST OBS
    18                                                      LEAP SECONDS
                                                            END OF HEADER
 21 10 13 12 12  0.0000000  0 24G17G02G04G19G06G07G20G09G11G30E09E11
                                E04R05S48S36E12R20R19S23S25R06R18R04
 121407801.382 7  94603491.58055  23103136.803    23103136.656    23103138.751
        44.250          32.250
 124115367.798 7  96713264.24045  23618369.285    23618368.525    23618366.652
        44.250          33.250
 125002474.416 6  97404531.20544  23787179.817    23787179.558    23787181.300
        40.250          27.750
 116257419.574 7  90590191.29956  22123051.466    22123051.109    22123050.104
        46.500          38.250
 108540939.335 8  84577364.59149  20654653.974    20654653.738    20654656.057
        51.000          56.250
 118640460.592 7  92447112.78947  22576528.627    22576528.230    22576529.076
        46.750          47.750
 125019079.136 6  97417465.09254  23790339.291    23790338.567    23790339.718
        39.000          24.000
 111406367.659 8  86810160.87149  21199926.702    21199926.363    21199927.747
        50.000          54.250
 117690106.791 7  91706574.29245  22395682.335    22395682.134    22395682.006
        46.000          35.500
 125168353.577 6  97533800.67556  23818745.744    23818745.329    23818750.534
        41.500          40.750
 124155324.635 7                  23625972.704
        45.750
 116838339.841 7                  22233596.771
        45.250
 125817684.100 8                  23942309.288
        48.500
 109191409.449 8                  20426511.453
        52.250
  32318204.571 7                   6149938.591
        44.250
 196758287.698 7                  37441857.518
        47.000
 121096643.887 7                  23043925.034
        44.000
 110116818.116 6                  20592399.817
        40.500
 107102114.316 7                  20021611.313
        43.500
 205577919.989 7                  39120176.885
        43.500
 192642397.920 8                  36658593.100
        48.250
 127661957.624 5                  23923795.656
        34.250
 124327704.043 7                  23290767.446
        45.000
 114795944.210 8                  21437332.462
        49.500
 21 10 13 12 12 30.0000000  0 24G17G02G04G19G06G07G20G09G30E09E11E04
                                R05S48S36E12R20R19G13S23S25R06R18R04
 119925731.040 7  93448631.40845  22821108.090    22821107.791    22821109.970
        43.750          31.750
 122455376.266 7  95419764.35445  23302483.623    23302482.582    23302480.600
        44.250          33.750
 123522064.437 6  96250964.92844  23505467.026    23505466.781    23505468.390
        40.000          27.250
 114764639.367 7  89426985.86846  21838984.888    21838983.882    21838983.497
        46.500          37.500
 106935371.939 8  83326273.10049  20349124.581    20349124.362    20349126.700
        50.500          56.250
 117011445.731 7  91177750.59247  22266537.213    22266536.748    22266537.630
        46.250          47.250
 123377822.648 6  96138563.96143  23478018.532    23478017.571    23478018.990
        39.250          23.750
 109885039.273 8  85624710.15949  20910427.413    20910426.980    20910428.397
        49.250          54.000
 123502680.685 6  96235873.90146  23501779.366    23501778.544    23501783.755
        41.750          40.750
 122532615.347 7                  23317181.316
        45.750
 115232366.739 7                  21927990.246
        45.250
 124263636.513 8                  23646583.905
        48.750
 107589730.747 8                  20126884.142
        52.000
  30742404.332 7                   5850054.881
        43.750
 195182535.378 7                  37142002.856
        46.500
 119572104.006 7                  22753814.802
        44.000
 108438369.235 6                  20278522.461
        40.500
 105566608.632 7                  19734564.651
        43.250
 135227668.36414                  25732969.062
        29.500
 204002298.287 7                  38820344.974
        42.750
 191069108.229 7                  36359151.262
        47.750
 125988393.069 6                  23610169.865
        36.000
 122856620.827 7                  23015185.104
        45.750
 113264072.337 8                  21151266.057
        49.000
 21 10 13 12 13  0.0000000  0 25G17G02E19G04G19G06G07G20G09G30E09E11
                                E04R05S48S36E12R20R19G13S23S25R06R18
                                R04
 120019522.312 7  93521715.33845  22838956.159    22838955.851    22838958.139
        43.500          31.750
 122371236.808 7  95354201.15345  23286472.434    23286471.352    23286469.352
        44.750          33.750
 140109790.97915                  26662004.794
        34.000
 123617485.929 6  96325319.26844  23523625.340    23523625.086    23523626.965
        40.000          27.500
 114847929.151 7  89491886.92446  21854834.576    21854833.481    21854832.989
        46.250          37.750
 106905969.159 8  83303361.82649  20343529.431    20343529.217    20343531.425
        50.750          56.250
 116958491.305 7  91136487.43847  22256460.612    22256460.152    22256460.533
        46.250          47.250
 123312293.984 6  96087502.66844  23465549.193    23465548.165    23465549.061
        40.750          25.000
 109939799.257 8  85667380.25649  20920847.929    20920847.478    20920848.878
        49.500          54.000
 123412799.686 7  96165836.90946  23484674.582    23484673.715    23484679.781
        42.000          41.250
 122485886.809 7                  23308289.165
        46.000
 115202452.290 7                  21922297.750
        45.750
 124285555.106 8                  23650754.819
        49.250
 107591271.221 8                  20127172.677
        52.500
  30742339.958 7                   5850024.711
        44.000
 195182520.440 7                  37141999.712
        46.750
 119623613.387 7                  22763616.597
        44.250
 108363983.942 6                  20264610.809
        40.750
 105635807.071 7                  19747500.189
        43.250
 135119622.86615                  25712409.903
        31.500
 204002411.255 7                  38820367.050
        43.500
 191071554.326 7                  36359562.540
        47.750
 125915146.594 5                  23596444.182
        35.000
 122986348.126 7                  23039486.987
        45.250
 113337949.760 8                  21165062.199
        49.250
 21 10 13 12 13 30.0000000  0 24G17G02E19G04G19G06G07G20G09G30E09E11
                                E04R05S48S36E12R20R19S23S25R06R18R04
 120113456.779 7  93594910.85245  22856831.517    22856831.204    22856833.387
        43.500          32.250
 122287230.115 7  95288741.38645  23270486.440    23270485.354    23270482.980
        44.250          33.500
 140182790.839 5                  26675896.369
        35.000
 123713021.134 6  96399762.20944  23541805.313    23541805.054    23541806.968
        39.500          28.000
 114931569.725 7  89557061.32146  21870751.001    21870749.888    21870749.305
        46.500          38.000
 106877013.271 8  83280798.78149  20338019.243    20338019.029    20338021.237
        51.000          56.250
 116905879.177 7  91095491.01047  22246448.333    22246447.877    22246448.704
        46.750          47.500
 123246772.482 6  96036446.96344  23453081.234    23453080.206    23453080.456
        41.500          25.750
 109994928.435 8  85710338.03449  20931338.617    20931338.170    20931339.613
        49.750          54.250
 123322991.751 6  96095856.85646  23467585.012    23467584.154    23467589.476
        41.750          40.750
 122439418.753 7                  23299446.469
        45.750
 115172878.175 7                  21916669.945
        45.500
 124307720.652 8                  23654972.842
        49.000
 107593162.211 8                  20127526.360
        52.250
  30742289.988 7                   5849998.632
        44.000
 195182527.393 7                  37141998.863
        46.750
 119675454.463 7                  22773481.611
        44.500
 108290234.045 6                  20250819.736
        40.500
 105705717.930 7                  19760569.309
        43.250
 204002538.761 7                  38820391.058
        43.500
 191074029.294 7                  36359980.234
        47.750
 125842162.552 5                  23582765.552
        35.500
 123116271.042 7                  23063826.478
        45.750
 113411897.478 8                  21178872.130
        49.500
 21 10 13 12 14  0.0000000  0 25G17G02E19G04G19G06G07G20G09G30G13E09
                                E11E04R05S48S36E12R20R19S23S25R06R18
                                R04
 120207520.499 7  93668207.07745  22874731.159    22874730.842    22874733.435
        44.000          32.250
 122203348.481 7  95223379.09545  23254524.280    23254523.176    23254521.957
        44.750          34.000
 140255782.587 6                  26689786.655
        36.000
 123808657.617 6  96474284.06544  23560004.733    23560004.479    23560006.043
        40.000          27.500
 115015548.242 7  89622499.05346  21886731.524    21886730.398    21886730.097
        46.500          38.000
 106848495.992 8  83258577.51349  20332592.651    20332592.432    20332594.601
        51.000          56.500
 116853601.646 7  91054755.30447  22236500.426    22236499.970    22236500.842
        47.000          47.750
 123181247.704 7  95985388.70344  23440612.431    23440611.390    23440612.258
        42.000          27.250
 110050414.314 8  85753573.76449  20941897.363    20941896.907    20941898.317
        50.000          54.500
 123233249.451 7  96025927.94446  23450507.281    23450506.418    23450511.903
        42.250          41.250
 134903760.60816 105119879.17852  25671332.707    25671332.439    25671346.933
        36.250          12.750
 122393200.992 7                  23290651.572
        46.500
 115143635.631 7                  21911105.280
        46.250
 124330121.703 8                  23659235.673
        49.500
 107595391.653 8                  20127943.220
        52.250
  30742243.295 7                   5849972.044
        44.000
 195182532.845 7                  37141998.111
        47.000
 119727616.541 7                  22783407.803
        44.750
 108217113.571 6                  20237145.917
        40.750
 105776328.414 7                  19773769.310
        43.250
 204002672.567 7                  38820416.886
        43.500
 191076517.542 8                  36360398.523
        48.000
 125769430.325 6                  23569136.402
        36.500
 123246375.428 7                  23088199.460
        44.750
 113485902.922 8                  21192691.982
        49.750
 21 10 13 12 14 30.0000000  0 25G17G02E19G04G19G06G07G20G09G30G13E09
                                E11E04R05S48S36E12R20R19S23S25R06R18
                                R04
 120301717.898 7  93741607.45745  22892656.447    22892656.108    22892658.748
        43.500          31.500
 122119600.869 7  95158121.22645  23238587.418    23238586.305    23238584.808
        43.750          32.750
 140328772.174 5                  26703675.890
        35.500
 123904400.134 6  96548888.54544  23578223.700    23578223.446    23578225.539
        39.250          27.500
 115099867.986 7  89688202.66846  21902777.401    21902776.257    21902775.629
        46.500          37.500
 106820426.191 8  83236704.92549  20327251.203    20327250.984    20327252.958
        51.000          56.250
 116801667.933 7  91014287.51147  22226617.808    22226617.361    22226618.100
        46.750          47.750
 123115726.837 7  95934333.49144  23428144.262    23428143.221    23428144.345
        42.000          27.500
 110106261.575 8  85797091.09349  20952524.727    20952524.267    20952525.580
        49.500          54.000
 123143582.485 6  95956057.72846  23433444.091    23433443.224    23433448.495
        41.750          40.750
 134795949.26015                  25650817.242
        30.750
 122347240.435 7                  23281905.634
        46.000
 115114732.973 7                  21905605.283
        45.750
 124352763.921 8                  23663544.301
        49.000
 107597964.249 8                  20128424.732
        52.250
  30742205.045 7                   5849948.975
        44.000
 195182550.827 7                  37142001.997
        46.750
 119780106.019 7                  22793396.191
        44.250
 108144633.084 6                  20223591.345
        40.750
 105847643.150 7                  19787100.830
        43.250
 204002818.690 7                  38820443.152
        43.250
 191077425.294 7                  36360822.459
        47.750
 125696956.987 5                  23555556.009
        33.500
 123376664.581 7                  23112607.663
        44.500
 113559971.126 8                  21206523.580
        50.000
 21 10 13 12 15  0.0000000  0 25G17G02E19G04G19G06G07G20G09G30G13E09
                                E11E04R05S48S36E12R20R19S23S25R06R18
                                R04
 120396041.429 7  93815106.12545  22910605.892    22910605.553    22910608.101
        43.000          31.250
 122035985.162 7  95092966.13745  23222676.238    23222675.125    23222673.241
        44.000          33.000
 140401754.216 5                  26717564.017
        35.750
 124000242.081 6  96623570.51744  23596462.194    23596461.926    23596463.445
        40.000          27.750
 115184520.932 7  89754165.92546  21918886.114    21918884.961    21918884.413
        46.500          37.250
 106792801.496 8  83215179.17749  20321994.252    20321994.038    20321996.243
        50.750          56.000
 116750076.163 7  90974086.16747  22216800.276    22216799.829    22216800.210
        47.000          47.500
 123050205.422 7  95883277.85844  23415675.492    23415674.460    23415675.691
        42.000          27.500
 110162463.600 8  85840884.85948  20963219.548    20963219.088    20963220.623
        49.750          53.750
 123053989.434 7  95886245.10146  23416395.283    23416394.420    23416399.455
        42.000          41.000
 134688214.780 5 104951902.79652  25630315.270    25630315.253    25630326.106
        35.000          13.750
 122301532.769 7                  23273207.734
        46.500
 115086167.292 7                  21900169.422
        46.250
 124375641.786 8                  23667897.767
        49.250
 107600873.960 8                  20128968.823
        52.250
  30742173.840 7                   5849925.771
        44.000
 195182569.406 7                  37142008.396
        46.750
 119832918.049 7                  22803446.116
        44.500
 108072792.046 6                  20210157.270
        40.750
 105919655.251 7                  19800563.510
        43.500
 204002972.044 7                  38820471.994
        43.000
 191079942.016 7                  36361249.790
        47.750
 125624738.102 5                  23542022.107
        34.500
 123507130.828 7                  23137048.281
        45.000
 113634095.542 8                  21220365.282
        49.250
 21 10 13 12 15 30.0000000  0 25G17G02E19G04G19G06G07G20G09G30G13E09
                                E11E04R05S48S36E12R20R19S23S25R06R18
                                R04
 120490532.318 7  93888735.20245  22928587.251    22928586.916    22928589.184
        43.000          31.500
 121952548.059 7  95027950.22045  23206798.380    23206797.276    23206795.395
        44.750          33.250
 140474772.207 5                  26731458.689
        35.000
 124096225.954 6  96698363.06544  23614727.193    23614726.925    23614728.557
        39.250          27.000
 115269548.770 7  89820421.30746  21935066.464    21935065.297    21935064.648
        46.500          37.000
 106765668.410 8  83194036.50049  20316831.076    20316830.862    20316832.946
        50.750          56.000
 116698873.202 7  90934187.79447  22207056.695    22207056.248    22207056.670
        46.750          47.750
 122984728.287 6  95832256.72244  23403215.824    23403214.769    23403215.662
        40.500          27.000
 110219062.768 8  85884988.08848  20973990.105    20973989.645    20973990.991
        49.500          53.750
 122964517.658 7  95816526.96446  23399368.990    23399368.119    23399373.622
        43.000          41.750
 134580601.03216                  25609837.821
        37.750
 122256122.568 7                  23264566.440
        46.250
 115057984.591 7                  21894806.414
        45.750
 124398798.631 8                  23672304.464
        49.000
 107604163.820 8                  20129584.500
        52.250
  30742190.344 7                   5849915.759
        43.750
 195182643.228 7                  37142021.994
        46.750
 119886096.734 7                  22813565.736
        44.250
 108001639.518 6                  20196851.038
        41.250
 105992407.466 7                  19814163.465
        43.500
 204003177.987 7                  38820510.969
        43.250
 191082520.894 7                  36361686.699
        47.500
 125552818.911 5                  23528544.745
        34.750
 123637815.536 7                  23161530.084
        44.250
 113708319.777 8                  21234226.789
        49.250
 21 10 13 12 16  0.0000000  0 25G17G02E19G04G19G06G07G20G09G30G13E09
                                E11E04R05S48S36E12R20R19S23S25R06R18
                                R04
 120585117.592 7  93962437.81745  22946586.096    22946585.757    22946588.319
        42.250          31.500
 121869221.339 7  94963020.31345  23190941.961    23190940.857    23190938.945
        44.000          33.250
 140547754.522 5                  26745346.770
        34.250
 124192278.959 6  96773209.48744  23633005.187    23633004.919    23633006.989
        39.500          27.500
 115354877.662 7  89886911.28146  21951304.044    21951302.860    21951302.263
        46.000          37.250
 106738958.197 8  83173223.33449  20311748.384    20311748.170    20311750.071
        50.500          56.000
 116647990.605 7  90894539.06048  22197374.042    22197373.591    22197374.145
        46.500          48.000
 122919224.807 6  95781215.07744  23390751.474    23390750.388    23390750.370
        40.250          27.000
 110275986.064 8  85929343.88648  20984822.241    20984821.781    20984823.247
        49.000          53.750
 122875099.350 7  95746850.49946  23382353.136    23382352.265    23382357.757
        42.000          41.500
 134473060.89416 104784239.99651  25589369.828    25589369.475    25589380.884
        37.250           8.750
 122210939.160 7                  23255968.230
        46.000
 115030115.563 7                  21889503.054
        45.500
 124422162.583 8                  23676750.439
        49.000
 107607760.081 8                  20130257.344
        52.500
  30742186.967 7                   5849899.067
        43.500
 195182703.454 7                  37142033.223
        46.500
 119939570.851 7                  22823741.532
        44.250
 107931107.077 6                  20183661.661
        40.750
 106065825.480 7                  19827887.974
        43.500
 204003365.693 7                  38820548.137
        43.000
 191085092.936 7                  36362122.128
        47.500
 125481127.697 5                  23515107.252
        33.500
 123768643.650 7                  23186039.575
        45.000
 113782569.442 8                  21248092.544
        49.500
 21 10 13 12 16 30.0000000  0 25G17G02E19G04G19G06G07G20G09G30G13E09
                                E11E04R05S48S36E12R20R19S23S25R06R18
                                R04
 120679799.813 7  94036215.96645  22964603.853    22964603.527    22964606.212
        42.750          31.750
 121786012.575 7  94898182.32345  23175107.812    23175106.726    23175104.818
        44.250          33.500
 140620705.530 5                  26759229.144
        34.750
 124288404.360 6  96848112.33644  23651297.347    23651297.084    23651298.939
        39.250          26.500
 115440509.654 7  89953637.43146  21967599.245    21967598.061    21967597.786
        46.500          37.250
 106712678.181 8  83152745.38649  20306747.425    20306747.211    20306749.214
        51.000          56.250
 116597436.179 7  90855146.04348  22187753.800    22187753.349    22187754.026
        46.750          48.250
 122853700.512 6  95730157.21744  23378281.673    23378280.565    23378282.494
        39.500          26.750
 110333236.678 8  85973954.73448  20995716.724    20995716.264    20995717.675
        49.500          53.750
 122785742.825 7  95677222.18646  23365349.029    23365348.171    23365353.853
        42.500          41.750
 134365565.421 5 104700477.78843  25568913.409    25568913.096    25568924.150
        35.250          19.000
 122165987.971 7                  23247414.251
        46.250
 115002567.077 7                  21884260.809
        45.500
 124445737.804 8                  23681236.562
        49.000
 107611666.094 8                  20130987.998
        52.000
  30742166.376 7                   5849881.426
        43.750
 195182751.958 7                  37142041.844
        46.500
 119993345.307 7                  22833974.478
        44.000
 107861204.194 6                  20170588.912
        41.250
 106139911.607 7                  19841737.938
        43.500
 204003540.354 7                  38820582.278
        43.000
 191087655.992 7                  36362556.501
        47.750
 125409669.818 5                  23501717.254
        34.500
 123899616.657 7                  23210575.128
        43.750
 113856848.368 8                  21261963.196
        49.500
 21 10 13 12 17  0.0000000  0 25G17G02E19G04G19G06G07G20G09G30G13E09
                                E11E04R05S48S36E12R20R19S23S25R06R18
                                R04
 120774582.398 7  94110072.32345  22982640.374    22982640.039    22982642.904
        43.000          32.000
 121702930.670 7  94833443.18545  23159297.945    23159296.854    23159294.873
        44.000          33.750
 140693631.000 5                  26773106.351
        35.000
 124384606.759 6  96923075.17044  23669604.353    23669604.090    23669605.802
        39.250          26.750
 115526448.464 7  90020602.66246  21983953.079    21983951.872    21983951.511
        46.000          37.250
 106686837.012 8  83132609.39649  20301829.915    20301829.701    20301831.940
        50.500          56.250
 116547219.239 7  90816016.00548  22178197.792    22178197.345    22178198.070
        46.750          48.250
 122788162.342 6  95679088.54944  23365809.967    23365808.841    23365810.691
        40.000          26.500
 110390819.106 8  86018824.14748  21006674.351    21006673.891    21006675.181
        48.750          53.500
 122696457.685 6  95607649.49046  23348358.379    23348357.525    23348363.141
        41.750          41.750
                                  25548471.105
        31.000
 122121275.716 7                  23238905.770
        46.500
 114975347.260 7                  21879081.114
        46.000
 124469529.830 8                  23685764.122
        49.500
 107615886.910 8                  20131777.446
        52.250
  30742135.670 7                   5849862.158
        44.000
 195182790.843 7                  37142050.385
        46.500
 120047426.294 7                  22844265.723
        44.500
 107791941.458 6                  20157636.586
        40.750
 106214670.599 7                  19855712.838
        43.000
 204003709.685 7                  38820613.664
        43.000
 191090224.265 7                  36362992.471
        47.750
 125338452.086 5                  23488370.707
        35.500
 124030738.458 7                  23235139.346
        44.750
 113931161.460 8                  21275840.839
        49.000
 21 10 13 12 17 30.0000000  0 25G17G02E19G04G19G06G07G20G09G30G13E09
                                E11E04R05S48S36E12R20R19S23S25R06R18
                                R04
 120869465.539 7  94184007.04945  23000696.159    23000695.806    23000698.591
        43.750          32.250
 121619980.829 7  94768806.95945  23143512.899    23143511.817    23143510.595
        44.750          34.500
 140766532.866 5                  26786978.757
        34.250
 124480886.906 6  96998098.58844  23687925.703    23687925.444    23687927.252
        40.250          27.250
 115612693.632 7  90087806.60946  22000365.128    22000363.917    22000363.498
        46.500          37.500
 106661439.457 8  83112819.07849  20296996.879    20296996.669    20296998.979
        51.250          56.500
 116497344.905 7  90777152.93648  22168707.269    22168706.818    22168707.168
        47.250          48.250
 122722612.978 6  95628011.16144  23353337.379    23353336.262    23353336.291
        40.000          26.250
 110448733.954 8  86063952.58448  21017694.992    21017694.532    21017696.174
        49.250          53.750
 122607249.652 7  95538136.88147  23331383.128    23331382.283    23331387.095
        42.500          42.000
 134150771.56015 104533108.21753  25528042.256    25528041.698    25528051.696
        35.750          18.250
 122076805.245 7                  23230443.302
        46.250
 114948460.382 7                  21873964.805
        45.500
 124493540.325 8                  23690333.224
        49.000
 107620423.539 8                  20132626.354
        52.250
  30742097.341 7                   5849842.631
        44.250
 195182827.507 7                  37142057.428
        46.750
 120101816.131 7                  22854615.801
        44.250
 107723325.449 6                  20144804.894
        41.000
 106290102.512 7                  19869814.185
        43.000
 204003876.405 7                  38820646.173
        43.250
 191091194.908 8                  36363429.201
        48.000
 125267477.379 5                  23475070.224
        34.000
 124162007.946 7                  23259730.297
        44.000
 114005509.633 8                  21289725.324
        49.500
 21 10 13 12 18  0.0000000  0 25G17G02E19G04G19G06G07G20G09G30G13E09
                                E11E04R05S48S36E12R20R19S23S25R06R18
                                R04
 120964449.502 7  94258020.33045  23018771.242    23018770.889    23018773.234
        44.000          31.000
 121537168.341 7  94704277.76145  23127754.084    23127753.002    23127751.623
        45.000          34.500
 140839413.158 5                  26800847.947
        34.500
 124577245.843 6  97073183.40644  23706262.118    23706261.864    23706263.610
        40.250          27.000
 115699245.187 7  90155249.30346  22016835.422    22016834.211    22016833.744
        46.250          37.000
 106636490.540 8  83093378.34949  20292249.416    20292249.206    20292251.413
        51.000          56.500
 116447818.684 7  90738561.12048  22159282.612    22159282.156    22159282.400
        47.000          48.250
 122657055.889 6  95576927.75044  23340861.635    23340860.518    23340861.537
        41.500          26.750
 110506982.082 8  86109340.71748  21028779.358    21028778.898    21028780.562
        49.250          53.500
 122518124.730 7  95468689.02247  23314422.896    23314422.051    23314426.830
        42.750          42.000
 134043500.411 5 104449520.92843  25507628.761    25507628.113    25507637.656
        34.250          19.000
 122032579.633 7                  23222027.564
        46.250
 114921910.917 7                  21868912.626
        45.500
 124517771.183 8                  23694944.224
        49.250
 107625276.893 8                  20133534.430
        52.250
  30742053.531 7                   5849823.845
        44.000
 195182867.767 7                  37142064.054
        47.000
 120156517.383 7                  22865025.253
        44.250
 107655363.004 6                  20132095.706
        41.250
 106366207.834 7                  19884041.656
        43.250
 204004043.184 7                  38820677.014
        43.500
 191093772.509 8                  36363866.275
        48.000
 125196748.712 5                  23461816.221
        34.250
 124293424.767 7                  23284349.913
        44.000
 114079894.111 8                  21303615.584
        49.000
 21 10 13 12 18 30.0000000  0 25G17G02E19G04G19G06G07G20G09G30G13E09
                                E11E04R05S48S36E12R20R19S23S25R06R18
                                R04
 121059529.221 7  94332108.22445  23036864.577    23036864.206    23036866.765
        43.250          31.250
 121454493.514 7  94639855.83045  23112021.369    23112020.283    23112018.894
        44.750          34.750
 140912268.966 5                  26814711.915
        34.500
 124673679.391 6  97148326.36244  23724613.269    23724613.010    23724614.353
        39.250          27.500
 115786097.644 7  90222926.46246  22033362.939    22033361.728    22033361.331
        45.750          37.500
 106611990.153 8  83074287.12749  20287587.155    20287586.945    20287589.045
        50.750          56.750
 116398640.728 7  90700240.67448  22149924.203    22149923.752    22149923.970
        46.250          48.250
 122591489.256 6  95525836.89544  23328384.917    23328383.817    23328384.302
        41.250          26.750
 110565559.220 8  86154985.22349  21039926.169    21039925.709    21039927.110
        48.750          54.000
 122429083.776 7  95399306.58947  23297478.820    23297477.966    23297482.797
        42.250          42.000
 133936307.705 5 104365994.71341  25487230.856    25487230.172    25487239.156
        33.500          11.250
 121988596.861 7                  23213657.802
        46.250
 114895698.307 7                  21863924.456
        45.250
 124542219.187 8                  23699596.489
        49.000
 107630442.980 8                  20134500.524
        52.250
  30742002.984 7                   5849804.291
        43.750
 195182903.543 7                  37142069.899
        46.750
 120211527.472 7                  22875493.380
        44.250
 107588056.083 6                  20119509.251
        41.000
 106442981.884 7                  19898394.025
        43.250
 204004208.522 7                  38820710.055
        43.250
 191096353.417 8                  36364305.089
        48.000
 125126264.141 5                  23448606.172
        35.250
 124424983.095 7                  23308995.707
        44.000
 114154311.130 8                  21317512.464
        49.500
 21 10 13 12 19  0.0000000  0 25G17G02E19G04G19G06G07G20G09G30G13E09
                                E11E04R05S48S36E12R20R19S23S25R06R18
                                R04
 121154699.891 7  94406266.98745  23054974.927    23054974.588    23054977.404
        42.750          31.000
 121371957.374 7  94575541.96745  23096315.418    23096314.350    23096312.892
        44.750          34.500
 140985097.991 5                  26828570.928
        34.250
 124770184.172 6  97223524.81444  23742977.677    23742977.400    23742978.390
        38.500          25.750
 115873246.360 7  90290834.46946  22049946.831    22049945.615    22049945.215
        46.250          37.250
 106587938.787 8  83055545.79149  20283010.278    20283010.077    20283012.236
        50.750          56.500
 116349812.211 7  90662192.51948  22140632.446    22140631.995    22140632.278
        47.000          48.250
 122525911.691 6  95474737.50244  23315905.900    23315904.800    23315905.036
        41.750          26.250
 110624461.738 8  86200883.26648  21051135.013    21051134.553    21051136.135
        49.000          53.750
 122340128.299 7  95329990.75646  23280550.936    23280550.091    23280554.991
        42.500          41.500
                                  25466848.942
        30.250
 121944855.543 7                  23205334.241
        46.000
 114869822.491 7                  21859000.440
        45.750
 124566881.749 8                  23704289.568
        49.000
 107635918.454 8                  20135525.323
        52.250
  30741944.067 7                   5849785.023
        43.750
 195182939.115 7                  37142076.866
        46.500
 120266844.474 7                  22886020.012
        44.000
 107521406.703 6                  20107044.939
        41.000
 106520420.649 7                  19912870.431
        43.000
 204004371.259 7                  38820739.308
        43.000
 191098947.111 7                  36364744.046
        47.500
 125056021.875 5                  23435444.169
        35.000
 124556678.423 7                  23333668.110
        44.500
 114228757.182 8                  21331415.491
        49.500
 21 10 13 12 19 30.0000000  0 25G17G02E19G04G19G06G07G20G09G30G13E09
                                E11E04R05S48S36E12R20R19S23S25R06R18
                                R04
 121249965.131 7  94480499.45945  23073103.455    23073103.125    23073105.268
        43.250          30.500
 121289568.494 7  94511342.84045  23080637.220    23080636.156    23080634.525
        45.000          34.250
 141057905.550 5                  26842425.597
        34.250
 124866764.380 6  97298782.03744  23761356.199    23761355.931    23761357.331
        39.250          26.750
 115960694.317 7  90358975.65346  22066587.824    22066586.613    22066586.157
        46.500          37.250
 106564344.591 8  83037160.69549  20278520.551    20278520.346    20278522.575
        51.250          56.500
 116301341.643 7  90624423.28648  22131408.793    22131408.342    22131408.689
        47.250          48.500
 122460329.764 7  95423634.71844  23303425.974    23303424.892    23303425.136
        42.000          26.500
 110683693.732 8  86247038.04748  21062406.517    21062406.057    21062407.459
        49.250          53.500
 122251267.529 7  95260748.72347  23263641.439    23263640.599    23263645.398
        43.000          42.000
 133722164.13515 104199113.98352  25446479.155    25446479.062    25446488.983
        34.750          16.250
 121901361.936 7                  23197057.668
        46.250
 114844291.157 7                  21854142.015
        45.750
 124591763.932 8                  23709024.493
        49.000
 107641707.605 8                  20136607.653
        52.250
  30741887.229 7                   5849765.629
        43.750
 195182972.129 7                  37142084.011
        46.500
 120322474.081 7                  22896605.790
        44.000
 107455424.508 6                  20094706.444
        41.250
 106598527.585 7                  19927472.007
        43.250
 204004537.015 7                  38820770.296
        43.250
 191101546.761 7                  36365185.225
        47.750
 124986028.472 6                  23422328.357
        36.250
 124688513.317 7                  23358364.183
        44.250
 114303236.949 8                  21345323.578
        49.250
 21 10 13 12 20  0.0000000  0 25G17G02E19G04G19G06G07G20G09G30G13E09
                                E11E04R05S48S36E12R20R19S23S25R06R18
                                R04
 121345319.185 7  94554801.11145  23091248.958    23091248.623    23091251.068
        42.500          30.250
 121207325.708 7  94447257.56245  23064986.947    23064985.892    23064984.553
        44.500          34.250
 141130687.483 5                  26856275.833
        34.000
 124963414.793 6  97374093.97644  23779748.268    23779748.000    23779749.110
        39.000          26.750
 116048434.847 7  90427344.81646  22083284.010    22083282.776    22083282.677
        46.000          37.000
 106541206.232 8  83019130.79149  20274117.373    20274117.168    20274119.453
        50.750          56.500
 116253228.268 7  90586932.37648  22122253.012    22122252.565    22122253.060
        47.000          48.500
 122394740.179 6  95372525.96044  23290944.739    23290943.639    23290943.732
        41.000          26.250
 110743249.680 8  86293445.26748  21073739.513    21073739.053    21073740.567
        48.750          53.500
 122162501.159 7  95191580.24847  23246749.400    23246748.555    23246753.715
        42.500          42.000
 133615225.513 6 104115785.70743  25426129.189    25426129.113    25426138.065
        36.000          19.250
 121858112.798 7                  23188827.413
        46.250
 114819102.502 7                  21849348.788
        45.750
 124616861.317 8                  23713800.433
        49.000
 107647805.100 8                  20137748.586
        52.000
  30741826.408 7                   5849747.618
        43.750
 195183012.077 7                  37142090.549
        46.500
 120378412.532 7                  22907250.565
        44.000
 107390110.367 6                  20082491.601
        41.000
 106677296.521 7                  19942196.303
        43.500
 204004703.447 7                  38820802.523
        43.000
 191104155.093 7                  36365629.284
        47.750
 124916280.510 5                  23409257.191
        35.250
 124820481.089 7                  23383086.713
        43.500
 114377745.295 8                  21359237.534
        49.250
 21 10 13 12 20 30.0000000  0 26G17G02E19G04G19G06G07G20G09G30G13E09
                                E11E04R05S48S36E12R20R19S23S25R06R18
                                R04G05
 121440756.426 6  94629167.57844  23109410.014    23109409.670    23109412.550
        41.500          29.500
 121125229.544 7  94383286.53445  23049364.827    23049363.777    23049361.647
        44.250          33.500
 141203440.250 5                  26870120.155
        34.000
 125060130.721 6  97449456.95744  23798152.743    23798152.484    23798153.553
        39.250          26.250
 116136462.595 7  90495937.78646  22100035.237    22100034.003    22100033.675
        45.750          36.750
 106518522.931 8  83001455.48149  20269800.938    20269800.737    20269803.037
        50.750          56.250
 116205471.598 7  90549719.42248  22113165.059    22113164.608    22113165.225
        46.750          48.250
 122329140.651 6  95321409.46844  23278461.656    23278460.561    23278461.015
        40.750          26.250
 110803124.766 8  86340101.15348  21085133.459    21085132.999    21085134.570
        48.750          53.000
 122073829.499 7  95122485.57747  23229875.887    23229875.042    23229880.060
        42.750          42.250
 133508353.27116                  25405796.301    25405796.252    25405806.129
        37.250          16.000
 121815105.440 7                  23180643.379
        46.250
 114794255.250 7                  21844620.496
        45.750
 124642170.107 8                  23718616.511
        49.000
 107654206.511 8                  20138946.225
        52.250
  30741756.333 7                   5849725.635
        43.750
 195183042.865 7                  37142096.563
        46.500
 120434656.617 7                  22917953.454
        44.250
 107325464.742 6                  20070403.153
        41.250
 106756721.916 7                  19957043.936
        43.000
 204004867.285 7                  38820835.613
        43.000
 191105166.684 7                  36366073.463
        47.500
 124846775.042 5                  23396230.874
        34.750
 124952575.321 7                  23407833.134
        43.500
 114452277.628 8                  21373155.813
        49.500
 135064028.77215                  25701828.343
        34.000
 21 10 13 12 21  0.0000000  0 25G17G02E19G04G19G06G07G20G09G30G13E09
                                E11E04R05S48S36E12R20R19S23S25R06R18
                                R04
 121536282.076 6  94703602.95844  23127588.168    23127587.833    23127590.160
        41.750          28.750
 121043289.435 7  94319437.10145  23033771.920    23033770.883    23033769.032
        44.750          34.250
 141276171.178 5                  26883960.674
        33.750
 125156918.320 6  97524875.78744  23816570.879    23816570.616    23816571.773
        38.750          26.250
 116224782.232 7  90564758.20046  22116842.115    22116840.886    22116840.483
        46.250          37.000
 106496304.711 8  82984142.57449  20265573.065    20265572.869    20265574.952
        51.000          56.500
 116158082.223 7  90512792.67148  22104147.312    22104146.861    22104147.223
        47.250          48.500
 122263539.505 6  95270291.71444  23265977.790    23265976.673    23265977.394
        40.750          26.250
 110863324.912 8  86387010.34348  21096588.969    21096588.509    21096590.049
        49.000          53.250
 121985263.624 7  95053473.32247  23213022.348    23213021.499    23213026.403
        43.000          42.500
 133401595.686 6 103949342.04142  25385480.953    25385480.743    25385488.914
        37.250          17.000
 121772348.047 7                  23172507.063
        46.250
 114769759.019 7                  21839959.045
        45.500
 124667697.274 8                  23723474.161
        48.750
 107660918.142 8                  20140201.601
        52.000
  30741690.037 7                   5849707.547
        44.000
 195183085.391 7                  37142104.384
        46.750
 120491213.937 7                  22928716.094
        44.000
 107261499.729 6                  20058441.707
        41.250
 106836809.581 7                  19972016.082
        43.250
 204005037.445 7                  38820868.587
        43.500
 191107799.768 7                  36366521.153
        47.500
 124777520.454 5                  23383253.219
        35.500
 125084801.158 7                  23432603.643
        42.750
 114526840.538 8                  21387080.125
        48.750
 21 10 13 12 21 30.0000000  0 25G17G02E19G04G19G06G07G20G09G30G13E09
                                E11E04R05S48S36E12R20R19S23S25R06R18
                                R04
 121631879.628 6  94778094.33944  23145779.686    23145779.347    23145782.782
        41.500          29.250
 120961494.431 7  94255700.75345  23018206.946    23018205.914    23018204.736
        45.000          34.750
 141348865.660 5                  26897793.854
        34.000
 125253761.990 6  97600338.31144  23834999.657    23834999.389    23835000.796
        39.000          26.250
 116313377.027 7  90633793.02246  22133701.265    22133700.031    22133699.668
        46.250          37.000
 106474539.807 8  82967182.89949  20261431.255    20261431.054    20261433.134
        51.000          56.500
 116111048.696 7  90476143.20448  22095197.200    22095196.749    22095197.159
        47.000          49.000
 122197923.541 6  95219162.41144  23253491.678    23253490.561    23253490.871
        41.000          26.500
 110923834.262 8  86434160.46648  21108103.574    21108103.114    21108104.710
        49.000          53.250
 121896792.873 7  94984535.19147  23196186.800    23196185.960    23196190.753
        43.250          42.500
 133294922.138 6 103866220.27743  25365180.633    25365180.575    25365188.562
        37.750          18.250
 121729826.918 7                  23164415.305
        46.250
 114745601.506 7                  21835362.110
        45.250
 124693428.010 8                  23728370.549
        48.750
 107667924.013 8                  20141512.333
        52.000
  30741612.024 7                   5849688.905
        44.000
 195183121.199 7                  37142110.577
        46.750
 120548070.267 7                  22939535.462
        43.750
 107198205.065 6                  20046605.376
        41.250
 106917542.424 7                  19987108.380
        43.500
 204005200.498 7                  38820899.862
        43.500
 191110431.816 8                  36366968.021
        48.000
 124708502.758 5                  23370318.599
        35.000
 125217140.853 7                  23457396.419
        43.500
 114601418.561 8                  21401007.168
        49.000
 21 10 13 12 22  0.0000000  0 25G17G02E19G04G19G06G07G20G09G30G13E09
                                E11E04R05S48S36E12R20R19S23S25R06R18
                                R04
 121727558.144 6  94852648.81645  23163987.483    23163987.144    23163990.027
        41.750          30.000
 120879859.039 7  94192088.76345  23002672.485    23002671.457    23002669.604
        44.750          34.750
 141421534.805 5                  26911622.685
        33.750
 125350671.645 6  97675852.24444  23853440.786    23853440.541    23853442.197
        38.750          26.250
 116402255.563 7  90703048.93346  22150614.427    22150613.189    22150612.860
        46.000          37.000
 106453241.941 8  82950587.14949  20257378.328    20257378.132    20257380.498
        51.000          56.750
 116064385.084 7  90439781.98248  22086317.291    22086316.835    22086317.420
        46.750          49.000
 122132304.794 6  95168030.94044  23241005.017    23241003.886    23241004.151
        40.000          26.750
 110984662.528 8  86481559.09248  21119679.050    21119678.590    21119680.086
        48.750          53.250
 121808432.089 7  94915682.74947  23179372.087    23179371.242    23179375.896
        43.000          42.500
 133188333.55116 103783169.78053  25344898.689    25344898.627    25344910.057
        37.750          18.500
 121687553.930 7                  23156371.017
        46.250
 114721795.983 7                  21830832.024
        45.500
 124719373.016 8                  23733307.712
        49.000
 107675234.273 8                  20142879.820
        52.250
  30741536.037 7                   5849670.701
        44.000
 195183152.970 7                  37142117.303
        46.750
 120605236.949 7                  22950414.049
        43.750
 107135596.237 6                  20034896.452
        41.000
 106998929.778 7                  20002322.655
        43.500
 204005367.932 7                  38820930.573
        43.250
 191113073.805 8                  36367417.191
        48.000
 124639733.748 6                  23357430.463
        36.000
 125349603.144 7                  23482210.957
        42.750
 114676021.747 8                  21414939.043
        49.500
 21 10 13 12 22 30.0000000  0 25G17G02E19G04G19G06G07G20G09G30G13E09
                                E11E04R05S48S36E12R20R19S23S25R06R18
                                R04
 121823309.031 7  94927259.68945  23182208.208    23182207.882    23182210.923
        42.500          30.500
 120798379.594 7  94128598.30345  22987167.171    22987166.134    22987164.740
        44.750          34.750
 141494171.857 5                  26925444.383
        33.500
 125447639.421 6  97751411.47044  23871893.097    23871892.883    23871894.450
        39.250          26.250
 116491408.610 7  90772518.75546  22167579.507    22167578.264    22167578.111
        46.000          37.000
 106432407.049 8  82934352.16149  20253413.572    20253413.371    20253415.904
        51.000          57.000
 116018088.153 7  90403706.49448  22077507.168    22077506.712    22077507.201
        46.750          49.000
 122066677.509 6  95116892.81344  23228516.570    23228515.439    23228516.031
        41.000          27.000
 111045801.535 8  86529199.85248  21131313.229    21131312.764    21131314.466
        48.750          53.500
 121720178.314 7  94846913.68447  23162578.000    23162577.160    23162581.551
        43.000          42.500
 133081851.321 6 103700197.19041  25324634.736    25324634.482    25324643.251
        37.250          10.250
 121645523.162 7                  23148373.031
        46.500
 114698337.948 7                  21826368.110
        45.750
 124745525.232 8                  23738284.369
        49.250
 107682841.170 8                  20144302.666
        52.000
  30741455.542 7                   5849652.421
        43.750
 195183186.778 7                  37142124.801
        46.500
 120662707.480 7                  22961350.270
        44.250
 107073671.003 6                  20023316.966
        41.500
 107080963.045 7                  20017658.539
        43.250
 204005534.727 7                  38820961.718
        43.250
 191115716.560 8                  36367868.431
        48.000
 124571207.478 5                  23344590.021
        35.250
 125482178.361 7                  23507048.043
        44.250
 114750642.839 8                  21428874.017
        49.500
 21 10 13 12 23  0.0000000  0 25G17G02E19G04G19G06G07G20G09G30G13E09
                                E11E04R05S48S36E12R20R19S23S25R06R18
                                R04
 121919129.557 7  95001924.81045  23200442.065    23200441.721    23200445.363
        42.500          30.750
 120717058.571 7  94065231.27245  22971692.108    22971691.071    22971689.080
        45.250          34.250
 141566776.094 5                  26939261.164
        34.250
 125544663.537 6  97827014.60244  23890356.725    23890356.511    23890357.972
        39.500          26.500
 116580833.303 7  90842200.25346  22184596.365    22184595.122    22184594.987
        46.250          36.750
 106412037.152 8  82918479.50349  20249537.441    20249537.245    20249539.656
        51.000          57.000
 115972160.276 7  90367918.56948  22068767.554    22068767.103    22068767.339
        46.750          49.000
 122001042.098 6  95065748.36744  23216026.078    23216024.938    23216025.649
        41.000          26.750
 111107249.301 8  86577081.20948  21143006.532    21143006.067    21143007.665
        48.750          53.250
 121632034.723 7  94778230.47847  23145804.709    23145803.873    23145808.544
        43.500          43.000
 132975464.888 6 103617299.25142  25304391.421    25304391.001    25304397.940
        36.000          15.750
 121603734.761 7                  23140420.849
        46.250
 114675228.918 7                  21821970.537
        45.750
 124771883.641 8                  23743300.224
        49.000
 107690742.544 8                  20145780.920
        52.500
  30741370.943 7                   5849633.502
        43.750
 195183222.634 7                  37142132.734
        46.750
 120720481.443 7                  22972344.221
        43.750
 107012433.074 7                  20011864.965
        42.000
 107163639.183 7                  20033113.782
        43.500
 204005701.186 7                  38820995.532
        43.250
 191118372.545 8                  36368319.729
        48.000
 124502923.937 6                  23331791.355
        36.000
 125614863.336 7                  23531905.373
        44.250
 114825279.815 8                  21442811.833
        49.500
 21 10 13 12 23 30.0000000  0 26G17G02E19G04G19G06G07G20G09G05G30G13
                                E09E11E04R05S48S36E12R20R19S23S25R06
                                R18R04
 122015018.900 7  95076643.55945  23218690.112    23218689.782    23218692.946
        42.000          30.750
 120635900.578 7  94001991.28345  22956248.557    22956247.520    22956245.361
        44.750          34.750
 141639348.782 5                  26953070.866
        33.500
 125641744.172 6  97902661.77944  23908830.556    23908830.346    23908831.765
        39.500          26.250
 116670528.494 7  90912092.52346  22201665.146    22201663.899    22201663.519
        46.000          36.500
 106392136.097 8  82902972.18149  20245750.551    20245750.350    20245752.554
        51.000          56.750
 115926605.455 7  90332421.34148  22060098.345    22060097.894    22060098.468
        46.750          49.000
 121935401.128 6  95014599.57844  23203535.519    23203534.375    23203534.127
        41.250          26.500
 111169005.687 8  86625203.04048  21154758.315    21154757.850    21154759.415
        48.500          53.000
 134640135.38216 104914396.36754  25621163.273    25621163.037    25621166.968
        38.000          24.000
 121544006.376 7  94709637.07347  23129053.543    23129052.703    23129057.210
        43.500          43.250
 132869178.187 5 103534478.77443  25284164.446    25284164.044    25284172.169
        34.500          18.000
 121562190.746 7                  23132515.150
        46.500
 114652472.352 7                  21817640.138
        45.750
 124798449.185 8                  23748355.458
        48.750
 107698938.863 8                  20147314.017
        52.000
  30741281.696 7                   5849613.455
        44.000
 195183257.639 7                  37142139.075
        46.500
 120778560.296 7                  22983396.385
        43.750
 106951887.741 6                  20000542.063
        41.750
 107246957.183 7                  20048689.018
        43.500
 204005868.899 7                  38821027.629
        43.250
 191119431.956 7                  36368772.870
        47.750
 124434885.129 5                  23319041.268
        35.750
 125747656.734 7                  23556782.060
        43.500
 114899933.590 8                  21456752.566
        49.250
 21 10 13 12 24  0.0000000  0 26G17G02E19G04G19G06G07G20G09G05G30G13
                                E09E11E04R05S48S36E12R20R19S23S25R06
                                R18R04
 122110968.550 6  95151409.29846  23236948.791    23236948.465    23236951.569
        41.500          37.000
 120554902.362 7  93938875.80445  22940834.767    22940833.735    22940832.761
        45.250          35.500
 141711883.576 5                  26966873.951
        33.500
 125738873.801 6  97978347.13644  23927313.433    23927313.214    23927314.958
        39.250          26.000
 116760485.103 7  90982188.49846  22218783.144    22218781.897    22218781.968
        45.750          36.500
 106372700.220 8  82887827.33549  20242051.867    20242051.671    20242053.927
        51.250          56.750
 115881420.750 7  90297212.51448  22051500.095    22051499.653    22051500.061
        47.250          49.000
 121869749.309 6  94963442.33344  23191042.257    23191041.126    23191040.592
        41.000          26.250
 111231062.977 8  86673559.34148  21166567.492    21166567.027    21166568.657
        48.750          53.000
 134569410.903 6 104859286.40342  25607708.451    25607708.384    25607707.898
        38.000          17.000
 121456090.713 7  94641131.46847  23112323.342    23112322.497    23112327.135
        43.250          43.000
 132762988.386 6 103451733.81342  25263957.263    25263956.915    25263963.825
        37.000          14.250
 121520885.579 7                  23124655.120
        46.500
 114630064.089 7                  21813376.017
        45.750
 124825215.162 8                  23753448.786
        49.000
 107707422.354 8                  20148901.140
        52.500
  30741186.791 7                   5849595.658
        43.500
 195183293.715 7                  37142145.009
        46.500
 120836937.936 7                  22994505.282
        44.000
 106892032.993 6                  19989349.189
        41.500
 107330908.846 7                  20064383.121
        43.750
 204006031.981 7                  38821061.618
        43.000
 191122098.841 7                  36369226.972
        47.500
 124367085.395 5                  23306334.578
        35.000
 125880549.717 7                  23581677.817
        43.500
 114974596.623 8                  21470695.713
        49.500
 21 10 13 12 24 30.0000000  0 26G17G02E19G04G19G06G07G20G09G05G30G13
                                E09E11E04R05S48S36E12R20R19S23S25R06
                                R18R04
 122206980.698 7  95226223.73746  23255219.516    23255219.195    23255222.002
        42.250          41.500
 120474071.175 7  93875890.47845  22925453.075    22925452.034    22925450.781
        45.250          35.000
 141784384.417 5                  26980670.681
        34.500
 125836055.268 6  98054072.88444  23945806.410    23945806.196    23945807.992
        38.500          25.500
 116850705.148 7  91052489.74346  22235951.649    22235950.402    22235950.454
        46.000          36.250
 106353735.966 8  82873049.98849  20238443.087    20238442.891    20238445.019
        51.250          57.000
 115836613.134 7  90262297.51648  22042973.485    22042973.034    22042973.383
        47.500          49.000
 121804091.710 6  94912280.58644  23178547.966    23178546.844    23178546.141
        41.250          26.500
 111293423.677 8  86722152.06548  21178434.374    21178433.905    21178435.736
        48.750          53.000
 134498665.435 6 104804160.29443  25594244.101    25594244.030    25594245.564
        39.250          20.750
 121368295.430 7  94572719.66847  23095616.282    23095615.437    23095619.915
        43.500          42.750
 132656901.318 6 103369068.95241  25243769.808    25243769.487    25243776.224
        36.750          11.250
 121479823.871 7                  23116841.275
        46.500
 114608010.224 7                  21809179.359
        46.000
 124852185.129 8                  23758581.146
        48.750
 107716195.852 8                  20150542.680
        52.250
  30741090.441 7                   5849578.241
        43.000
 195183329.434 7                  37142151.671
        46.500
 120895618.468 7                  23005671.853
        43.750
 106832876.797 6                  19978286.121
        41.500
 107415495.865 7                  20080195.662
        43.750
 204006196.052 7                  38821092.034
        43.000
 191124770.135 7                  36369684.102
        47.500
 124299529.193 5                  23293676.635
        35.750
 126013543.265 7                  23606592.716
        43.500
 115049271.969 8                  21484640.542
        49.000
 21 10 13 12 25  0.0000000  0 26G17G02E19G04G19G06G07G20G09G05G30G13
                                E09E11E04R05S48S36E12R20R19S23S25R06
                                R18R04
 122303057.634 7  95301088.65146  23273502.140    23273501.810    23273505.076
        42.500          41.000
 120393414.864 7  93813041.42445  22910104.895    22910103.858    22910102.456
        45.000          34.500
 141856855.789 5                  26994461.336
        33.250
 125933292.030 6  98129841.71644  23964309.818    23964309.599    23964311.642
        38.500          24.750
 116941190.818 7  91122997.96045  22253170.517    22253169.274    22253169.349
        45.500          35.750
 106335250.556 8  82858645.76449  20234925.574    20234925.373    20234927.404
        51.000          56.500
 115792190.267 7  90227682.32048  22034520.086    22034519.639    22034520.000
        47.250          48.750
 121738434.016 6  94861118.76544  23166053.733    23166052.611    23166052.566
        41.250          26.500
 111356090.989 8  86770983.71248  21190359.566    21190359.101    21190360.703
        49.000          52.750
 134427904.216 3 104749021.57142  25580778.990    25580778.977    25580779.886
        23.250          12.250
 121280628.913 7  94504408.20047  23078933.988    23078933.143    23078937.414
        42.750          42.500
 132550924.293 6 103286489.95741  25223601.690    25223601.400    25223609.578
        38.000          11.750
 121439010.999 7                  23109074.897
        46.500
 114586317.434 7                  21805051.361
        45.750
 124879363.321 8                  23763752.875
        49.000
 107725263.158 8                  20152238.869
        52.250
  30741000.681 7                   5849558.969
        43.750
 195183367.028 7                  37142159.179
        46.250
 120954606.626 7                  23016896.854
        43.750
 106774428.477 6                  19967357.251
        41.500
 107500720.637 7                  20096127.439
        43.250
 204006366.805 7                  38821123.885
        43.250
 191127448.166 7                  36370142.542
        47.250
 124232221.703 5                  23281063.464
        34.750
 126146639.468 7                  23631527.522
        43.750
 115123963.715 8                  21498588.678
        48.500
 21 10 13 12 25 30.0000000  0 26G17G02E19G04G19G06G07G20G09G05G30G13
                                E09E11E04R05S48S36E12R20R19S23S25R06
                                R18R04
 122399186.909 6  95375994.35846  23291795.189    23291794.863    23291797.791
        41.750          40.250
 120312925.777 7  93750322.65945  22894788.142    22894787.110    22894785.691
        45.250          35.000
 141929287.017 5                  27008244.741
        33.750
 126030572.311 6  98205644.46144  23982821.928    23982821.709    23982823.690
        38.000          24.000
 117031928.653 7  91193702.67945  22270437.105    22270435.867    22270436.256
        45.000          35.500
 106317235.808 8  82844608.29049  20231497.440    20231497.244    20231499.302
        51.000          56.750
 115748144.449 7  90193360.92548  22026138.416    22026137.969    22026138.342
        47.000          48.750
 121672766.311 6  94809949.15344  23153557.351    23153556.247    23153556.724
        41.250          26.750
 111419052.793 8  86820044.83348  21202340.782    21202340.322    21202341.956
        48.500          52.750
                                  25567307.035    25567307.696    25567308.953
        36.000          15.750
 121193084.257 7  94436191.69447  23062274.817    23062273.977    23062278.115
        43.750          43.000
 132445049.702 5 103203990.53742  25203455.248    25203454.886    25203462.137
        33.250          14.750
 121398436.987 7                  23101353.868
        46.750
 114564977.193 7                  21800990.411
        45.750
 124906738.652 8                  23768962.310
        49.000
 107734611.995 8                  20153987.476
        52.250
  30740904.288 7                   5849541.154
        43.500
 195183403.446 7                  37142165.484
        46.500
 121013891.889 7                  23028178.579
        43.750
 106716681.219 6                  19956557.912
        41.750
 107586569.878 7                  20112176.141
        43.000
 204006534.111 7                  38821156.452
        43.250
 191130135.858 7                  36370603.526
        47.250
 124165152.996 6                  23268494.596
        36.250
 126279824.754 7                  23656478.502
        43.750
 115198660.047 8                  21512538.296
        48.750
 21 10 13 12 26  0.0000000  0 26G17G02E19G04G19G06G07G20G09G05G30G13
                                E09E11E04R05S48S36E12R20R19S23S25R06
                                R18R04
 122495365.004 6  95450938.10546  23310097.546    23310097.220    23310100.289
        41.500          40.500
 120232605.684 7  93687735.58245  22879504.168    22879503.140    22879501.367
        44.750          35.000
 142001676.668 5                  27022020.310
        33.250
 126127893.553 6  98281479.12844  24001341.620    24001341.388    24001343.639
        37.750          24.250
 117122914.697 7  91264600.79745  22287751.404    22287750.166    22287750.455
        45.250          35.750
 106299692.816 8  82830938.41749  20228159.021    20228158.829    20228161.204
        51.000          57.000
 115704477.066 7  90159334.41548  22017828.800    22017828.367    22017828.609
        47.250          49.000
 121607088.312 6  94758771.51544  23141059.201    23141058.097    23141058.656
        41.000          27.500
 111482306.243 8  86869333.20548  21214377.634    21214377.174    21214378.625
        48.250          52.750
 134286295.901 4 104638675.91142  25553830.973    25553831.259    25553833.383
        26.750          14.500
 121105663.767 7  94368071.93747  23045638.950    23045638.096    23045642.629
        43.000          43.500
 132339278.566 5 103121571.81542  25183326.384    25183325.857    25183333.512
        35.250          14.000
 121358101.113 7                  23093678.325
        46.750
 114543990.167 7                  21796996.736
        45.750
 124934309.308 8                  23774208.824
        49.000
 107744239.696 8                  20155788.620
        52.000
  30740802.112 7                   5849521.309
        43.750
 195183434.766 7                  37142171.798
        46.500
 121073472.911 7                  23039516.530
        43.750
 106659637.398 6                  19945890.626
        41.000
 107673040.219 7                  20128340.848
        43.250
 204006698.175 7                  38821187.955
        43.000
 191131236.693 7                  36371063.164
        47.500
 124098321.986 5                  23255970.550
        35.500
 126413095.066 7                  23681445.089
        43.250
 115273358.495 8                  21526487.708
        48.750
 21 10 13 12 26 30.0000000  0 26G17G02E19G04G19G06G07G20G09G05G30G13
                                E09E11E04R05S48S36E12R20R19S23S25R06
                                R18R04
 122591595.993 6  95525923.06546  23328409.563    23328409.237    23328412.626
        41.250          40.250
 120152464.147 7  93625287.63245  22864253.536    22864252.504    22864250.621
        45.250          34.750
 142074030.877 5                  27035788.686
        33.750
 126225260.837 6  98357349.65643  24019869.774    24019869.546    24019872.076
        37.250          23.750
 117214152.900 7  91335695.40246  22305113.505    22305112.267    22305112.678
        45.250          36.000
 106282630.259 8  82817642.90849  20224912.227    20224912.031    20224914.350
        51.250          57.000
 115661197.206 7  90125609.87548  22009593.100    22009592.667    22009592.788
        47.250          49.000
 121541407.483 6  94707591.67844  23128561.054    23128559.954    23128560.578
        41.250          28.000
 111545856.069 8  86918852.52848  21226470.668    21226470.208    21226471.730
        48.250          52.500
                                  25540351.696
        26.750
 121018377.391 7  94300056.68647  23029028.973    23029028.128    23029032.594
        43.250          43.500
 132233619.789 5 103039240.58742  25163220.029    25163219.511    25163226.450
        34.000          15.500
 121318010.232 7                  23086049.208
        46.750
 114523364.616 7                  21793071.812
        45.750
 124962081.078 8                  23779493.686
        48.750
 107754151.451 8                  20157642.878
        52.250
  30740701.790 7                   5849504.482
        43.500
 195183468.848 7                  37142179.199
        46.250
 121133356.030 7                  23050912.003
        43.750
 106603307.530 6                  19935356.136
        41.500
 107760135.480 7                  20144622.645
        43.000
 204006865.863 7                  38821218.134
        43.000
 191133937.072 7                  36371525.740
        47.500
 124031735.571 6                  23243491.224
        36.500
 126546453.913 7                  23706428.635
        44.000
 115348064.864 8                  21540438.552
        48.500
 21 10 13 12 27  0.0000000  0 26G17G02E19G04G19G06G07G20G09G05G30G13
                                E09E11E04R05S48S36E12R20R19S23S25R06
                                R18R04
 122687876.258 6  95600946.41746  23346731.186    23346730.847    23346734.549
        41.500          40.500
 120072502.714 7  93562980.03445  22849037.511    22849036.479    22849034.750
        45.000          35.250
 142146348.140 5                  27049550.378
        34.000
 126322671.575 6  98433254.04643  24038406.660    24038406.410    24038408.682
        37.000          23.500
 117305639.563 7  91406983.61146  22322523.107    22322521.878    22322522.123
        45.000          36.000
 106266049.137 8  82804722.54049  20221756.848    20221756.661    20221758.785
        51.000          56.750
 115618306.990 7  90092188.95248  22001431.158    22001430.725    22001431.201
        47.000          49.250
 121475723.487 6  94656409.37244  23116061.829    23116060.716    23116061.177
        41.750          28.750
 111609699.374 8  86968600.53748  21238619.874    21238619.414    21238620.815
        48.250          52.500
 134144602.55315 104528266.53153  25526870.608    25526870.309    25526871.359
        35.750          18.750
 120931227.421 7  94232147.72447  23012444.555    23012443.706    23012448.388
        43.250          43.500
 132128074.579 5 102956998.01942  25143135.170    25143134.670    25143141.670
        35.250          15.500
 121278163.530 7                  23078466.612
        46.750
 114503101.119 7                  21789215.833
        45.500
 124990052.034 8                  23784816.318
        48.750
 107764344.650 8                  20159549.576
        52.250
  30740603.844 7                   5849486.886
        43.750
 195183512.905 7                  37142186.268
        46.500
 121193539.852 7                  23062364.627
        43.750
 106547694.277 6                  19924955.993
        41.500
 107847851.625 7                  20161020.409
        43.000
 204007035.374 7                  38821250.638
        43.250
 191136652.589 7                  36371990.091
        47.750
 123965392.658 5                  23231059.054
        35.250
 126679897.470 7                  23731426.878
        43.500
 115422776.798 8                  21554389.750
        48.500
 21 10 13 12 27 30.0000000  0 26G17G02E19G04G19G06G07G20G09G05G30G13
                                E09E11E04R05S48S36E12R20R19S23S25R06
                                R18R04
 122784200.118 6  95676003.73746  23365061.378    23365061.048    23365064.821
        40.500          39.750
 119992720.387 7  93500811.99345  22833855.168    22833854.140    22833852.585
        45.500          35.500
 142218624.379 5                  27063303.906
        33.750
 126420120.582 6  98509188.27943  24056950.734    24056950.466    24056952.514
        37.000          23.000
 117397367.739 7  91478460.00646  22339978.526    22339977.292    22339977.508
        45.000          36.000
 106249947.786 8  82792176.01949  20218692.990    20218692.798    20218694.793
        51.250          57.000
 115575804.474 7  90059070.13948  21993343.306    21993342.886    21993343.283
        47.250          49.750
 121410033.171 7  94605222.12944  23103561.349    23103560.236    23103560.975
        42.500          29.250
 111673830.615 8  87018572.91648  21250823.577    21250823.117    21250824.544
        48.250          52.500
 134073729.91616 104473039.58453  25513382.551    25513382.238    25513383.581
        36.500          22.250
 120844213.481 7  94164344.76347  22995886.889    22995886.035    22995889.890
        43.250          44.000
 132022641.654 6 102874842.83242  25123071.518    25123070.982    25123078.689
        36.750          17.750
 121238557.574 7                  23070929.821
        47.000
 114483197.636 7                  21785428.272
        46.000
 125018217.724 8                  23790176.058
        49.000
 107774813.761 8                  20161508.202
        51.750
  30740503.002 7                   5849470.408
        44.000
 195183547.416 7                  37142193.097
        46.750
 121254020.344 7                  23073873.813
        43.750
 106492797.333 6                  19914690.202
        41.750
 107936182.266 7                  20177532.986
        42.750
 204007204.544 7                  38821283.191
        43.500
 191139377.151 7                  36372455.734
        47.750
 123899289.951 5                  23218671.619
        35.500
 126813418.440 7                  23756441.144
        44.000
 115497489.216 8                  21568342.258
        48.000
 21 10 13 12 28  0.0000000  0 26G17G02E19G04G19G06G07G20G09G05G30G13
                                E09E11E04R05S48S36E12R20R19S23S25R06
                                R18R04
 122880561.122 6  95751089.99246  23383398.482    23383398.152    23383402.020
        40.500          39.500
 119913116.670 7  93438783.13345  22818707.098    22818706.057    22818704.449
        45.500          35.000
 142290855.598 5                  27077049.036
        33.500
 126517602.769 6  98585148.34243  24075501.303    24075501.044    24075502.414
        37.250          23.000
 117489331.136 7  91550119.69145  22357478.500    22357477.271    22357477.597
        45.250          35.250
 106234324.752 8  82780002.21449  20215720.044    20215719.857    20215721.804
        51.500          56.750
 115533688.737 7  90026252.71048  21985328.888    21985328.468    21985328.682
        47.250          49.250
 121344333.849 7  94554027.86844  23091058.983    23091057.866    23091058.940
        42.250          28.750
 111738244.392 8  87068765.44848  21263081.193    21263080.737    21263082.393
        48.250          52.500
 134002822.688 4 104417787.21341  25499888.409    25499888.449    25499889.776
        29.250          11.250
 120757335.380 7  94096647.64247  22979354.534    22979353.685    22979357.536
        44.000          43.750
 131917319.691 5 102792773.99042  25103028.891    25103028.368    25103036.063
        32.000          15.250
 121199189.087 7                  23063438.277
        47.000
 114463652.243 7                  21781709.039
        45.500
 125046573.764 8                  23795572.138
        49.000
 107785553.648 8                  20163517.488
        52.250
  30740398.315 7                   5849451.024
        44.000
 195183579.310 7                  37142199.589
        46.500
 121314793.637 7                  23085438.613
        43.500
 106438616.733 6                  19904557.508
        41.500
 108025121.168 7                  20194159.246
        43.250
 204007370.391 7                  38821315.092
        43.250
 191142101.266 7                  36372921.847
        47.500
 123833423.643 6                  23206328.487
        36.000
 126947010.658 7                  23781467.740
        44.500
 115572197.608 8                  21582293.889
        48.500
 21 10 13 12 28 30.0000000  0 26G17G02E19G04G19G06G07G20G09G05G30G13
                                E09E11E04R05S48S36E12R20R19S23S25R06
                                R18R04
 122976960.733 6  95826206.33246  23401743.110    23401742.775    23401746.019
        40.500          39.500
 119833698.121 7  93376898.54645  22803594.555    22803593.518    22803591.300
        44.750          35.250
 142363045.109 5                  27090786.640
        33.000
 126615120.433 6  98661136.03444  24094058.354    24094058.091    24094060.041
        37.500          24.250
 117581530.353 7  91621963.13046  22375023.714    22375022.485    22375022.714
        45.750          36.000
 106219185.740 8  82768205.57149  20212838.953    20212838.766    20212840.934
        51.250          57.250
 115491966.478 7  89993741.88848  21977389.369    21977388.945    21977389.254
        47.000          49.750
 121278629.643 6  94502829.80144  23078555.834    23078554.712    23078555.755
        41.750          28.750
 111802942.586 8  87119179.60348  21275392.805    21275392.354    21275393.950
        48.500          52.750
 133931891.501 6 104362516.10544  25486391.263    25486391.549    25486392.434
        36.000          25.250
 120670600.245 7  94029061.92247  22962848.715    22962847.870    22962852.491
        43.500          44.500
 131812114.629 5 102710796.26642  25083006.522    25083006.084    25083015.433
        31.250          12.500
 121160062.018 7                  23055992.547
        46.750
 114444470.325 7                  21778058.806
        45.750
 125075123.061 8                  23801004.782
        49.000
 107796566.431 8                  20165577.341
        52.250
  30740293.876 7                   5849433.902
        44.000
 195183616.017 7                  37142206.561
        46.750
 121375863.134 7                  23097059.708
        43.500
 106385159.952 6                  19894561.756
        41.750
 108114668.747 7                  20210898.850
        43.250
 204007536.502 7                  38821346.456
        43.500
 191144822.971 7                  36373388.975
        47.500
 123767797.701 6                  23194029.584
        37.000
 127080674.327 7                  23806508.485
        43.000
 115646904.528 8                  21596244.890
        49.000
 21 10 13 12 29  0.0000000  0 26G17G02E19G04G19G06G07G20G09G05G30G13
                                E09E11E04R05S48S36E12R20R19S23S25R06
                                R18R04
 123073401.261 6  95901354.55746  23420094.761    23420094.408    23420097.979
        40.250          38.500
 119754471.679 7  93315163.67446  22788518.124    22788517.087    22788515.783
        45.500          36.000
 142435196.971 5                  27104516.176
        33.750
 126712676.489 6  98737153.66244  24112622.504    24112622.254    24112624.345
        37.750          24.250
 117673967.186 7  91693991.72446  22392613.951    22392612.722    22392612.839
        45.250          36.000
 106204537.196 8  82756791.11149  20210051.637    20210051.454    20210053.418
        51.250          57.000
 115450644.408 7  89961542.90248  21969525.747    21969525.318    21969525.825
        47.000          49.500
 121212926.122 6  94451632.26644  23066052.844    23066051.713    23066052.441
        40.750          27.250
 111867927.780 8  87169817.39548  21287759.160    21287758.713    21287760.106
        48.000          52.500
 133860940.62516 104307231.63452  25472889.288    25472888.564    25472891.300
        36.000          16.500
 120584015.830 7  93961593.65147  22946372.168    22946371.332    22946376.208
        43.750          44.500
 131707033.372 5 102628915.16042  25063011.222    25063010.784    25063019.387
        33.750          16.000
 121121181.053 7                  23048593.653
        47.000
 114425657.997 7                  21774478.983
        45.750
 125103869.239 8                  23806474.988
        48.750
 107807855.223 8                  20167689.485
        52.250
  30740193.529 7                   5849417.728
        44.000
 195183653.424 7                  37142214.498
        46.750
 121437232.886 7                  23108738.047
        43.750
 106332434.779 6                  19884701.930
        41.500
 108204826.723 7                  20227752.925
        42.750
 204007708.775 7                  38821379.711
        43.500
 191145962.811 7                  36373859.819
        47.750
 123702416.877 6                  23181777.565
        36.500
 127214411.276 7                  23831562.044
        43.000
 115721613.339 8                  21610195.981
        48.250
 21 10 13 12 29 30.0000000  0 26G17G02E19G04G19G06G07G20G09G05G30G13
                                E09E11E04R05S48S36E12R20R19S23S25R06
                                R18R04
 123169870.733 6  95976525.34046  23438452.660    23438452.294    23438455.751
        40.250          38.500
 119675431.265 7  93253573.75045  22773477.142    22773476.105    22773474.577
        45.250          35.750
 142507301.738 5                  27118237.774
        34.250
 126810260.494 6  98813193.06444  24131192.222    24131191.977    24131194.027
        38.250          24.000
 117766629.716 7  91766196.19145  22410247.268    22410246.034    22410246.025
        46.000          35.750
 106190372.186 8  82745753.43249  20207356.115    20207355.928    20207358.000
        51.250          56.750
 115409716.049 7  89929650.70148  21961737.432    21961737.003    21961737.515
        47.250          49.250
 121147214.591 6  94400428.47944  23053547.622    23053546.496    23053547.339
        41.000          26.250
 111933189.213 8  87220670.44148  21300177.902    21300177.455    21300179.175
        48.250          52.250
 133789961.332 4 104251923.19642  25459382.459    25459381.842    25459384.106
        28.250          14.500
 120497576.531 7  93894238.45147  22929923.414    22929922.574    22929927.214
        44.000          44.500
 131602068.960 5 102547124.93443  25043038.226    25043037.811    25043045.526
        35.500          18.000
 121082537.457 7                  23041240.176
        46.750
 114407207.812 7                  21770968.078
        45.500
 125132802.559 8                  23811980.920
        48.750
 107819409.221 8                  20169850.880
        52.000
  30740090.336 7                   5849400.530
        44.250
 195183691.372 7                  37142221.585
        46.750
 121498893.623 7                  23120471.755
        43.500
 106280435.939 6                  19874977.896
        41.500
 108295583.497 7                  20244719.165
        42.750
 204007878.355 7                  38821411.295
        43.250
 191148707.184 7                  36374331.902
        47.500
 123637272.025 6                  23169569.210
        36.000
 127348209.124 7                  23856626.443
        42.000
 115796313.635 8                  21624145.947
        48.250
 21 10 13 12 30  0.0000000  0 27G17G02E19G04G19G06G07G20G09G05G30G13
                                E09E11E04R05S48S36E12R20R19S23S25R14
                                R06R18R04
 123266365.826 6  96051716.07746  23456815.468    23456815.097    23456817.986
        40.250          37.500
 119596578.372 7  93192129.95045  22758472.043    22758471.002    22758469.042
        45.000          35.500
 142579357.996 5                  27131949.653
        34.250
 126907869.878 6  98889252.25144  24149766.688    24149766.443    24149768.740
        38.750          25.250
 117859513.871 7  91838573.34845  22427922.593    22427921.359    22427921.401
        45.250          35.500
 106176691.502 8  82735093.14849  20204752.842    20204752.664    20204754.720
        51.000          56.500
 115369182.578 7  89898066.20648  21954024.085    21954023.652    21954024.297
        46.750          49.000
 121081494.959 6  94349218.38744  23041041.774    23041040.648    23041040.939
        40.500          25.750
 111998723.856 7  87271736.37948  21312648.804    21312648.353    21312649.918
        47.750          52.000
 133718953.031 5 104196591.13552  25445869.987    25445869.491    25445871.087
        30.500          13.750
 120411284.521 7  93826998.02247  22913502.646    22913501.801    22913506.245
        43.500          44.500
 131497222.566 5 102465426.76643  25023085.663    25023085.248    25023093.607
        33.750          18.000
 121044130.315 7                  23033931.407
        46.750
 114389120.245 7                  21767526.014
        45.750
 125161920.992 8                  23817521.870
        49.000
 107831225.657 8                  20172061.527
        52.000
  30739984.749 7                   5849382.031
        43.500
 195183729.335 7                  37142228.476
        46.500
 121560843.774 7                  23132260.486
        43.500
 106229165.336 6                  19865389.693
        41.750
 108386934.557 7                  20261796.214
        43.000
 204008044.734 7                  38821443.580
        43.250
 191151454.460 7                  36374805.603
        47.250
 123745670.72315                  23214372.683
        30.000
 123572362.120 6                  23157405.987
        36.750
 127482064.221 7                  23881703.341
        43.500
 115871003.331 8                  21638093.939
        48.250
 21 10 13 12 30 30.0000000  0 28G17G02E19G04G19G06G07G20G09G05G30G13
                                E09E11E04R05S48S36E12R20R19S23S25R14
                                R06R18R04R21
 123362889.367 6  96126928.98946  23475183.060    23475182.680    23475186.607
        40.250          38.500
 119517921.223 7  93130838.67646  22743504.028    22743502.987    22743501.274
        46.250          36.500
 142651370.290 5                  27145653.215
        35.250
 127005508.247 6  98965334.01544  24168346.831    24168346.590    24168348.435
        39.250          25.750
 117952621.959 7  91911124.99845  22445640.261    22445639.041    22445639.293
        45.250          35.250
 106163502.146 8  82724815.71649  20202242.845    20202242.662    20202244.875
        51.250          57.000
 115329051.433 7  89866795.21348  21946387.412    21946386.988    21946387.419
        47.250          49.250
 121015772.627 6  94298006.19144  23028535.792    23028534.670    23028534.039
        41.000          26.500
 112064534.946 8  87323017.72748  21325172.160    21325171.709    21325173.394
        48.000          52.500
 133647921.097 5 104141241.48542  25432352.537    25432352.144    25432354.588
        32.750          17.250
 120325148.247 7  93759878.94547  22897111.371    22897110.540    22897114.775
        44.250          44.750
 131392501.776 5 102383826.32942  25003157.811    25003157.373    25003165.584
        30.000          14.500
 121005964.888 7                  23026668.853
        47.000
 114371402.021 7                  21764154.286
        45.750
 125191228.824 8                  23823099.081
        49.000
 107843307.768 8                  20174321.402
        52.250
  30739881.753 7                   5849364.109
        44.000
 195183765.395 7                  37142234.620
        46.750
 121623088.046 7                  23144105.303
        43.500
 106178631.747 7                  19855940.006
        42.000
 108478882.259 7                  20278985.143
        43.000
 204008212.595 7                  38821474.206
        43.500
 191154211.596 7                  36375279.399
        47.500
 123699338.627 5                  23205683.007
        31.000
 123507692.219 5                  23145286.770
        35.750
 127615977.991 7                  23906790.129
        42.750
 115945686.358 8                  21652040.352
        48.000
 130575847.568 5                  24401218.708
        35.000
 21 10 13 12 31  0.0000000  0 28G17G02E19G04G19G06G07G20G09G05G30G13
                                E09E11E04R05S48S36E12R20R19S23S25R14
                                R06R18R04R21
 123459437.046 6  96202160.70346  23493555.613    23493555.233    23493559.104
        40.250          37.750
 119439460.605 7  93069700.54646  22728573.267    22728572.230    22728570.727
        46.250          36.750
 142723336.419 5                  27159347.868
        34.500
 127103172.235 6  99041435.73444  24186931.821    24186931.589    24186933.800
        38.750          25.750
 118045949.422 7  91983847.58345  22463400.040    22463398.802    22463399.112
        45.000          35.250
 106150804.157 8  82714921.16849  20199826.559    20199826.381    20199828.504
        51.250          57.000
 115289323.271 7  89835838.22848  21938827.469    21938827.049    21938827.283
        47.000          49.250
 120950046.933 7  94246791.38344  23016028.247    23016027.147    23016027.121
        42.250          28.000
 112130618.728 8  87374511.56248  21337747.552    21337747.105    21337748.612
        48.250          52.500
 133576863.411 5 104085871.91643  25418831.176    25418830.792    25418833.389
        34.750          20.000
 120239169.173 7  93692882.35647  22880749.796    22880748.960    22880753.372
        44.250          45.000
 131287906.510 6 102302323.83143  24983254.567    24983254.161    24983261.676
        39.250          18.000
 120968039.474 7                  23019451.846
        46.750
 114354052.744 7                  21760852.964
        45.500
 125220723.327 8                  23828711.620
        48.500
 107855652.727 8                  20176630.754
        52.000
  30739778.443 7                   5849345.967
        44.000
 195183799.346 7                  37142240.509
        46.500
 121685624.123 7                  23156005.522
        43.250
 106128836.650 7                  19846628.099
        42.000
 108571421.474 7                  20296284.293
        42.500
 204008381.531 7                  38821507.850
        43.250
 191156969.784 7                  36375756.507
        47.250
 123653503.011 5                  23197084.312
        31.000
 123443260.634 6                  23133212.782
        36.000
 127749945.594 7                  23931886.678
        42.500
 116020359.959 8                  21665985.073
        48.250
 130448556.322 5                  24377430.387
        35.250
 21 10 13 12 31 30.0000000  0 28G17G02E19G04G19G06G07G20G09G05G30G13
                                E09E11E04R05S48S36E12R20R19S23S25R14
                                R06R18R04R21
 123556008.103 6  96277410.61746  23511932.978    23511932.598    23511936.807
        41.000          39.250
 119361200.723 7  93008718.82546  22713681.020    22713679.988    22713678.167
        46.000          36.250
 142795257.496 5                  27173034.329
        33.000
 127200861.878 6  99117557.45844  24205521.793    24205521.565    24205523.618
        39.500          26.750
 118139494.667 7  92056739.86745  22481201.041    22481199.807    22481200.386
        44.750          35.000
 106138600.952 8  82705412.16549  20197504.344    20197504.166    20197506.471
        51.000          57.000
 115250002.249 7  89805198.49548  21931344.801    21931344.386    21931344.617
        46.750          49.250
 120884319.810 7  94195575.45444  23003520.935    23003519.831    23003520.185
        42.250          29.250
 112196974.852 7  87426217.61948  21350374.590    21350374.143    21350375.678
        47.750          52.250
 133505781.378 6 104030483.30243  25405304.762    25405304.396    25405306.432
        37.250          21.500
 120153352.108 7  93626012.01847  22864419.355    22864418.528    22864422.970
        43.500          44.750
 131183440.716 5 102220922.17343  24963374.898    24963374.505    24963383.002
        33.750          20.250
 120930355.761 7                  23012280.913
        46.750
 114337075.469 7                  21757622.288
        45.500
 125250405.158 8                  23834359.872
        48.500
 107868259.840 8                  20178989.479
        52.250
  30739680.495 7                   5849331.050
        44.000
 195183837.187 7                  37142248.455
        46.500
 121748453.074 7                  23167961.533
        43.250
 106079784.512 6                  19837454.346
        41.500
 108664551.248 7                  20313694.346
        42.750
 204008552.796 7                  38821540.837
        43.250
 191159747.582 7                  36376233.795
        47.750
 123608168.641 5                  23188578.344
        32.750
 123379068.674 5                  23121181.053
        35.500
 127883965.461 7                  23956993.754
        43.250
 116095024.228 8                  21679928.215
        48.250
 130321400.752 5                  24353669.468
        35.750
 21 10 13 12 32  0.0000000  0 28G17G02E19G04G19G06G07G20G09G05G30G13
                                E09E11E04R05S48S36E12R20R19S23S25R14
                                R06R18R04R21
 123652593.179 6  96352671.48546  23530312.946    23530312.566    23530315.404
        40.500          37.750
 119283137.702 7  92947890.49546  22698826.317    22698825.280    22698822.891
        45.750          36.250
 142867126.608 5                  27186710.155
        33.250
 127298569.218 6  99193692.94244  24224114.564    24224114.341    24224116.812
        39.250          26.250
 118233248.113 7  92129794.38045  22499041.906    22499040.686    22499041.369
        44.250          35.000
 106126887.858 8  82696285.06549  20195275.527    20195275.353    20195277.626
        51.250          57.250
 115211083.768 7  89774872.43248  21923938.839    21923938.428    21923938.667
        47.000          49.750
 120818585.578 7  94144353.99444  22991012.458    22991011.350    22991012.211
        42.000          29.750
 112263594.861 7  87478129.29248  21363051.985    21363051.538    21363053.372
        47.750          52.250
 133434668.501 5 103975070.66042  25391773.519    25391773.139    25391773.996
        33.750          14.250
 120067693.800 7  93559265.38847  22848118.908    22848118.072    22848122.739
        43.750          45.000
 131079100.074 6 102139617.96543  24943519.083    24943518.717    24943526.525
        37.250          21.000
 120892907.301 7                  23005154.633
        46.750
 114320465.149 7                  21754461.467
        45.500
 125280266.913 8                  23840042.439
        48.500
 107881121.115 8                  20181395.260
        52.000
  30739580.596 7                   5849313.928
        44.000
 195183874.494 7                  37142255.002
        46.750
 121811567.920 7                  23179971.669
        43.250
 106031472.399 6                  19828420.455
        41.750
 108758261.272 7                  20331212.495
        42.750
 204008720.876 7                  38821573.923
        43.500
 191160929.638 7                  36376712.317
        47.750
 123563333.034 5                  23180167.476
        34.750
 123315109.895 6                  23109197.255
        36.000
 128018027.879 7                  23982108.491
        44.000
 116169671.785 8                  21693867.696
        48.250
 130194378.733 6                  24329932.856
        37.750
 21 10 13 12 32 30.0000000  0 28G17G02E19G04G19G06G07G20G09G05G30G13
                                E09E11E04R05S48S36E12R20R19S23S25R14
                                R06R18R04R21
 123749191.101 6  96427942.32846  23548694.832    23548694.457    23548698.758
        40.500          38.250
 119205276.138 7  92887219.15145  22684009.699    22684008.662    22684006.546
        45.500          35.750
 142938944.564 5                  27200377.223
        35.000
 127396294.139 6  99269842.16144  24242711.149    24242710.917    24242712.927
        40.000          25.750
 118327208.308 7  92203010.00445  22516921.998    22516920.782    22516921.393
        44.500          34.250
 106115668.070 8  82687542.35849  20193140.374    20193140.200    20193142.489
        51.000          57.000
 115172571.589 7  89744862.96648  21916610.211    21916609.791    21916610.281
        47.000          49.750
 120752846.437 7  94093128.72645  22978502.632    22978501.519    22978502.364
        42.250          30.000
 112330478.301 8  87530246.23648  21375779.712    21375779.261    21375780.844
        48.250          52.250
 133363527.069 5 103919635.74043  25378234.202    25378233.822    25378236.351
        34.000          18.750
 119982198.942 7  93492646.12247  22831849.826    22831848.986    22831853.487
        43.750          44.750
 130974888.010 6 102058414.01343  24923687.894    24923687.519    24923695.429
        38.000          20.250
 120855695.658 7                  22998073.584
        46.750
 114304224.707 7                  21751370.996
        45.750
 125310309.104 8                  23845759.246
        49.000
 107894235.948 8                  20183848.458
        52.000
  30739481.389 7                   5849296.999
        43.750
 195183905.122 7                  37142261.870
        46.250
 121874969.538 7                  23192036.864
        43.750
 105983904.665 7                  19819525.171
        42.000
 108852550.326 7                  20348838.383
        42.500
 204008887.441 7                  38821603.668
        43.000
 191163716.030 7                  36377191.281
        47.250
 123519001.176 5                  23171850.773
        35.000
 123251385.505 6                  23097253.796
        36.750
 128152131.310 7                  24007230.386
        42.250
 116244302.932 8                  21707804.679
        48.750
 130067495.692 6                  24306221.682
        41.500
 21 10 13 12 33  0.0000000  0 28G17G02E19G04G19G06G07G20G09G05G30G13
                                E09E11E04R05S48S36E12R20R19S23S25R14
                                R06R18R04R21
 123845802.999 6  96503224.09046  23567079.731    23567079.356    23567083.454
        40.750          38.750
 119127621.687 7  92826709.18945  22669232.333    22669231.296    22669229.041
        45.750          35.500
 143010714.410 5                  27214034.206
        34.750
 127494038.582 6  99346006.59244  24261311.131    24261310.908    24261312.967
        39.500          25.750
 118421375.839 7  92276387.18545  22534841.700    22534840.471    22534841.014
        44.750          34.000
 106104946.759 8  82679188.07249  20191100.197    20191100.023    20191102.209
        51.250          56.750
 115134471.414 7  89715174.53848  21909360.147    21909359.718    21909359.979
        47.250          49.500
 120687106.422 7  94041902.76744  22965992.462    22965991.349    22965992.491
        42.500          29.750
 112397626.608 7  87582569.57848  21388557.415    21388556.964    21388558.434
        47.750          51.750
 133292360.022 5 103864180.89542  25364692.041    25364691.724    25364693.935
        35.750          16.000
 119896874.198 7  93426159.40147  22815612.763    22815611.927    22815616.529
        44.000          44.500
 130870810.332 6 101977314.74543  24903883.009    24903882.620    24903889.799
        37.250          18.750
 120818724.324 7                  22991038.175
        47.000
 114288358.978 7                  21748351.896
        45.500
 125340534.226 8                  23851510.989
        48.750
 107907606.517 8                  20186350.036
        52.500
  30739381.806 7                   5849278.741
        44.000
 195183942.812 7                  37142267.952
        46.750
 121938660.842 7                  23204157.097
        43.500
 105937088.264 7                  19810770.301
        42.000
 108947418.667 7                  20366573.244
        42.500
 204009055.970 7                  38821636.539
        43.250
 191166517.134 7                  36377673.671
        47.750
 123475180.142 5                  23163629.004
        35.500
 123187898.819 5                  23085355.969
        35.500
 128286275.842 7                  24032360.479
        43.000
 116318919.597 8                  21721738.969
        48.250
 129940759.467 6                  24282537.876
        41.750
 21 10 13 12 33 30.0000000  0 29G17G02E19G04G19G06G07G20G09G05G30G13
                                E09E11E04R05S48S36E12R20R19S23S25R14
                                R06R15R18R04R21
 123942425.495 6  96578514.06446  23585466.407    23585466.054    23585470.985
        40.750          39.000
 119050175.915 7  92766361.83245  22654494.682    22654493.650    22654491.838
        45.750          35.750
 143082434.464 5                  27227682.180
        33.250
 127591799.725 6  99422184.01444  24279914.985    24279914.771    24279916.509
        39.500          25.500
 118515746.392 7  92349922.56245  22552799.744    22552798.510    22552799.144
        44.750          34.250
 106094724.378 8  82671222.56849  20189154.929    20189154.755    20189156.986
        51.000          56.750
 115096784.282 7  89685807.96848  21902188.286    21902187.853    21902188.207
        47.000          49.500
 120621364.713 7  93990675.48644  22953482.179    22953481.071    22953482.626
        42.250          29.500
 112465036.556 7  87635096.78648  21401385.305    21401384.854    21401386.299
        47.750          52.000
 133221166.646 6 103808705.56843  25351144.518    25351144.228    25351146.609
        36.000          19.500
 119811721.479 7  93359806.72047  22799408.831    22799407.995    22799412.201
        44.000          44.750
 130766867.817 6 101896320.79243  24884102.691    24884102.285    24884110.484
        37.000          20.000
 120781992.024 7                  22984048.259
        47.000
 114272868.088 7                  21745404.050
        45.500
 125370940.030 8                  23857297.018
        48.750
 107921229.841 8                  20188898.175
        52.250
  30739288.142 7                   5849263.216
        43.750
 195183981.799 7                  37142275.598
        46.500
 122002639.953 7                  23216331.865
        43.250
 105891024.794 7                  19802155.906
        42.000
 109042861.384 7                  20384415.168
        42.750
 204009226.328 7                  38821668.073
        43.250
 191169313.612 7                  36378157.898
        47.500
 123431872.520 5                  23155505.881
        34.750
 123124648.468 5                  23073502.556
        35.750
 125895197.01216                  23559567.876
        41.250
 128420457.165 6                  24057496.619
        41.250
 116393519.675 8                  21735670.133
        48.000
 129814173.025 7                  24258882.365
        42.000
 21 10 13 12 34  0.0000000  0 29G17G02E19G04G19G06G07G20G09G05G30G13
                                E09E11E04R05S48S36E12R20R19S23S25R14
                                R06R15R18R04R21
 124039055.849 6  96653810.20346  23603854.696    23603854.325    23603858.999
        40.250          38.500
 118972941.990 7  92706179.55946  22639797.569    22639796.532    22639795.175
        45.750          36.250
 143154104.555 5                  27241320.387
        33.250
 127689576.384 6  99498373.54144  24298521.137    24298520.918    24298522.787
        39.500          25.250
 118610317.003 7  92423613.82145  22570796.203    22570794.969    22570795.408
        44.750          34.500
 106085003.048 8  82663647.49049  20187305.044    20187304.870    20187307.018
        51.000          56.750
 115059512.959 7  89656765.39748  21895095.947    21895095.518    21895095.852
        47.000          49.500
 120555622.300 7  93939447.65744  22940971.874    22940970.774    22940971.088
        42.750          28.250
 112532706.593 7  87687826.66648  21414262.472    21414262.021    21414263.534
        47.750          51.750
 133149947.616 6 103753210.21042  25337592.476    25337592.231    25337593.344
        36.250          17.750
 119726744.475 7  93293590.97347  22783238.125    22783237.289    22783241.472
        44.250          44.750
 130663062.799 6 101815433.96543  24864350.245    24864349.834    24864356.698
        39.250          22.000
 120745499.232 7                  22977103.722
        47.000
 114257753.776 7                  21742527.946
        45.500
 125401526.021 8                  23863117.263
        48.500
 107935104.334 8                  20191493.936
        52.000
  30739197.277 7                   5849246.000
        44.000
 195184020.775 7                  37142282.587
        46.500
 122066906.703 7                  23228561.389
        43.250
 105845717.589 7                  19793683.163
        42.000
 109138875.917 7                  20402363.589
        42.500
 204009399.029 7                  38821702.147
        43.250
 191172126.077 7                  36378643.168
        47.500
 123389082.050 5                  23147477.085
        33.750
 123061635.015 5                  23061694.388
        34.750
 125801082.273 6                  23541955.802
        40.000
 128554672.580 6                  24082639.237
        41.750
 116468102.506 7                  21749597.664
        47.750
 129687741.089 6                  24235255.156
        41.750
 21 10 13 12 34 30.0000000  0 30G17G02E19G04G19G06G07G20G09G05G30G13
                                E09E11E04R05S48S36E12R20R19S23S25R14
                                R06E05R15R18R04R21
 124135685.798 6  96729105.98146  23622243.340    23622242.960    23622247.872
        40.250          39.250
 118895916.435 7  92646159.65746  22625140.432    22625139.400    22625137.782
        45.500          36.250
 143225718.127 5                  27254948.229
        34.250
 127787360.975 6  99574569.24844  24317129.313    24317129.090    24317130.604
        39.000          24.750
 118705078.733 7  92497453.99845  22588829.024    22588827.804    22588828.084
        45.250          34.500
 106075778.334 8  82656459.38749  20185549.649    20185549.480    20185551.638
        51.000          56.750
 115022653.159 7  89628043.49948  21888081.727    21888081.298    21888081.414
        47.250          49.250
 120489873.857 7  93888215.10844  22928460.215    22928459.120    22928458.670
        42.500          27.750
 112600628.580 7  87740752.87648  21427187.554    21427187.103    21427188.612
        47.000          51.250
 133078696.161 6 103697689.68443  25324032.914    25324032.678    25324035.125
        37.000          18.750
 119641940.165 7  93227509.78847  22767100.626    22767099.790    22767103.883
        44.500          45.000
 130559391.160 6 101734651.06143  24844621.194    24844620.801    24844628.221
        36.500          21.750
 120709239.732 7                  22970204.006
        46.750
 114243011.313 7                  21739722.620
        45.500
 125432285.013 8                  23868970.425
        48.750
 107949222.144 8                  20194134.822
        52.250
  30739105.272 7                   5849230.595
        44.000
 195184052.874 7                  37142289.214
        46.750
 122131454.331 7                  23240844.142
        43.000
 105801163.360 7                  19785351.740
        42.000
 109235452.608 7                  20420417.980
        42.500
 204009567.529 7                  38821731.454
        43.500
 191174944.331 7                  36379128.298
        47.500
 123346805.930 5                  23139547.755
        35.500
 122998851.417 5                  23049928.199
        35.500


 125706994.846 6                  23524348.705
        40.000
 128688912.208 6                  24107786.960
        41.500
 116542660.664 8                  21763521.627
        48.000
 129561461.344 6                  24211656.049
        41.250
 21 10 13 12 35  0.0000000  0 30G17G02E19G04G19G06G07G20G09G05G30G13
                                E09E11E04R05S48S36E12R20R19S23S25R14
                                R06E05R15R18R04R21
 124232317.890 6  96804403.44346  23640632.080    23640631.705    23640636.065
        40.250          38.250
 118819107.313 7  92586308.40146  22610524.133    22610523.101    22610521.394
        45.750          36.000
 143297280.060 5                  27268565.860
        34.750
 127885157.379 6  99650774.13444  24335739.217    24335739.016    24335740.697
        39.250          25.250
 118800033.951 7  92571444.94745  22606898.305    22606897.085    22606897.527
        44.750          34.000
 106067057.196 8  82649663.68549  20183890.126    20183889.952    20183892.120
        51.000          56.250
 114986212.587 7  89599648.26948  21881147.271    21881146.842    21881146.961
        47.000          48.750
 120424125.068 7  93836982.28844  22915948.943    22915947.848    22915947.558
        42.250          27.250
 112668805.977 7  87793878.10348  21440161.106    21440160.664    21440162.394
        47.500          51.000
 133007418.219 5 103642148.48943  25310469.544    25310469.276    25310471.630
        34.250          19.000
 119557317.288 7  93161569.97947  22750997.354    22750996.523    22751000.510
        44.250          44.750
 130455860.472 6 101653978.01643  24824920.208    24824919.833    24824926.525
        38.250          18.750
 120673219.017 7                  22963349.462
        46.750
 114228647.479 7                  21736989.208
        45.500
 125463221.529 8                  23874857.538
        48.750
 107963587.000 8                  20196822.385
        52.000
  30739015.603 7                   5849213.415
        44.000
 195184088.002 7                  37142297.080
        46.750
 122196287.649 7                  23253181.771
        43.000
 105757370.868 7                  19777161.879
        42.250
 109332593.747 7                  20438578.239
        42.750
 204009737.284 7                  38821768.045
        43.250
 191176168.078 7                  36379616.416
        47.500
 123305053.658 5                  23131714.778
        35.250
 122936303.430 5                  23038206.776
        35.500
                                  28890866.505
        30.500
 125612944.867 6                  23506747.940
        41.000
 128823178.674 6                  24132939.623
        41.250
 116617198.574 7                  21777440.430
        46.750
 129435343.797 6                  24188086.665
        40.250
 21 10 13 12 35 30.0000000  0 30G17G02E19G04G19G06G07G20G09G05G30G13
                                E09E11E04R05S48S36E12R20R19S23S25R14
                                R06E05R15R18R04R21
 124328949.274 6  96879700.32346  23659020.241    23659019.879    23659024.982
        40.000          38.250
 118742516.252 7  92526627.06846  22595949.168    22595948.140    22595946.753
        46.500          36.500
 143368789.111 5                  27282173.733
        35.500
 127982963.296 6  99726986.43844  24354351.302    24354351.106    24354352.793
        40.500          26.750
 118895179.027 7  92645583.84145  22625003.790    22625002.570    22625003.095
        44.750          34.000
 106058840.554 8  82643261.09749  20182326.599    20182326.430    20182328.550
        51.250          56.500
 114950192.547 7  89571580.72348  21874292.635    21874292.206    21874292.487
        47.250          48.750
 120358376.469 7  93785749.61744  22903437.034    22903435.957    22903436.311
        42.500          27.250
 112737236.052 7  87847200.22048  21453183.073    21453182.626    21453184.367
        47.750          51.250
 132936112.852 6 103586585.88942  25296899.997    25296899.787    25296902.321
        36.500          16.000
 119472878.172 7  93095773.35947  22734928.922    22734928.095    22734932.128
        44.500          45.000
 130352471.921 6 101573415.73043  24805245.963    24805245.606    24805253.224
        36.000          19.250
 120637436.291 7                  22956540.247
        46.750
 114214662.796 7                  21734328.092
        45.500
 125494333.803 8                  23880778.039
        48.750
 107978196.381 8                  20199555.259
        52.250
  30738930.249 7                   5849198.319
        44.000
 195184131.435 7                  37142304.677
        46.750
 122261405.255 7                  23265573.173
        43.000
 105714342.198 6                  19769115.780
        41.750
 109430295.751 7                  20456841.872
        42.500
 204009908.743 7                  38821798.014
        43.250
 191178999.090 7                  36380104.369
        47.250
 123263827.605 6                  23123981.007
        36.500
 122873990.018 5                  23026530.101
        35.500
 151755118.53916                  28878038.660
        38.000
 125518936.069 6                  23489155.146
        41.500
 128957468.086 7                  24158097.004
        42.000
 116691714.277 7                  21791355.813
        47.500
 129309392.032 6                  24164550.183
        39.500
 21 10 13 12 36  0.0000000  0 30G17G02E19G04G19G06G07G20G09G05G30G13
                                E09E11E04R05S48S36E12R20R19S23S25R14
                                R06E05R15R18R04R21
 124425568.636 6  96954987.86946  23677406.832    23677406.484    23677410.850
        40.500          38.250
 118666137.685 7  92467111.31246  22581414.980    22581413.952    22581412.106
        46.500          36.500
 143440236.255 5                  27295769.830
        35.250
 128080768.679 6  99803198.32144  24372962.810    24372962.609    24372964.321
        40.500          26.250
 118990502.406 7  92719861.67045  22643143.803    22643142.583    22643142.545
        44.750          34.250
 106051121.418 8  82637246.17449  20180857.620    20180857.451    20180859.667
        51.500          56.750
 114914586.755 7  89543835.96648  21867517.430    21867517.001    21867516.932
        47.250          49.000
 120292619.934 6  93734510.75944  22890924.201    22890923.110    22890922.878
        41.250          27.250
 112805908.255 8  87900711.01048  21466250.854    21466250.412    21466252.152
        48.000          51.250
 132864771.679 5 103530995.39342  25283324.445    25283324.253    25283326.569
        33.750          16.750
 119388617.442 7  93030115.74347  22718894.681    22718893.850    22718897.851
        44.500          45.500
 130249218.886 6 101492959.03643  24785597.919    24785597.602    24785603.855
        37.500          19.250
 120601882.933 7                  22949774.624
        46.750
 114201049.962 7                  21731737.532
        45.500
 125525612.279 8                  23886730.105
        48.750
 107993039.868 8                  20202332.026
        52.000
  30738840.025 7                   5849180.705
        44.000
 195184166.249 7                  37142309.949
        46.750
 122326797.930 7                  23278017.185
        43.000
 105672071.314 7                  19761210.816
        42.000
 109528545.897 7                  20475208.745
        42.500
 204010074.761 7                  38821830.169
        43.500
 191181830.534 7                  36380593.479
        47.000
 123223122.680 6                  23116343.865
        37.250
 122811902.059 5                  23014893.963
        35.750
                                  28865232.749
        29.250
 125424964.484 7                  23471570.177
        42.250
 129091768.614 6                  24183255.613
        41.750
 116766198.176 7                  21805265.640
        47.750
 129183601.371 6                  24141043.814
        39.500
 21 10 13 12 36 30.0000000  0 30G17G02E19G04G19G06G07G20G09G05G30G13
                                E09E11E04R05S48S36E12R20R19S23S25R14
                                R06E05R15R18R04R21
 124522189.356 6  97030276.42346  23695793.140    23695792.801    23695797.929
        40.500          38.500
 118589990.152 7  92407775.58346  22566924.433    22566923.405    22566921.706
        46.000          36.500
 143511637.021 5                  27309356.931
        34.500
 128178588.044 6  99879421.12443  24391577.402    24391577.206    24391578.930
        39.000          23.250
 119086017.055 7  92794288.54245  22661319.547    22661318.336    22661318.524
        44.750          34.250
 106043917.383 8  82631632.62849  20179486.820    20179486.651    20179488.847
        51.250          56.750
 114879413.228 7  89516428.04448  21860823.742    21860823.331    21860823.579
        47.250          49.000
 120226872.050 6  93683278.66344  22878412.314    22878411.214    22878411.492
        41.250          27.500
 112874836.569 8  87954421.37248  21479367.750    21479367.308    21479368.892
        48.000          51.750
 132793410.804 6 103475389.50743  25269744.642    25269744.450    25269747.396
        36.250          20.250
 119304554.299 7  92964612.08747  22702897.820    22702896.993    22702901.140
        44.500          46.000
 130146119.822 6 101412622.33943  24765977.644    24765977.345    24765984.468
        37.500          19.250
 120566574.914 7                  22943055.625
        47.250
 114187826.311 7                  21729221.174
        45.750
 125557071.986 8                  23892716.657
        49.000
 108008131.981 8                  20205155.188
        52.250
  30738761.678 7                   5849166.396
        44.000
 195184207.880 7                  37142318.463
        46.500
 122392480.986 7                  23290516.235
        43.250
 105630577.291 7                  19753451.312
        42.000
 109627357.370 7                  20493681.125
        42.750
 204010251.109 7                  38821863.371
        43.500
 191184675.855 7                  36381086.985
        47.500
 123182958.524 6                  23108809.091
        40.000
 122750055.747 6                  23003304.402
        36.000
 151620660.37215                  28852451.909
        35.750
 125331050.628 7                  23453995.389
        43.000
 129226092.999 7                  24208419.229
        42.000
 116840665.450 8                  21819172.263
        48.000
 129057992.815 6                  24117571.278
        41.000
 21 10 13 12 37  0.0000000  0 30G17G02E19G04G19G06G07G20G09G05G30G13
                                E09E11E04R05S48S36E12R20R19S23S25R14
                                R06E05R15R18R04R21
 124618792.026 6  97105550.95446  23714176.112    23714175.768    23714180.823
        39.750          38.000
 118514059.215 7  92348608.62746  22552475.305    22552474.281    22552472.306
        46.250          36.500
 143582973.729 5                  27322932.445
        32.500
 128276402.691 6  99955640.26043  24410190.735    24410190.561    24410192.711
        36.750          20.250
 119181702.451 7  92868848.45945  22679527.776    22679526.560    22679526.787
        44.750          34.250
 106037212.815 8  82626408.27849  20178211.041    20178210.876    20178212.954
        51.250          56.750
 114844656.908 7  89489345.21748  21854209.859    21854209.444    21854209.612
        47.000          49.000
 120161116.352 7  93632040.48044  22865899.532    22865898.446    22865899.163
        42.000          28.750
 112944001.832 8  88008316.36648  21492529.324    21492528.886    21492530.787
        48.000          51.500
 132722013.055 6 103419754.93943  25256158.976    25256158.811    25256160.635
        36.250          20.250
 119220674.732 7  92899251.48247  22686936.078    22686935.247    22686939.258
        44.500          46.000
 130043159.575 6 101332393.78743  24746384.386    24746384.087    24746391.584
        38.500          19.500
 120531494.983 7                  22936380.098
        47.250
 114174975.954 7                  21726775.823
        45.750
 125588694.742 8                  23898734.382
        48.750
 108023453.548 8                  20208021.961
        52.500
  30738678.945 7                   5849149.399
        44.000
 195184237.009 7                  37142325.519
        46.500
 122458436.581 7                  23303067.213
        43.000
 105589845.698 7                  19745834.218
        42.000
 109726708.876 7                  20512253.493
        42.750
 204010419.430 7                  38821894.118
        43.000
 191187522.832 7                  36381579.436
        47.500
 123143321.014 6                  23101374.540
        41.250
 122688433.375 6                  22991756.526
        36.500
                                  28839693.435
        32.250
 125237181.877 7                  23436429.778
        43.000
 129360420.976 6                  24233583.014
        41.250
 116915097.443 7                  21833071.678
        47.750
 128932552.713 6                  24094129.879
        40.500
 21 10 13 12 37 30.0000000  0 30G17G02E19G04G19G06G07G20G09G05G30G13
                                E09E11E04R05S48S36E12R20R19S23S25R14
                                R06E05R15R18R04R21
 124715383.392 6  97180816.63546  23732557.536    23732557.206    23732561.982
        40.250          38.250
 118438357.218 7  92289620.07646  22538069.774    22538068.750    22538067.019
        46.250          36.750
 143654255.659 5                  27336496.603
        31.500
 128374220.840 5 100031862.10442  24428805.172    24428804.962    24428806.243
        34.500          16.000
 119277565.230 7  92943546.59245  22697770.174    22697768.954    22697769.152
        44.250          34.000
 106031018.895 8  82621581.83549  20177032.338    20177032.173    20177034.284
        51.250          57.000
 114810329.267 7  89462596.42348  21847677.756    21847677.345    21847677.184
        47.500          49.250
 120095362.995 7  93580804.10944  22853387.537    22853386.455    22853386.777
        42.500          29.500
 113013411.735 7  88062401.99348  21505737.633    21505737.200    21505738.909
        47.750          51.250
 132650588.033 6 103364099.08243  25242566.326    25242566.134    25242569.022
        37.500          20.500
 119136991.575 7  92834043.91247  22671011.616    22671010.794    22671014.733
        44.750          46.000
 129940349.446 6 101252282.25043  24726820.371    24726820.045    24726827.068
        38.750          19.250
 120496652.717 7                  22929749.832
        47.000
 114162509.775 7                  21724403.636
        45.500
 125620489.224 8                  23904784.575
        48.750
 108039012.690 8                  20210932.174
        52.250
  30738601.311 7                   5849133.364
        44.000
 195184268.699 7                  37142332.884
        46.750
 122524673.658 7                  23315671.722
        43.000
 105549888.530 6                  19738361.668
        41.750
 109826607.269 7                  20530928.798
        42.500
 204010590.462 7                  38821928.219
        43.250
 191190378.398 7                  36382074.883
        47.750
 123104223.413 6                  23094039.184
        40.250
 122627044.200 6                  22980252.213
        36.250
 151486685.13816                  28826956.174
        36.000
 125143372.664 7                  23418873.535
        42.250
 129494759.080 6                  24258748.465
        41.750
 116989502.998 8                  21846966.899
        48.500
 128807295.484 6                  24070722.058
        39.000
 21 10 13 12 38  0.0000000  0 30G17G02E19G04G19G06G07G20G09G05G30G13
                                E09E11E04R05S48S36E12R20R19S23S25R14
                                R06E05R15R18R04R21
 124811957.065 6  97256068.56246  23750934.786    23750934.442    23750939.032
        39.250          37.000
 118362882.273 7  92230808.44246  22523707.390    22523706.362    22523704.512
        46.000          36.500
 143725477.741 5                  27350050.045
        30.000
 128472036.441 5 100108081.99541  24447419.119    24447418.887    24447420.199
        31.500          11.250
 119373597.853 7  93018377.06245  22716044.152    22716042.941    22716044.061
        43.500          34.000
 106025332.567 8  82617150.91849  20175950.411    20175950.246    20175952.258
        51.000          56.750
 114776427.779 7  89436179.70448  21841226.413    21841226.011    21841225.804
        47.000          49.250
 120029608.275 7  93529566.68045  22840874.762    22840873.685    22840874.273
        43.000          30.000
 113083059.739 7  88116673.14948  21518990.938    21518990.505    21518992.570
        47.500          51.000
 132579131.392 5 103308418.61342  25228968.912    25228968.698    25228970.317
        32.000          16.500
 119053503.436 7  92768988.29947  22655124.398    22655123.571    22655127.286
        44.500          46.000
 129837687.008 5 101172285.80343  24707284.224    24707283.956    24707291.287
        35.750          19.500
 120462043.526 7                  22923163.955
        46.500
 114150424.525 7                  21722103.824
        45.000
 125652449.884 8                  23910866.567
        48.250
 108054802.883 8                  20213886.183
        52.250
  30738525.078 7                   5849116.935
        43.750
 195184309.076 7                  37142338.482
        46.500
 122591186.993 7                  23328328.810
        42.500
 105510704.358 6                  19731034.473
        41.750
 109927044.488 7                  20549704.223
        42.500
 204010759.956 7                  38821960.584
        43.250
 191193236.351 7                  36382571.855
        47.500
 123065664.337 6                  23086806.196
        41.500
 122565883.732 6                  22968790.636
        36.500
 151419866.31215                  28814242.663
        35.500
 125049622.655 7                  23401329.325
        42.250
 129629099.554 7                  24283916.052
        42.500
 117063876.468 8                  21860855.208
        48.250
 128682220.827 6                  24047349.461
        40.750
 21 10 13 12 38 30.0000000  0 30G17G02E19G04G19G06G07G20G09G05G30G13
                                E09E11E04R05S48S36E12R20R19S23S25R14
                                R06E05R15R18R04R21
 124908514.169 6  97331307.53046  23769309.293    23769308.931    23769313.792
        40.000          37.250
 118287640.979 7  92172178.86946  22509389.217    22509388.193    22509386.636
        46.250          37.000
 143796643.498 4                  27363591.580
        28.000
 128569851.960 4 100184301.7374   24466032.682    24466032.575    24466033.838
        29.000           5.500
 119469801.576 7  93093340.84945  22734351.452    22734350.250    22734351.107
        43.250          33.500
 106020159.334 8  82613119.81449  20174965.738    20174965.573    20174967.853
        51.250          57.000
 114742958.501 7  89410099.77148  21834857.333    21834856.936    21834857.118
        47.250          49.250
 119963856.851 7  93478331.80945  22828362.744    22828361.671    22828362.079
        43.250          30.250
 113152947.817 7  88171131.37848  21532290.332    21532289.894    21532291.797
        47.250          51.000
 132507647.406 6 103252716.82543  25215366.207    25215365.993    25215367.712
        37.500          20.500
 118970217.453 7  92704090.21147  22639275.385    22639274.563    22639278.447
        44.750          46.250
 129735178.219 6 101092409.05543  24687778.529    24687778.279    24687783.950
        38.000          21.500
 120427671.281 7                  22916622.996
        47.250
 114138725.390 7                  21719877.589
        45.500
 125684579.700 8                  23916980.672
        48.750
 108070826.728 8                  20216883.665
        52.250
  30738453.981 7                   5849101.633
        44.000
 195184351.458 7                  37142347.716
        46.500
 122657979.822 7                  23341039.142
        43.000
 105472299.764 7                  19723852.247
        42.000
 110028020.856 7                  20568580.946
        42.500
 204010932.299 7                  38821994.108
        43.250
 191194504.724 7                  36383070.333
        47.500
 123027651.424 7                  23079675.091
        42.750
 122504955.401 6                  22957371.980
        36.250
 151353175.239 5                  28801551.389
        31.500
 124955940.646 7                  23383796.697
        42.000
 129763443.275 6                  24309082.730
        40.750
 117138220.851 7                  21874737.992
        47.250
 128557336.704 6                  24024011.535
        41.000
 21 10 13 12 39  0.0000000  0 30G17G02E19G04G19G06G07G20G09G05G30G13
                                E09E11E04R05S48S36E12R20R19S23S25R14
                                R06E05R15R18R04R21
 125005047.014 6  97406527.62446  23787678.653    23787678.282    23787683.647
        39.000          37.000
 118212630.857 7  92113729.43146  22495115.387    22495114.363    22495112.555
        46.000          36.750
 143867747.117 4                  27377123.202
        27.000
 128667660.633 4 100260516.1564   24484645.503    24484645.481    24484646.309
        25.500           2.500
 119566168.123 7  93168431.52045  22752689.625    22752688.427    22752688.842
        43.500          33.250
 106015495.358 8  82609485.53549  20174078.217    20174078.052    20174080.344
        51.250          56.750
 114709918.323 7  89384354.20548  21828570.002    21828569.605    21828569.798
        47.000          49.000
 119898104.201 7  93427095.97545  22815850.337    22815849.273    22815849.576
        43.500          30.000
 113223068.714 7  88225771.02448  21545633.896    21545633.463    21545635.276
        47.750          50.750
 132436130.376 5 103196989.29043  25201756.927    25201756.695    25201758.816
        35.250          19.750
 118887131.517 7  92639348.01347  22623464.849    22623464.027    22623467.693
        44.750          46.250
 129632820.061 6 101012649.72043  24668299.673    24668299.405    24668304.605
        38.250          19.750
 120393530.593 7                  22910126.294
        47.000
 114127408.280 7                  21717724.123
        45.250
 125716872.400 8                  23923125.766
        48.500
 108087076.782 8                  20219923.770
        52.250
  30738382.857 7                   5849087.615
        43.750
 195184389.252 7                  37142353.789
        46.500
 122725046.114 7                  23353801.358
        42.750
 105434672.129 7                  19716816.162
        42.000
 110129527.416 7                  20587556.950
        42.500
 204011103.165 7                  38822026.429
        43.000
 191197376.810 7                  36383570.408
        47.250
 122990182.274 7                  23072645.744
        42.500
 122444253.456 6                  22945996.947
        36.000
 151286593.41716                  28788882.642
        37.000
 124862325.921 7                  23366279.100
        42.500
 129897781.864 7                  24334248.757
        42.000
 117212529.776 7                  21888615.010
        47.250
 128432642.559 6                  24000709.627
        41.000
 21 10 13 12 39 30.0000000  0 30G17G02E19G04G19G06G07G20G09G05G30G13
                                E09E11E04R05S48S36E12R20R19S23S25R14
                                R06E05R15R18R04R21
 125101554.701 6  97481728.07746  23806044.046    23806043.680    23806049.133
        40.000          37.500
 118137856.272 7  92055463.52546  22480886.282    22480885.258    22480883.498
        46.000          36.750
 143938790.168 4                  27390642.109
        24.750
                                  24503257.024
        23.250
 119662696.031 7  93243647.91245  22771058.041    22771056.839    22771057.762
        43.750          33.000
 106011344.043 8  82606250.73249  20173288.192    20173288.032    20173290.288
        51.250          56.750
 114677311.111 7  89358946.01448  21822365.009    21822364.607    21822364.737
        47.000          49.000
 119832352.842 7  93375861.16544  22803338.123    22803337.050    22803337.435
        42.750          29.500
 113293422.416 7  88280592.07848  21559022.191    21559021.753    21559023.323
        47.250          51.000
 132364582.507 6 103141237.72043  25188142.547    25188142.346    25188143.598
        36.250          21.500
 118804250.739 7  92574765.66947  22607692.899    22607692.077    22607695.994
        45.000          46.250
 129530615.977 6 100933010.42043  24648850.632    24648850.378    24648856.253
        37.000          21.250
 120359623.354 7                  22903673.887
        47.250
 114116476.404 7                  21715643.795
        45.500
 125749328.966 8                  23929301.967
        48.500
 108103553.488 8                  20223005.941
        52.250
  30738316.456 7                   5849070.041
        43.750
 195184422.349 7                  37142360.680
        46.750
 122792387.144 7                  23366616.086
        43.250
 105397825.914 7                  19709925.455
        42.000
 110231563.034 7                  20606630.832
        42.250
 204011274.398 7                  38822058.750
        43.500
 191200257.900 7                  36384071.243
        47.250
 122953262.407 6                  23065719.043
        41.750
 122383779.954 6                  22934664.577
        36.250


 124768784.902 7                  23348774.187
        42.000
 130032114.312 6                  24359414.487
        41.750
 117286804.172 8                  21902485.808
        48.000
 128308144.599 6                  23977443.330
        41.250
 21 10 13 12 40  0.0000000  0 30G17G02E19G04G19G06G07G20G09G05G30G13
                                E09E11E04R05S48S36E12R20R19S23S25R14
                                R06E05R15R18R04R21
 125198035.305 6  97556907.44346  23824404.261    23824403.899    23824409.212
        40.500          38.000
 118063319.951 7  91997383.28146  22466702.523    22466701.504    22466699.816
        46.250          36.750
                                  27404149.400
        23.250
                                  24521863.655
        21.750
 119759382.351 7  93318987.74845  22789456.995    22789455.797    22789456.777
        44.000          32.500
 106007706.920 8  82603416.60049  20172596.283    20172596.123    20172598.274
        51.250          56.500
 114645138.698 7  89333876.62848  21816242.686    21816242.289    21816242.433
        47.750          48.750
 119766603.585 7  93324627.98944  22790826.627    22790825.554    22790825.879
        42.000          29.000
 113364007.004 7  88335593.03548  21572453.679    21572453.241    21572455.245
        47.500          50.750
 132293004.150 6 103085462.42243  25174520.571    25174520.330    25174522.087
        36.000          20.500
 118721578.354 7  92510345.71047  22591960.768    22591959.937    22591963.838
        45.250          46.250
 129428568.430 6 100853493.11643  24629431.432    24629431.146    24629436.604
        36.500          19.750
 120325949.547 7                  22897266.112
        47.250
 114105931.035 7                  21713637.028
        45.500
 125781948.479 8                  23935509.258
        48.750
 108120255.154 8                  20226130.485
        52.000
  30738249.901 7                   5849054.865
        43.750
 195184460.157 7                  37142367.378
        46.500
 122860002.229 7                  23379482.922
        43.000
 105361763.647 6                  19703181.378
        41.750
 110334124.053 7                  20625803.859
        42.000
 204011446.015 7                  38822091.191
        43.000
 191203148.618 7                  36384572.977
        47.000
 122916895.126 7                  23058896.896
        42.000
 122323534.356 6                  22923373.973
        36.000
 151153813.14015                  28763615.223
        35.750
 124675322.414 7                  23331283.716
        43.750
 130166437.787 6                  24384576.651
        40.250
 117361043.373 7                  21916348.713
        46.750
 128183847.107 6                  23954214.797
        39.750
 21 10 13 12 40 30.0000000  0 30G17G02E19G04G19G06G07G20G09G05G30G13
                                E09E11E04R05S48S36E12R20R19S23S25R14
                                R06E05R15R18R04R21
 125294483.671 6  97632061.66746  23842758.171    23842757.823    23842762.746
        40.500          37.000
 117989022.339 7  91939489.04346  22452564.006    22452562.987    22452561.435
        46.750          37.000
                                  27417645.312
        21.250


 119856222.125 7  93394447.16245  22807885.112    22807883.910    22807884.387
        44.250          32.500
 106004583.395 8  82600982.67349  20172001.894    20172001.734    20172003.937
        51.750          56.750
 114613401.415 7  89309146.30748  21810203.365    21810202.963    21810202.944
        47.750          49.000
 119700855.187 7  93273395.49744  22778314.865    22778313.779    22778313.922
        43.000          29.250
 113434818.522 7  88390770.82948  21585928.590    21585928.157    21585930.059
        47.750          50.750
 132221393.628 6 103029662.05843  25160893.856    25160893.606    25160895.694
        36.250          19.000
 118639115.518 7  92446089.03447  22576268.364    22576267.537    22576271.586
        45.000          46.500
 129326677.155 6 100774097.55843  24610041.585    24610041.295    24610046.536
        37.250          21.000
 120292507.032 7                  22890902.237
        47.250
 114095771.339 7                  21711703.812
        45.750
 125814727.956 8                  23941746.940
        48.750
 108137177.953 8                  20229295.933
        52.000
  30738187.258 7                   5849040.354
        44.000
 195184501.913 7                  37142374.537
        46.500
 122927888.611 7                  23392401.366
        43.000
 105326485.823 7                  19696584.624
        42.000
 110437204.804 7                  20645073.632
        42.000
 204011617.128 7                  38822122.926
        43.250
 191206050.619 7                  36385077.287
        47.000
 122881081.485 6                  23052178.607
        41.500
 122263514.307 6                  22912125.632
        36.250
 151087612.61616                  28751016.134
        36.000
 124581940.974 7                  23313807.672
        42.500
 130300747.242 6                  24409736.486
        40.500
 117435244.489 7                  21930205.569
        47.500
 128059752.357 6                  23931025.606
        40.500
 21 10 13 12 41  0.0000000  0 30G17G02E19G04G19G06G07G20G09G05G30G13
                                E09E11E04R05S48S36E12R20R19S23S25R14
                                R06E05R15R18R04R21
 125390898.517 6  97707189.77746  23861104.908    23861104.573    23861109.880
        40.000          37.750
 117914967.259 7  91881783.79046  22438471.855    22438470.836    22438468.911
        46.500          37.000
                                  27431128.117
        20.250


 119953213.072 7  93470024.37145  22826342.237    22826341.026    22826341.022
        44.000          32.250
 106001975.298 8  82598950.37449  20171505.495    20171505.339    20171507.569
        51.250          56.750
 114582101.458 7  89284756.75648  21804247.209    21804246.807    21804246.787
        47.750          49.500
 119635108.847 7  93222164.60844  22765803.517    22765802.431    22765802.948
        42.500          29.500
 113505855.498 7  88446124.29548  21599446.705    21599446.272    21599447.873
        46.750          50.500
 132149751.323 5 102973836.89343  25147261.685    25147261.489    25147262.222
        34.500          20.000
 118556865.835 7  92381998.45747  22560616.794    22560615.972    22560620.058
        45.000          46.750
 129224944.882 6 100694825.88343  24590682.430    24590682.162    24590686.896
        38.750          21.250
 120259296.173 7                  22884582.365
        47.000
 114085998.991 7                  21709844.145
        45.250
 125847666.868 8                  23948015.038
        48.500
 108154320.716 8                  20232502.883
        52.500
  30738128.128 7                   5849023.595
        43.500
 195184536.049 7                  37142381.316
        46.500
 122996045.981 7                  23405371.266
        42.750
 105291995.533 7                  19690134.124
        42.250
 110540802.445 6                  20664440.476
        41.750
 204011787.991 7                  38822156.969
        43.000
 191208953.708 7                  36385582.317
        46.750
 122845825.282 7                  23045564.453
        42.000
 122203720.058 5                  22900919.647
        35.500
 151021521.625 4                  28738438.387
        28.000
 124488645.848 7                  23296349.072
        44.000
 130435040.235 6                  24434894.885
        41.750
 117509406.680 8                  21944054.347
        48.250
 127935865.371 6                  23907874.281
        41.000
 21 10 13 12 41 30.0000000  0 30G17G02E19G04G19G06G07G20G09G05G30G13
                                E09E11E04R05S48S36E12R20R19S23S25R14
                                R06E05R15R18R04R21
 125487280.647 6  97782292.36046  23879446.703    23879446.395    23879451.707
        40.250          38.000
 117841160.453 7  91824272.00146  22424426.901    22424425.886    22424424.180
        46.250          37.500
                                  27444601.205
        20.250


 120050355.339 7  93545719.49345  22844827.940    22844826.733    22844827.077
        44.000          32.250
 105999887.286 8  82597323.33749  20171108.237    20171108.081    20171110.225
        51.250          57.000
 114551243.937 7  89260711.96248  21798375.240    21798374.847    21798374.885
        47.750          49.750
 119569368.399 7  93170938.31244  22753293.961    22753292.879    22753292.980
        42.750          29.250
 113577119.186 7  88501654.42348  21613007.527    21613007.098    21613009.057
        47.250          51.000
 132078080.302 6 102917989.35543  25133621.925    25133621.738    25133623.545
        38.500          21.750
 118474835.756 7  92318078.98747  22545006.807    22545005.985    22545010.231
        44.750          47.000
 129123376.626 6 100615682.03643  24571355.225    24571354.966    24571359.037
        38.000          21.500
 120226320.111 7                  22878307.254
        47.250
 114076618.409 7                  21708059.140
        45.500
 125880767.492 8                  23954313.996
        48.500
 108171684.937 8                  20235751.213
        52.000
  30738074.695 7                   5849009.849
        43.750
 195184569.033 7                  37142388.269
        46.500
 123064476.855 7                  23418393.153
        42.750
 105258298.175 7                  19683832.361
        42.000
 110644916.745 6                  20683903.428
        41.750
 204011961.471 7                  38822187.470
        43.250
 191210270.462 7                  36386088.661
        47.250
 122811133.162 7                  23039055.949
        42.250
 122144154.390 6                  22889758.729
        36.250
 150955544.18616                  28725884.342
        36.750
 124395444.858 7                  23278907.664
        44.500
 130569316.635 7                  24460049.527
        43.000
 117583532.626 7                  21957897.018
        47.750
 127812193.671 7                  23884763.815
        42.000
 21 10 13 12 42  0.0000000  0 30G17G02E19G04G19G06G07G20G09G05G30G13
                                E09E11E04R05S48S36E12R20R19S23S25R14
                                R06E05R15R18R04R21
 125583622.877 6  97857363.85346  23897780.146    23897779.856    23897785.306
        39.000          36.750
 117767600.211 7  91766952.33946  22410428.971    22410427.952    22410426.118
        46.500          37.500




 120147641.725 7  93621526.91445  22863340.887    22863339.685    22863340.189
        44.000          32.250
 105998316.631 8  82596099.43549  20170809.398    20170809.242    20170811.302
        51.250          56.750
 114520826.372 7  89237009.98948  21792587.126    21792586.729    21792586.584
        47.750          49.750
 119503630.633 7  93119714.09644  22740784.419    22740783.337    22740783.137
        43.000          29.000
 113648603.550 7  88557356.50148  21626610.667    21626610.238    21626612.296
        46.750          50.750
 132006376.770 5 102862116.55543  25119976.579    25119976.365    25119978.170
        34.000          18.500
 118393024.306 7  92254329.86947  22529438.684    22529437.862    22529441.786
        45.000          46.750
 129021970.160 6 100536664.23043  24552058.093    24552057.807    24552061.347
        37.000          20.750
 120193574.615 7                  22872075.889
        47.000
 114067626.645 7                  21706348.091
        45.000
 125914024.754 8                  23960642.665
        48.250
 108189264.883 8                  20239039.950
        51.750
  30738022.484 7                   5848994.994
        44.000
 195184605.991 7                  37142395.522
        46.500
 123133176.332 7                  23431466.255
        42.750
 105225392.619 7                  19677679.327
        42.000
 110749539.901 6                  20703461.838
        41.000
 204012135.280 7                  38822223.113
        43.250
 191213192.049 7                  36386597.728
        47.250
 122777003.795 6                  23032652.472
        40.500
 122084812.878 6                  22878637.390
        36.000
                                  28713354.452
        26.750
 124302338.373 7                  23261483.829
        44.000
 130703569.408 6                  24485198.324
        36.500
 117657617.107 7                  21971732.157
        47.500
 127688737.681 6                  23861693.010
        41.250
 21 10 13 12 42 30.0000000  0 29G17G02E19G19G06G07G20G09G05G30G13E09
                                E11E04R05S48S36E12R20R19S23S25R14R06
                                E05R15R18R04R21
 125679922.681 6  97932402.28246  23916105.357    23916105.076    23916111.097
        39.500          37.500
 117694288.872 7  91709826.61746  22396478.307    22396477.292    22396475.416
        46.500          37.750


 120245068.671 7  93697443.86745  22881880.944    22881879.742    22881880.234
        43.750          32.500
 105997264.111 8  82595279.27549  20170608.929    20170608.773    20170611.063
        51.000          57.000
 114490850.217 7  89213651.97348  21786882.731    21786882.338    21786882.194
        47.000          50.000
 119437895.692 7  93068492.07644  22728274.940    22728273.854    22728273.805
        42.250          28.500
 113720306.113 7  88613228.60848  21640255.361    21640254.928    21640256.594
        47.000          50.500
 131934640.233 5 102806217.95143  25106326.809    25106326.666    25106327.719
        35.750          19.750
 118311434.101 7  92190753.15247  22513912.503    22513911.685    22513915.427
        45.000          46.750
 128920727.224 6 100457773.91743  24532791.250    24532790.955    24532795.692
        37.500          21.000
 120161059.007 7                  22865888.368
        46.750
 114059024.306 7                  21704711.000
        45.000
 125947437.133 8                  23967000.798
        48.250
 108207058.294 8                  20242368.542
        52.000
  30737974.657 7                   5848979.742
        44.000
 195184645.420 7                  37142404.287
        46.500
 123202143.125 7                  23444590.432
        42.500
 105193280.158 7                  19671674.106
        42.000
 110854667.317 6                  20723114.487
        41.250
 204012308.384 7                  38822254.285
        43.500
 191216119.137 7                  36387107.372
        47.250
 122743440.108 7                  23026357.507
        42.500
 122025694.641 6                  22867559.253
        36.750
 150823972.17515                  28700847.440
        33.500
 124209330.704 7                  23244079.586
        44.250
 130837795.505 6                  24510344.485
        36.250
 117731658.766 7                  21985559.032
        47.750
 127565501.190 6                  23838662.990
        40.500
 21 10 13 12 43  0.0000000  0 29G17G02E19G19G06G07G20G09G05G30G13E09
                                E11E04R05S48S36E12R20R19S23S25R14R06
                                E05R15R18R04R21
 125776178.023 6  98007406.02946  23934422.281    23934421.982    23934428.468
        39.250          36.750
 117621229.793 7  91652897.47146  22382575.541    22382574.526    22382572.645
        46.500          37.500


 120342633.576 7  93773468.31545  22900447.020    22900445.804    22900446.759
        43.500          32.250
 105996731.841 8  82594864.50249  20170507.894    20170507.734    20170509.722
        51.500          56.750
 114461318.325 7  89190640.13348  21781262.817    21781262.442    21781262.518
        47.750          49.750
 119372165.260 7  93017273.56944  22715767.378    22715766.287    22715765.854
        42.750          28.500
 113792225.710 7  88669269.83848  21653941.080    21653940.647    21653942.070
        47.250          50.250
 131862871.812 6 102750294.55543  25092669.070    25092668.918    25092671.138
        36.250          20.250
 118230069.084 7  92127351.89947  22498429.190    22498428.372    22498432.103
        45.250          47.000
 128819650.626 6 100379013.17443  24513557.015    24513556.644    24513561.227
        37.250          19.750
 120128773.956 7                  22859744.672
        47.250
 114050813.292 7                  21703148.622
        45.500
 125981004.446 8                  23973388.546
        48.500
 108225064.290 8                  20245737.002
        52.000
  30737928.586 7                   5848965.795
        44.000
 195184686.698 7                  37142409.331
        46.750
 123271377.204 7                  23457765.123
        42.750
 105161963.699 7                  19665818.077
        42.250
 110960296.856 6                  20742861.034
        40.750
 204012481.308 7                  38822287.178
        43.250
 191219043.097 7                  36387619.114
        47.250
 122710445.483 7                  23020167.841
        44.000
 121966800.154 6                  22856521.386
        36.250
                                  28688364.176
        32.000
 124116427.211 7                  23226692.657
        45.000
 130971992.397 3                  24535483.309
        23.500
 117805657.489 7                  21999378.054
        46.750
 127442489.394 6                  23815674.769
        41.750
 21 10 13 12 43 30.0000000  0 29G17G02E19G19G06G07G20G09G05G30G13E09
                                E11E04R05S48S36E12R20R19S23S25R14R06
                                E05R15R18R04R21
 125872384.848 6  98082371.98046  23952730.423    23952730.115    23952736.355
        40.000          37.500
 117548423.318 7  91596165.15846  22368720.782    22368719.767    22368718.347
        46.500          37.750


 120440331.986 7  93849596.79045  22919038.610    22919037.394    22919038.742
        44.000          32.750
 105996718.833 8  82594854.34849  20170505.332    20170505.172    20170507.303
        51.500          57.000
 114432230.428 7  89167974.26748  21775727.686    21775727.311    21775727.288
        47.500          50.000
 119306437.594 7  92966057.19944  22703260.134    22703259.057    22703258.886
        43.500          29.750
 113864358.112 7  88725476.88548  21667667.489    21667667.056    21667668.794
        47.000          50.500
 131791069.107 6 102694344.40043  25079006.273    25079006.126    25079006.669
        36.500          20.750
 118148930.122 7  92064126.79947  22482989.216    22482988.403    22482992.015
        45.500          47.500
 128718739.515 6 100300381.40543  24494353.474    24494353.090    24494358.099
        36.500          19.750
 120096717.030 7                  22853644.437
        47.000
 114042992.488 7                  21701660.247
        45.000
 126014723.434 8                  23979805.131
        48.250
 108243278.876 8                  20249144.428
        52.000
  30737883.060 7                   5848948.592
        44.000
 195184723.385 7                  37142415.479
        46.750
 123340875.522 7                  23470990.525
        42.250
 105131443.581 7                  19660110.588
        42.000
 111066422.181 6                  20762699.391
        40.250
 204012652.468 7                  38822318.694
        43.250
 191221984.965 7                  36388130.851
        47.250
 122678021.384 7                  23014085.124
        43.000
 121908126.490 6                  22845526.274
        36.750
 150692897.72114                  28675903.681
        28.750
 124023630.185 7                  23209326.791
        44.750
 131106156.516 5                  24560617.137
        35.750
 117879610.188 7                  22013188.175
        47.250
 127319704.228 6                  23792729.060
        40.750
 21 10 13 12 44  0.0000000  0 29G17G02E19G19G06G07G20G09G05G30G13E09
                                E11E04R05S48S36E12R20R19S23S25R14R06
                                E05R15R18R04R21
 125968542.398 6  98157299.50346  23971028.953    23971028.649    23971035.129
        38.750          37.750
 117475873.987 7  91539633.21746  22354915.131    22354914.121    22354912.637
        46.250          37.500


 120538162.067 7  93925827.85945  22937655.009    22937653.789    22937655.524
        43.500          32.750
 105997228.086 8  82595251.15349  20170602.136    20170601.980    20170604.315
        51.250          56.750
 114403589.868 7  89145656.97248  21770277.552    21770277.177    21770277.154
        47.000          49.750
 119240715.358 7  92914845.07145  22690753.450    22690752.364    22690752.554
        43.750          30.500
 113936703.124 7  88781849.59448  21681434.301    21681433.868    21681435.819
        46.750          50.500
 131719234.128 6 102638369.13243  25065334.981    25065334.838    25065336.856
        36.500          21.250
 118068022.063 7  92001081.61947  22467592.768    22467591.950    22467595.865
        45.250          47.250
 128617997.798 6 100221881.60343  24475183.484    24475183.122    24475187.050
        36.000          19.500
 120064889.780 7                  22847588.025
        47.250
 114035564.720 7                  21700246.833
        45.500
 126048594.853 8                  23986250.533
        48.750
 108261702.205 8                  20252590.784
        52.250
  30737843.167 7                   5848934.417
        43.750
 195184759.327 7                  37142423.774
        46.500
 123410638.978 7                  23484265.791
        42.750
 105101723.776 7                  19654552.880
        42.250
 111173041.505 6                  20782630.860
        39.500
 204012823.838 7                  38822352.996
        43.000
 191224930.365 7                  36388645.356
        46.750
 122646172.100 7                  23008109.739
        42.000
 121849675.219 6                  22834572.767
        36.000
 150627542.839 6                  28663468.071
        36.750
 123930946.220 7                  23191981.632
        45.500
 131240286.323 6                  24585745.217
        39.000
 117953517.758 7                  22026989.933
        46.750
 127197151.883 6                  23769826.981
        38.250
 21 10 13 12 44 30.0000000  0 28G17G02G19G06G07G20G09G05G30G13E09E11
                                E04R05S48S36E12R20R19S23S25R14R06E05
                                R15R18R04R21
 126064645.797 6  98232184.83346  23989316.949    23989316.663    23989322.898
        39.500          37.000
 117403582.350 7  91483302.08046  22341158.405    22341157.395    22341155.954
        46.500          37.750
 120636119.087 7  94002157.84345  22956296.114    22956294.889    22956296.234
        43.500          33.000
 105998258.966 8  82596054.41749  20170798.413    20170798.257    20170800.481
        51.500          57.000
 114375396.654 7  89123688.26048  21764912.705    21764912.334    21764912.276
        47.750          50.000
 119174997.767 7  92863636.57045  22678247.526    22678246.453    22678247.483
        44.000          31.750
 114009256.882 7  88838384.96448  21695240.731    21695240.302    21695242.088
        46.750          50.250
 131647365.285 6 102582367.46343  25051659.880    25051659.760    25051660.899
        37.250          21.250
 117987346.203 7  91938217.37947  22452240.626    22452239.817    22452243.806
        45.750          47.750
 128517425.727 6 100143514.05143  24456045.335    24456044.973    24456048.711
        36.500          18.250
 120033290.149 7                  22841574.801
        47.750
 114028529.169 7                  21698908.031
        46.000
 126082615.805 8                  23992724.473
        48.750
 108280330.456 8                  20256075.743
        52.000
  30737804.632 7                   5848920.349
        43.750
 195184794.548 7                  37142429.949
        46.750
 123480664.831 7                  23497591.347
        43.000
 105072804.331 7                  19649144.870
        42.500
 111280149.521 6                  20802653.408
        39.250
 204012995.143 7                  38822384.056
        43.250
 191227880.696 7                  36389159.963
        47.000
 122614898.871 7                  23002243.059
        43.250
 121791443.948 6                  22823661.268
        37.500
 150562310.670 5                  28651053.587
        32.000
 123838377.751 7                  23174658.959
        46.000
                                  24610863.669
        26.000
 118027377.500 7                  22040782.257
        46.500
 127074834.958 6                  23746969.197
        41.500
 21 10 13 12 45  0.0000000  0 27G17G02G19G06G07G20G09G05G30G13E09E11
                                E04R05S48S36E12R20R19S23S25R14R06E05
                                R15R04R21
 126160699.112 6  98307031.11246  24007596.032    24007595.764    24007601.867
        39.500          37.500
 117331557.218 7  91427178.60446  22327452.625    22327451.610    22327449.581
        46.750          37.500
 120734206.215 7  94078589.21245  22974961.377    22974960.157    22974961.529
        43.250          32.250
 105999818.736 8  82597269.80449  20171095.156    20171095.004    20171097.361
        51.750          56.750
 114347658.440 8  89102074.09048  21759634.053    21759633.669    21759633.727
        48.250          50.000
 119109291.258 7  92812436.71145  22665744.151    22665743.069    22665743.878
        44.000          31.000
 114082023.528 7  88895086.22048  21709087.837    21709087.408    21709089.232
        47.250          50.250
 131575468.471 6 102526343.96743  25037977.469    25037977.335    25037978.799
        38.000          21.250
 117906911.682 7  91875541.19047  22436934.391    22436933.582    22436937.402
        46.000          47.250
 128417031.126 6 100065284.73843  24436940.636    24436940.310    24436943.896
        37.250          18.000
 120001924.012 7                  22835605.959
        47.750
 114021892.941 7                  21697645.287
        45.750
 126116791.360 8                  23999227.948
        48.750
 108299168.084 8                  20259599.819
        52.000
  30737775.403 7                   5848905.754
        43.750
 195184842.289 7                  37142438.361
        46.750
 123550958.312 7                  23510968.056
        42.750
 105044693.947 7                  19643888.279
        42.500
 111387748.142 6                  20822768.235
        39.250
 204013171.607 7                  38822417.928
        43.000
 191229243.821 7                  36389677.943
        46.750
 122584210.901 7                  22996486.522
        44.000
 121733438.456 6                  22812789.459
        36.250
 150497207.831 5                  28638665.580
        35.000
 123745936.084 7                  23157359.013
        45.500
 118101194.782 7                  22054567.646
        47.000
 126952763.885 7                  23724158.094
        43.750
 21 10 13 12 45 30.0000000  0 27G17G02G19G06G07G20G09G05G30G13E09E11
                                E04R05S48S36E12R20R19S23S25R14R06E05
                                R15R04R21
 126256690.116 6  98381828.82746  24025862.943    24025862.702    24025868.584
        40.000          37.250
 117259791.321 7  91371257.13146  22313796.163    22313795.148    22313793.143
        47.000          37.750
 120832410.209 7  94155111.62745  22993648.790    22993647.574    22993649.325
        42.250          32.250
 106001898.491 8  82598890.37549  20171490.941    20171490.789    20171492.983
        51.500          57.000
 114320366.974 8  89080808.03948  21754440.738    21754440.363    21754440.165
        48.000          50.000
 119043586.219 7  92761237.98745  22653240.547    22653239.470    22653239.929
        42.750          30.250
 114154990.995 7  88951943.95748  21722973.145    21722972.721    21722974.604
        47.250          50.750
 131503533.683 6 102470290.90443  25024289.628    25024289.476    25024290.715
        36.500          20.000
 117826711.507 7  91813047.61047  22421672.708    22421671.904    22421675.575
        46.000          47.500
 128316805.732 6  99987187.27943  24417867.922    24417867.618    24417871.151
        37.500          18.250
 119970781.088 8                  22829679.583
        48.000
 114015647.037 7                  21696456.724
        46.000
 126151110.447 8                  24005758.453
        49.000
 108318203.287 8                  20263160.525
        51.750
  30736144.307 7                   5848891.499
        43.500
 195184876.688 7                  37142445.783
        46.500
 123621508.451 7                  23524393.150
        42.750
 105017384.000 7                  19638780.861
        42.250
 111495823.719 6                  20842972.579
        39.750
 204013343.500 7                  38822450.732
        43.000
 191232208.375 7                  36390193.060
        46.750
 122554100.653 7                  22990837.624
        44.000
 121675647.808 6                  22801959.059
        36.750
 150432231.51015                  28626300.852
        33.750
 123653615.302 7                  23140083.022
        45.000
 118174958.402 7                  22068342.290
        47.500
 126830932.843 6                  23701390.978
        41.500
 21 10 13 12 46  0.0000000  0 27G17G02G19G06G07G20G09G05G30G13E09E11
                                E04R05S48S36E12R20R19S23S25R14R06E05
                                R15R04R21
 126352619.670 6  98456578.64446  24044118.109    24044117.868    24044124.099
        38.500          37.250
 117188291.131 7  91315542.70046  22300190.054    22300189.039    22300187.150
        46.750          38.000
 120930732.032 6  94231725.86945  23012359.067    23012357.856    23012359.220
        41.750          32.000
 106004503.474 8  82600920.21549  20171986.881    20171986.729    20171988.636
        51.250          57.000
 114293528.049 8  89059894.60948  21749333.416    21749333.027    21749332.772
        48.000          50.000
 118977888.027 7  92710044.61045  22640738.491    22640737.409    22640738.073
        43.000          30.750
 114228161.398 7  89008959.83248  21736896.911    21736896.496    21736898.423
        46.750          50.250
 131431565.175 6 102414211.55743  25010594.136    25010593.980    25010594.980
        37.750          20.750
 117746752.791 7  91750742.17647  22406456.781    22406455.981    22406459.878
        46.000          47.750
 128216755.478 6  99909226.28443  24398828.221    24398827.917    24398831.828
        38.000          18.250
 119939865.169 7                  22823796.387
        47.250
 114009796.469 7                  21695343.340
        45.500
 126185576.076 8                  24012317.252
        48.500
 108337438.471 8                  20266758.983
        51.750
  30736115.494 7                   5848875.893
        44.250
 195184906.259 7                  37142452.370
        47.000
 123692318.409 7                  23537867.900
        42.000
 104990880.688 7                  19633824.320
        42.500
 111604376.389 6                  20863264.976
        40.000
 204013515.746 7                  38822481.457
        43.500
 191235183.352 7                  36390714.577
        47.000
 122524575.354 7                  22985299.159
        44.250
 121618075.746 6                  22791170.992
        36.250
 150367373.013 4                  28613956.871
        29.750
 123561424.081 7                  23122829.498
        44.000
 118248671.617 7                  22082108.181
        47.000
 126709350.349 6                  23678669.439
        41.250
 21 10 13 12 46 30.0000000  0 27G17G02G19G06G07G20G09G05G30G13E09E11
                                E04R05S48S36E12R20R19S23S25R14R06E05
                                R15R04R21
 126448486.819 6  98531279.81046  24062361.055    24062360.814    24062367.957
        39.000          37.750
 117117060.875 7  91260038.61046  22286635.319    22286634.304    22286632.593
        46.750          38.000
 121029170.004 7  94308430.60845  23031091.182    23031089.962    23031091.535
        42.750          32.000
 106007636.017 8  82603361.13849  20172582.879    20172582.723    20172584.735
        51.750          57.000
 114267144.342 7  89039335.89148  21744312.718    21744312.325    21744312.151
        47.750          50.000
 118912198.673 7  92658858.10945  22628238.276    22628237.208    22628238.609
        43.250          30.750
 114301534.056 7  89066133.31048  21750859.257    21750858.842    21750860.671
        47.500          50.000
 131359564.462 6 102358107.10543  24996893.493    24996893.364    24996893.338
        37.000          21.750
 117667039.947 7  91688628.33347  22391288.104    22391287.313    22391291.043
        46.250          47.750
 128116883.562 6  99831404.28743  24379823.781    24379823.468    24379826.506
        39.000          18.750
 119909177.364 7                  22817956.842
        47.250
 114004343.542 7                  21694305.660
        45.750
 126220188.568 8                  24018903.706
        48.750
 108356873.173 8                  20270394.743
        51.750
  30736092.539 7                   5848861.762
        44.000
 195184938.810 7                  37142459.333
        46.750
 123763388.602 7                  23551392.090
        42.000
 104965187.464 7                  19629020.110
        42.250
 111713403.863 6                  20883646.784
        40.000
 204013689.576 7                  38822514.605
        43.500
 191238159.616 7                  36391236.549
        47.500
 122495638.947 7                  22979869.935
        44.250
 121560723.101 6                  22780424.219
        37.000
 150302640.558 5                  28601639.588
        33.250
 123469368.767 7                  23105603.449
        46.500
 118322335.153 7                  22095864.257
        46.750
 126588022.095 7                  23655997.136
        42.500
 21 10 13 12 47  0.0000000  0 27G17G02G19G06G07G20G09G05G30G13E09E11
                                E04R05S48S36E12R20R19S23S25R14R06E05
                                R15R04R21
 126544290.826 6  98605931.77146  24080592.581    24080592.349    24080599.102
        39.250          37.500
 117046104.405 7  91204747.86046  22273132.809    22273131.799    22273129.898
        46.750          38.000
 121127722.506 7  94385224.59445  23049845.433    23049844.208    23049845.650
        43.500          32.000
 106011298.831 8  82606215.26549  20173279.821    20173279.665    20173281.928
        51.500          56.750
 114241219.340 8  89019134.61448  21739379.476    21739379.087    21739378.976
        48.000          49.750
 118846520.276 7  92607680.15245  22615740.364    22615739.296    22615739.695
        43.250          31.250
 114375108.568 7  89123464.08648  21764860.248    21764859.828    21764861.724
        47.000          50.250
 131287533.015 6 102301978.73643  24983186.625    24983186.478    24983187.498
        37.500          21.750
 117587577.563 7  91626709.64747  22376166.865    22376166.074    22376169.893
        45.750          47.750
 128017193.397 6  99753723.89543  24360852.779    24360852.466    24360856.519
        38.500          20.000
 119878718.941 7                  22812160.799
        47.250
 113999290.806 7                  21693344.193
        45.500
 126254948.424 8                  24025518.365
        48.500
 108376507.344 8                  20274067.727
        51.500
  30736076.550 7                   5848849.711
        44.000
 195184980.028 7                  37142467.905
        46.500
 123834719.657 7                  23564966.051
        42.000
 104940307.487 7                  19624367.678
        42.250
 111822904.155 6                  20904115.987
        39.250
 204013865.822 7                  38822549.063
        43.000
 191241151.302 7                  36391759.581
        47.250
 122467295.885 7                  22974552.972
        43.750
 121503591.061 6                  22769716.775
        37.750
 150238036.587 5                  28589344.287
        30.500
 123377455.493 7                  23088402.782
        46.250
 118395949.682 7                  22109610.870
        47.000
 126466954.186 7                  23633372.860
        42.250
 21 10 13 12 47 30.0000000  0 27G17G02G19G06G07G20G09G05G30G13E09E11
                                E04R05S48S36E12R20R19S23S25R14R06E05
                                R15R04R21
 126640018.519 6  98680524.23346  24098809.223    24098808.991    24098816.260
        39.000          37.500
 116975413.646 7  91149664.15246  22259680.752    22259679.751    22259677.590
        46.750          37.750
 121226375.899 7  94462097.19645  23068618.741    23068617.516    23068618.970
        43.500          32.250
 106015482.181 8  82609475.00449  20174076.018    20174075.866    20174078.047
        51.250          56.750
 114215744.038 7  88999283.73148  21734531.402    21734531.005    21734531.196
        47.500          49.750
 118780843.061 7  92556503.13245  22603242.030    22603240.971    22603241.577
        43.750          31.500
 114448872.184 7  89180942.19948  21778896.987    21778896.567    21778898.827
        46.500          50.000
 131215460.034 5 102245817.99543  24969471.712    24969471.601    24969472.012
        35.500          21.750
 117508357.917 7  91564980.09947  22361091.867    22361091.080    22361094.869
        45.750          47.750
 127917675.828 6  99676177.96143  24341915.697    24341915.362    24341917.266
        39.500          19.750
 119848478.872 7                  22806406.217
        47.000
 113994628.397 7                  21692457.001
        45.000
 126289843.819 8                  24032158.668
        48.250
 108396328.254 8                  20277775.733
        52.000
  30736055.766 7                   5848834.664
        43.750
 195185022.492 7                  37142473.356
        46.250
 123906299.846 7                  23578587.471
        42.000
 104916231.880 7                  19619865.001
        42.250
 111932862.107 6                  20924673.256
        39.000
 204014034.522 7                  38822581.532
        42.750
 191244143.132 7                  36392282.609
        47.000
 122439538.083 7                  22969346.080
        44.250
 121446667.962 6                  22759048.133
        36.750
 150173550.814 5                  28577074.714
        35.500
 123285677.608 7                  23071227.806
        45.750
 118469503.377 7                  22123346.746
        47.000
 126346139.839 6                  23610794.939
        41.750
 21 10 13 12 48  0.0000000  0 27G17G02G19G06G07G20G09G05G30G13E09E11
                                E04R05S48S36E12R20R19S23S25R14R06E05
                                R15R04R21
 126735681.371 6  98755066.19146  24117013.520    24117013.275    24117020.347
        39.500          37.000
 116905005.132 7  91094800.37946  22246282.288    22246281.287    22246279.517
        46.750          38.000
 121325140.811 7  94539056.70845  23087412.990    23087411.765    23087413.580
        44.000          33.000
 106020201.044 8  82613152.02449  20174973.852    20174973.700    20174976.002
        51.250          57.000
 114190733.652 7  88979795.16048  21729771.972    21729771.579    21729771.722
        47.250          49.750
 118715181.546 7  92505338.33545  22590747.397    22590746.342    22590746.866
        43.250          31.500
 114522836.835 7  89238576.96648  21792971.858    21792971.429    21792973.853
        46.750          50.250
 131143360.053 6 102189636.21043  24955750.123    24955750.016    24955751.365
        38.500          21.750
 117429398.002 7  91503452.94548  22346066.121    22346065.334    22346069.238
        45.750          48.000
 127818346.595 6  99598778.82043  24323013.708    24323013.382    24323016.326
        40.000          20.750
 119818470.808 7                  22800695.856
        47.250
 113990371.171 7                  21691646.957
        45.250
 126324887.658 8                  24038827.343
        48.250
 108416348.325 8                  20281520.872
        52.000
  30736045.322 7                   5848820.002
        44.000
 195185068.748 7                  37142481.878
        46.500
 123978142.171 7                  23592258.635
        42.000
 104892976.513 7                  19615515.885
        42.250
 112043288.387 6                  20945315.143
        39.250
 204014210.020 7                  38822616.035
        43.000
 191245545.196 7                  36392808.991
        47.000
 122412382.439 7                  22964251.760
        44.250
 121389967.645 6                  22748423.922
        37.500
 150109197.520 6                  28564829.234
        37.500
 123194054.142 7                  23054080.946
        45.500
 118543009.843 7                  22137073.578
        46.750
 126225597.745 6                  23588269.515
        41.750
 21 10 13 12 48 30.0000000  0 27G17G02G19G06G07G20G09G05G30G13E09E11
                                E04R05S48S36E12R20R19S23S25R14R06E05
                                R15R04R21
 126831268.875 6  98829549.39646  24135204.292    24135204.038    24135210.760
        38.500          36.500
 116834873.318 7  91040152.22246  22232936.633    22232935.641    22232934.327
        46.750          38.250
 121424006.727 7  94616094.91845  23106227.092    23106225.881    23106227.436
        44.250          32.750
 106025448.332 8  82617240.80549  20175972.466    20175972.310    20175974.583
        51.000          56.750
 114166181.784 7  88960663.85648  21725100.057    21725099.664    21725099.690
        47.250          50.000
 118649528.376 7  92454180.03945  22578254.005    22578252.950    22578253.627
        43.000          31.250
 114596992.530 7  89296360.60148  21807083.455    21807083.035    21807084.841
        46.500          50.000
 131071224.820 6 102133426.96643  24942024.115    24942023.995    24942025.067
        36.000          21.000
 117350692.754 7  91442124.23048  22331089.000    22331088.222    22331092.052
        45.750          48.000
 127719199.615 6  99521521.68443  24304145.522    24304145.192    24304149.701
        38.750          21.500
 119788686.411 7                  22795028.101
        47.250
 113986512.054 7                  21690912.530
        45.500
 126360070.867 8                  24045522.335
        48.750
 108436557.655 8                  20285301.471
        51.750
  30736038.216 7                   5848807.276
        44.000
 195185103.914 7                  37142488.608
        46.750
 124050237.584 7                  23605977.801
        42.250
 104870535.110 7                  19611319.951
        42.000
 112154170.779 6                  20966044.402
        39.500
 204014384.892 7                  38822647.600
        43.250
 191248548.226 7                  36393337.130
        47.250
 122385823.541 7                  22959268.870
        43.750
 121333481.200 6                  22737838.034
        36.750
 150044969.561 5                  28552605.107
        32.000
 123102581.551 7                  23036963.552
        45.750
 118616459.830 7                  22150789.349
        46.750
 126105324.054 7                  23565793.247
        43.250
 21 10 13 12 49  0.0000000  0 27G17G02G19G06G07G20G09G05G30G13E09E11
                                E04R05S48S36E12R20R19S23S25R14R06E05
                                R15R04R21
 126926778.412 6  98903971.84045  24153378.868    24153378.600    24153386.010
        39.000          35.750
 116765020.555 7  90985721.50446  22219644.134    22219643.137    22219641.217
        46.750          37.750
 121522969.868 7  94693208.88945  23125059.253    23125058.051    23125059.509
        44.250          32.500
 106031224.768 8  82621741.91049  20177071.847    20177071.695    20177073.716
        51.250          56.750
 114142089.610 7  88941890.76148  21720515.479    21720515.099    21720514.918
        47.750          49.750
 118583883.981 7  92403028.58045  22565762.127    22565761.081    22565761.528
        44.250          31.000
 114671336.940 7  89354291.29148  21821230.564    21821230.149    21821231.762
        46.250          49.250
 130999054.158 6 102077190.12343  24928289.926    24928289.774    24928291.011
        38.750          21.000
 117272244.930 7  91380996.10847  22316160.833    22316160.051    22316163.862
        45.500          47.750
 127620236.469 6  99444407.76843  24285313.378    24285313.048    24285317.140
        39.750          22.250
 119759125.060 7                  22789402.700
        46.750
 113983051.612 7                  21690254.059
        45.250
 126395392.062 8                  24052243.846
        48.500
 108456954.491 8                  20289117.075
        52.000
  30736031.722 7                   5848794.478
        44.000
 195185133.826 7                  37142497.350
        46.750
 124122584.837 6                  23619745.237
        41.750
 104848908.865 7                  19607275.774
        42.000
 112265505.088 6                  20986856.415
        39.500
 204014558.839 7                  38822681.902
        43.250
 191251563.880 7                  36393866.064
        47.250
 122359863.446 7                  22954398.183
        42.500
 121277207.732 6                  22727291.533
        36.000
 149980866.896 6                  28540408.483
        38.500
 123011264.039 7                  23019874.471
        45.500
 118689852.612 7                  22164495.146
        46.500
 125985322.865 7                  23543368.047
        43.250
 21 10 13 12 49 30.0000000  0 27G17G02G19G06G07G20G09G05G30G13E09E11
                                E04R05S48S36E12R20R19S23S25R14R06E05
                                R15R04R21
 127022210.834 6  98978334.17046  24171539.599    24171539.322    24171546.772
        39.500          36.000
 116695452.993 7  90931513.01746  22206405.855    22206404.854    22206402.920
        47.000          38.000
 121622030.515 7  94770398.84645  23143909.946    23143908.753    23143910.018
        44.250          32.000
 106037534.659 8  82626658.69449  20178272.442    20178272.290    20178274.419
        51.250          56.750
 114118462.282 8  88923479.88448  21716019.224    21716018.831    21716018.751
        48.000          50.000
 118518253.044 7  92351887.59345  22553272.928    22553271.869    22553272.089
        43.750          30.750
 114745871.490 7  89412370.13748  21835414.104    21835413.689    21835415.485
        46.750          50.000
 130926851.504 6 102020928.35043  24914549.849    24914549.697    24914551.928
        37.500          21.500
 117194060.886 7  91320073.53247  22301283.049    22301282.262    22301285.831
        46.000          47.750
 127521462.144 6  99367441.01443  24266517.045    24266516.759    24266521.100
        40.250          22.750
 119729789.809 7                  22783820.399
        47.250
 113979994.031 7                  21689672.242
        45.500
 126430853.601 8                  24058992.019
        48.750
 108477540.235 8                  20292968.139
        51.750
  30736032.367 7                   5848781.908
        44.000
 195185178.256 7                  37142504.366
        46.750
 124195186.273 7                  23633560.778
        42.000
 104828102.982 7                  19603384.041
        42.000
 112377290.901 6                  21007753.990
        39.500
 204014736.137 7                  38822713.887
        43.250
 191254587.165 7                  36394396.537
        47.000
 122334508.540 7                  22949642.324
        42.750
 121221149.992 6                  22716786.821
        36.250
 149916893.601 5                  28528232.853
        33.250
 122920109.832 7                  23002815.490
        44.500
 118763190.705 7                  22178191.089
        47.250
 125865601.975 7                  23520995.854
        43.500
 21 10 13 12 50  0.0000000  0 27G17G02G19G06G07G20G09G05G30G13E09E11
                                E04R05S48S36E12R20R19S23S25R14R06E05
                                R15R04R21
 127117558.238 6  99052630.23145  24189683.761    24189683.498    24189691.324
        39.000          35.500
 116626167.025 7  90877523.95646  22193221.143    22193220.142    22193218.520
        46.500          38.000
 121721180.451 7  94847658.38145  23162777.425    23162776.218    23162777.493
        43.500          31.500
 106044373.389 8  82631987.56249  20179573.708    20179573.556    20179575.795
        51.250          57.000
 114095295.503 7  88905427.86948  21711610.662    21711610.269    21711610.505
        47.250          50.250
 118452630.363 7  92300753.04145  22540785.525    22540784.461    22540784.555
        43.750          30.750
 114820588.683 7  89470591.29348  21849632.210    21849631.799    21849634.087
        46.500          50.000
 130854611.275 6 101964637.29643  24900803.055    24900802.903    24900804.756
        37.750          21.500
 117116138.089 7  91259354.51647  22286454.732    22286453.941    22286457.389
        45.250          47.750
 127422872.870 6  99290618.44743  24247755.942    24247755.706    24247760.228
        39.500          23.750
 119700674.809 7                  22778279.966
        47.250
 113977334.743 7                  21689166.135
        45.500
 126466448.883 8                  24065765.646
        48.500
 108498307.930 8                  20296852.783
        51.750
  30736033.827 7                   5848767.272
        44.000
 195185213.413 7                  37142511.472
        46.500
 124268035.355 7                  23647423.638
        42.000
 104808113.297 7                  19599646.258
        42.250
 112489518.585 6                  21028733.346
        39.750
 204014910.019 7                  38822749.110
        43.250
 191257618.186 7                  36394928.339
        47.000
 122309755.602 7                  22944998.893
        44.000
 121165301.883 6                  22706320.703
        36.500
 149853044.349 5                  28516084.766
        35.250
 122829117.900 7                  22985787.497
        44.000
 118836467.585 7                  22191874.658
        46.250
 125746160.002 7                  23498675.098
        43.250
 21 10 13 12 50 30.0000000  0 27G17G02G19G06G07G20G09G05G30G13E09E11
                                E04R05S48S36E12R20R19S23S25R14R06E05
                                R15R04R21
 127212818.130 6  99126858.10346  24207811.350    24207811.091    24207818.906
        39.000          36.000
 116557165.683 7  90823756.68146  22180090.723    22180089.726    22180087.609
        47.000          38.250
 121820416.491 7  94924984.99845  23181661.402    23181660.177    23181661.902
        43.500          31.250
 106051741.849 8  82637729.20749  20180975.991    20180975.844    20180978.145
        51.500          57.000
 114072590.860 8  88887735.95848  21707290.331    21707289.942    21707289.817
        48.250          50.000
 118387016.787 7  92249625.57945  22528299.484    22528298.411    22528298.721
        43.750          31.000
 114895486.516 7  89528953.21348  21863884.790    21863884.379    21863886.338
        46.750          49.250
 130782333.851 6 101908317.30343  24887049.342    24887049.199    24887050.805
        36.500          21.500
 117038479.497 7  91198841.37448  22271676.706    22271675.911    22271679.343
        46.000          48.000
 127324470.246 6  99213941.31643  24229030.903    24229030.626    24229033.883
        39.250          22.500
 119671779.669 7                  22772781.395
        47.750
 113975074.430 7                  21688736.025
        45.750
 126502176.855 8                  24072564.438
        48.500
 108519255.189 8                  20300771.639
        51.750
  30736035.191 7                   5848751.604
        44.000
 195185248.324 7                  37142517.531
        46.750
 124341131.045 7                  23661333.172
        42.250
 104788941.467 7                  19596060.813
        42.250
 112602184.039 6                  21049795.531
        40.000
 204015080.760 7                  38822782.965
        43.500
 191260651.691 7                  36395458.959
        47.000
 122285607.231 7                  22940468.518
        44.500
 121109662.773 6                  22695894.716
        37.250
 149789319.783 5                  28503958.065
        34.500
 122738292.865 7                  22968789.877
        44.500
 118909682.714 7                  22205546.879
        45.750
 125627001.501 7                  23476407.320
        42.250
 21 10 13 12 51  0.0000000  0 27G17G02G19G06G07G20G09G05G30G13E09E11
                                E04R05S48S36E12R20R19S23S25R14R06E05
                                R15R04R21
 127307995.549 6  99201021.68345  24225924.301    24225924.047    24225931.048
        38.250          34.500
 116488458.969 7  90770218.98746  22167016.139    22167015.133    22167013.444
        47.250          38.000
 121919742.839 7  95002381.99445  23200562.942    23200561.726    23200562.784
        43.250          30.500
 106059648.493 8  82643890.21549  20182480.649    20182480.497    20182482.650
        51.250          56.750
 114050357.480 7  88870411.26748  21703059.311    21703058.922    21703058.853
        47.750          49.750
 118321420.591 7  92198511.66545  22515817.051    22515815.978    22515816.334
        44.000          31.250
 114970570.621 7  89587460.28948  21878173.125    21878172.714    21878173.923
        46.750          48.750
 130710026.814 6 101851974.19443  24873289.562    24873289.419    24873292.338
        37.750          21.500
 116961095.719 7  91138542.37047  22256950.878    22256950.083    22256953.807
        45.750          47.750
 127226263.813 6  99137417.05843  24210342.243    24210341.948    24210345.845
        39.250          22.250
 119643111.655 7                  22767326.147
        47.500
 113973221.617 7                  21688383.349
        45.500
 126538044.013 8                  24079389.659
        48.750
 108540388.571 8                  20304725.228
        52.250
  30736044.257 7                   5848738.806
        44.000
 195185290.353 7                  37142525.343
        46.750
 124414479.934 7                  23675291.381
        42.000
 104770596.376 7                  19592630.655
        42.250
 112715291.830 6                  21070940.610
        39.500
 204015257.297 7                  38822815.071
        43.250
 191263695.384 7                  36395994.105
        47.000
 122262073.665 7                  22936053.505
        44.000
 121054239.649 6                  22685507.859
        36.500
 149725728.069 5                  28491856.026
        35.750
 122647646.944 7                  22951827.380
        43.000
 118982843.053 7                  22219209.929
        46.500
 125508138.355 7                  23454193.730
        42.000
 21 10 13 12 51 30.0000000  0 27G17G02G19G06G07G20G09G05G30G13E09E11
                                E04R05S48S36E12R20R19S23S25R14R06E05
                                R15R04R21
 127403080.473 6  99275113.18945  24244018.447    24244018.202    24244025.495
        38.250          33.000
 116420041.584 7  90716906.74346  22153996.891    22153995.890    22153994.212
        47.250          38.500
 122019148.846 7  95079841.05345  23219479.297    23219478.086    23219479.787
        42.750          30.750
 106068086.133 8  82650464.98749  20184086.301    20184086.154    20184088.293
        51.500          57.000
 114028588.831 8  88853448.69948  21698916.773    21698916.389    21698916.244
        48.000          50.000
 118255834.785 7  92147405.86645  22503336.479    22503335.406    22503336.044
        44.000          31.750
 115045830.956 7  89646104.69048  21892494.481    21892494.066    21892495.680
        46.750          49.500
 130637681.857 6 101795601.57543  24859522.684    24859522.532    24859524.087
        37.250          21.250
 116883981.637 7  91078453.52648  22242276.678    22242275.887    22242279.744
        46.000          48.500
 127128247.099 6  99061040.62143  24191690.102    24191689.785    24191693.768
        38.500          22.250
 119614662.362 7                  22761912.443
        47.000
 113971768.993 7                  21688107.040
        45.000
 126574041.263 8                  24086239.892
        48.250
 108561698.093 8                  20308711.403
        52.000
  30736054.096 7                   5848725.431
        43.750
 195185328.397 7                  37142532.649
        46.500
 124488072.876 6                  23689295.561
        41.500
 104753071.653 7                  19589353.339
        42.750
 112828829.175 6                  21092164.715
        39.750
 204015431.623 7                  38822849.833
        43.000
 191265138.049 7                  36396529.269
        47.250
 122239149.252 7                  22931752.793
        44.000
 120999023.785 6                  22675160.418
        36.750
 149662261.425 6                  28479779.010
        37.000
 122557176.570 7                  22934897.040
        43.250
 119055939.521 7                  22232859.813
        46.250
 125389567.160 7                  23432036.531
        44.000
 21 10 13 12 52  0.0000000  0 27G17G02G19G06G07G20G09G05G30G13E09E11
                                E04R05S48S36E12R20R19S23S25R14R06E05
                                R15R04R21
 127498074.299 6  99349133.67845  24262096.228    24262095.978    24262103.670
        38.000          34.500
 116351920.235 7  90663825.17546  22141033.745    22141032.748    22141031.085
        47.000          38.500
 122118635.473 7  95157362.92545  23238411.081    23238409.870    23238412.002
        42.250          30.250
 106077059.947 8  82657457.55549  20185793.950    20185793.803    20185796.006
        51.250          57.000
 114007290.310 7  88836852.46648  21694864.077    21694863.680    21694863.129
        47.750          49.750
 118190264.219 7  92096311.93545  22490858.695    22490857.636    22490858.085
        44.000          31.250
 115121269.933 7  89704888.27748  21906850.025    21906849.610    21906851.597
        46.000          49.000
 130565303.733 6 101739203.08443  24845749.841    24845749.676    24845750.524
        37.750          21.000
 116807144.576 7  91018580.54648  22227654.768    22227653.977    22227658.388
        46.000          49.000
 127030426.481 6  98984816.98543  24173075.498    24173075.194    24173078.739
        37.000          21.750
 119586435.769 7                  22756541.231
        47.750
 113970721.754 7                  21687907.728
        45.500
 126610171.906 8                  24093115.138
        48.500
 108583186.500 8                  20312731.201
        52.000
  30736069.813 7                   5848713.555
        44.000
 195185364.123 7                  37142539.415
        46.750
 124561913.187 7                  23703346.880
        42.000
 104736373.117 7                  19586230.423
        42.500
 112942796.857 6                  21113469.649
        40.000
 204015607.910 7                  38822882.968
        43.500
 191268192.148 7                  36397065.962
        47.500
 122216840.800 7                  22927567.530
        43.250
 120944018.995 6                  22664852.382
        37.750
 149598924.810 5                  28467724.895
        33.750
 122466891.158 6                  22918000.361
        41.500
 119128976.078 7                  22246498.659
        46.500
 125271296.054 7                  23409934.307
        43.500
 21 10 13 12 52 30.0000000  0 27G17G02G19G06G07G20G09G05G30G13E09E11
                                E04R05S48S36E12R20R19S23S25R14R06E05
                                R15R04R21
 127592969.618 6  99423077.40645  24280154.607    24280154.362    24280162.653
        37.500          34.250
 116284092.603 7  90610972.47846  22128126.673    22128125.681    22128123.769
        47.000          38.500
 122218194.387 7  95234941.12945  23257356.401    23257355.190    23257357.350
        42.500          30.250
 106086565.728 8  82664864.64549  20187602.851    20187602.704    20187604.929
        51.250          57.250
 113986458.352 8  88820619.79048  21690899.724    21690899.327    21690899.000
        48.250          50.250
 118124704.814 7  92045226.69645  22478382.968    22478381.909    22478381.649
        43.500          31.000
 115196880.567 7  89763805.62848  21921238.153    21921237.742    21921240.062
        46.000          49.250
 130492887.843 6 101682775.14343  24831969.982    24831969.808    24831970.664
        37.000          21.000
 116730582.493 7  90958921.83048  22213085.743    22213084.956    22213088.961
        46.250          48.750
 126932798.542 6  98908743.48543  24154497.467    24154497.177    24154500.601
        37.750          22.000
 119558426.517 7                  22751211.173
        47.750
 113970075.658 7                  21687784.782
        45.500
 126646429.860 8                  24100014.789
        48.500
 108604846.787 8                  20316783.424
        52.000
  30736085.058 7                   5848699.433
        44.000
 195185402.044 7                  37142546.994
        46.750
 124635994.832 7                  23717444.404
        42.000
 104720497.430 7                  19583261.478
        42.500
 113057185.521 6                  21134854.037
        40.250
 204015781.446 7                  38822916.622
        43.250
 191271240.155 7                  36397604.694
        47.250
 122195145.722 7                  22923498.382
        43.000
 120889219.350 6                  22654583.691
        37.000
 149535713.574 6                  28455697.958
        36.750
 122376789.850 7                  22901139.601
        42.500
 119201946.997 7                  22260125.581
        46.750
 125153324.707 7                  23387889.250
        43.500
 21 10 13 12 53  0.0000000  0 27G17G02G19G06G07G20G09G05G30G13E09E11
                                E04R05S48S36E12R20R19S23S25R14R06E05
                                R15R04R21
 127687769.800 6  99496947.00245  24298194.850    24298194.573    24298203.526
        38.000          34.250
 116216566.269 7  90558354.56246  22115276.842    22115275.850    22115273.846
        47.250          38.500
 122317828.733 7  95312578.10145  23276316.481    23276315.265    23276317.740
        42.750          30.750
 106096609.674 8  82672691.08449  20189514.190    20189514.043    20189516.298
        51.500          57.000
 113966099.598 8  88804755.84648  21687025.784    21687025.387    21687025.202
        48.250          50.250
 118059162.960 7  91994155.13645  22465911.037    22465909.978    22465909.217
        43.750          31.000
 115272666.349 7  89822859.45948  21935660.107    21935659.696    21935661.550
        46.750          49.250
 130420439.317 6 101626321.78143  24818183.155    24818182.995    24818184.482
        36.250          21.500
 116654303.773 7  90899483.91448  22198570.452    22198569.661    22198573.300
        46.250          48.500
 126835370.201 6  98832825.52543  24135956.613    24135956.305    24135960.739
        39.250          22.500
 119530639.633 8                  22745923.391
        48.000
 113969836.824 7                  21687739.345
        45.500
 126682819.546 8                  24106939.590
        48.250
 108626683.280 8                  20320868.160
        52.250
  30736106.251 7                   5848687.682
        44.000
 195185444.198 7                  37142554.927
        46.500
 124710322.134 7                  23731588.189
        42.250
 104705450.527 7                  19580447.886
        42.250
 113171996.833 6                  21156316.422
        40.000
 204015957.940 7                  38822948.397
        43.000
 191274308.203 7                  36398144.513
        47.250
 122174071.912 7                  22919545.457
        44.500
 120834629.862 6                  22644352.390
        36.500
 149472633.590 5                  28443693.315
        33.250
 122286883.193 7                  22884314.981
        43.000
 119274856.790 7                  22273741.081
        46.500
 125035662.994 7                  23365900.849
        45.000
 21 10 13 12 53 30.0000000  0 27G17G02G19G06G07G20G09G05G30G13E09E11
                                E04R05S48S36E12R20R19S23S25R14R06E05
                                R15R04R21
 127782469.319 6  99570738.16145  24316216.439    24316216.118    24316224.925
        38.500          34.500
 116149340.992 7  90505971.23146  22102484.224    22102483.232    22102481.361
        47.000          38.500
 122417532.393 7  95390269.08145  23295289.696    23295288.498    23295290.719
        42.500          31.500
 106107189.238 8  82680934.88749  20191527.327    20191527.180    20191529.552
        51.250          57.000
 113946212.371 7  88789259.33348  21683240.996    21683240.599    21683240.703
        47.750          50.250
 117993636.166 7  91943095.31845  22453441.525    22453440.457    22453440.656
        44.000          32.000
 115348622.033 7  89882045.67748  21950113.805    21950113.399    21950115.274
        46.250          49.000
 130347955.009 6 101569840.57743  24804389.875    24804389.701    24804391.087
        36.500          21.000
 116578308.065 7  90840266.52348  22184108.742    22184107.951    22184111.514
        46.250          48.500
 126738139.932 6  98757061.86943  24117454.486    24117454.178    24117457.711
        39.500          22.500
 119503071.442 7                  22740677.275
        47.750
 113970002.788 7                  21687770.887
        45.250
 126719336.592 8                  24113888.519
        48.250
 108648690.555 8                  20324984.976
        52.000
  30736130.978 7                   5848674.325
        43.750
 195185481.876 7                  37142561.925
        46.500
 124784890.743 7                  23745778.182
        42.000
 104691230.626 7                  19577788.482
        42.500
 113287223.911 6                  21177856.528
        40.000
 204016133.562 7                  38822980.123
        43.000
 191277380.696 7                  36398686.192
        47.000
 122153618.287 7                  22915707.650
        44.250
 120780246.511 6                  22634162.003
        37.250
 149409682.140 6                  28431713.770
        36.000
 122197172.191 7                  22867527.276
        42.750
 119347701.650 7                  22287344.666
        47.500
 124918312.037 7                  23343970.813
        44.000
 21 10 13 12 54  0.0000000  0 27G17G02G19G06G07G20G09G05G30G13E09E11
                                E04R05S48S36E12R20R19S23S25R14R06E05
                                R15R04R21
 127877062.028 6  99644446.10045  24334216.716    24334216.350    24334225.827
        38.750          34.750
 116082415.402 7  90453821.42846  22089748.432    22089747.431    22089746.113
        47.500          38.500
 122517298.350 7  95468008.60945  23314274.845    23314273.652    23314275.314
        43.250          31.500
 106118301.578 8  82689593.84049  20193641.952    20193641.805    20193644.147
        51.500          57.000
 113926794.743 8  88774128.73848  21679546.088    21679545.686    21679545.488
        48.250          50.250
 117928121.829 7  91892045.20645  22440974.563    22440973.490    22440974.559
        44.250          32.500
 115424742.101 7  89941359.98248  21964598.919    21964598.508    21964600.536
        46.750          49.250
 130275431.231 6 101513328.55643  24790588.111    24790587.982    24790589.625
        36.750          20.750
 116502594.714 7  90781269.15348  22169700.988    22169700.193    22169703.696
        46.500          48.750
 126641105.983 6  98681451.21043  24098989.735    24098989.436    24098992.852
        40.500          22.750
 119475717.965 7                  22735472.246
        47.750
 113970570.671 7                  21687878.983
        45.500
 126755976.355 8                  24120860.844
        48.250
 108670863.392 8                  20329132.989
        51.750
  30736154.665 7                   5848660.620
        44.000
 195185518.463 7                  37142568.914
        46.500
 124859695.966 6                  23760013.195
        41.750
 104677835.455 7                  19575284.001
        42.250
 113402858.389 6                  21199473.389
        40.000
 204016304.956 7                  38823013.030
        43.250
 191280455.749 7                  36399227.911
        47.250
 122133783.662 7                  22911986.399
        43.250
 120726065.014 6                  22624007.530
        37.250
 149346855.920 6                  28419759.202
        36.250
 122107657.950 7                  22850774.815
        43.500
 119420477.254 7                  22300934.927
        47.250
 124801272.472 7                  23322099.812
        43.750
 21 10 13 12 54 30.0000000  0 27G17G02G19G06G07G20G09G05G30G13E09E11
                                E04R05S48S36E12R20R19S23S25R14R06E05
                                R15R04R21
 127971551.861 6  99718073.89445  24352198.574    24352198.217    24352207.021
        38.750          35.500
 116015798.557 7  90401912.20546  22077071.981    22077070.984    22077069.207
        47.500          38.500
 122617129.753 7  95545799.12145  23333272.278    23333271.071    23333272.846
        43.000          31.750
 106129953.721 8  82698673.42049  20195859.325    20195859.178    20195861.517
        51.250          57.000
 113907853.936 8  88759369.69048  21675941.699    21675941.315    21675941.320
        48.250          50.250
 117862626.787 7  91841010.13045  22428511.534    22428510.452    22428511.114
        43.750          32.500
 115501030.910 7  90000805.77048  21979116.241    21979115.821    21979118.151
        46.250          49.250
 130202874.813 6 101456791.09343  24776781.621    24776781.492    24776782.601
        36.750          21.000
 116427172.967 7  90722499.00648  22155348.578    22155347.778    22155351.509
        46.250          48.750
 126544276.182 6  98605999.59243  24080563.260    24080562.956    24080567.263
        41.250          23.500
 119448585.137 8                  22730308.895
        48.000
 113971547.538 7                  21688064.988
        45.500
 126792744.117 8                  24127857.513
        48.250
 108693206.659 8                  20333313.053
        52.250
  30736184.981 7                   5848648.484
        44.000
 195185557.960 7                  37142576.467
        46.750
 124934743.029 7                  23774294.355
        42.000
 104665272.259 7                  19572934.408
        42.250
 113518903.129 6                  21221167.778
        40.000
 204016480.007 7                  38823047.689
        43.250
 191283539.610 7                  36399772.090
        47.250
 122114576.815 7                  22908383.889
        44.250
 120672090.958 6                  22613893.083
        36.500
 149284161.791 5                  28407827.169
        35.750
 122018351.546 7                  22834062.442
        45.250
 119493189.711 7                  22314513.379
        46.500
 124684554.975 7                  23300287.222
        42.750
 21 10 13 12 55  0.0000000  0 27G17G02G19G06G07G20G09G05G30G13E09E11
                                E04R05S48S36E12R20R19S23S25R14R06E05
                                R15R04R21
 128065934.989 6  99791618.55645  24370159.206    24370158.853    24370167.852
        38.000          34.250
 115949491.071 7  90350244.03646  22064453.980    22064452.983    22064451.160
        47.250          38.250
 122717022.105 7  95623637.13545  23352280.932    23352279.721    23352281.557
        43.250          31.250
 106142144.793 8  82708172.94049  20198179.257    20198179.110    20198181.529
        51.250          56.750
 113889390.094 8  88744982.30348  21672428.240    21672427.856    21672427.577
        48.250          49.750
 117797150.514 7  91789989.68945  22416051.848    22416050.766    22416051.068
        44.500          32.500
 115577484.993 7  90060380.34948  21993664.976    21993664.547    21993666.937
        45.750          48.500
 130130284.410 6 101400227.17843  24762968.041    24762967.907    24762969.758
        37.250          21.000
 116352044.191 7  90663957.15248  22141051.996    22141051.196    22141054.971
        46.000          48.250
 126447650.591 6  98530707.08543  24062176.041    24062175.769    24062179.303
        41.250          22.750
 119421671.006 8                  22725187.268
        48.000
 113972932.511 7                  21688328.508
        45.250
 126829637.287 8                  24134877.953
        48.250
 108715716.920 8                  20337524.018
        52.000
  30736218.708 7                   5848635.386
        43.750
 195185597.029 7                  37142583.867
        46.500
 125010029.275 7                  23788620.929
        42.000
 104653541.023 7                  19570740.553
        42.250
 113635352.572 6                  21242935.946
        39.750
 204016656.800 7                  38823082.040
        43.000
 191285032.051 7                  36400317.145
        46.750
 122095998.248 7                  22904899.064
        45.000
 120618322.198 6                  22603817.103
        37.500
 149221598.490 6                  28395922.968
        38.000
 121929256.183 7                  22817389.195
        45.750
 119565836.583 7                  22328079.449
        47.250
 124568162.400 7                  23278536.920
        43.250
 21 10 13 12 55 30.0000000  0 27G17G02G19G06G07G20G09G05G30G13E09E11
                                E04R05S48S36E12R20R19S23S25R14R06E05
                                R15R04R21
 128160205.226 6  99865075.26146  24388098.888    24388098.544    24388107.622
        38.500          36.000
 115883492.133 7  90298816.30246  22051894.899    22051893.907    22051891.874
        47.500          39.000
 122816968.515 7  95701517.27645  23371300.272    23371299.056    23371301.152
        43.750          32.000
 106154871.753 8  82718090.03549  20200601.093    20200600.946    20200603.355
        51.250          57.500
 113871400.310 8  88730964.30948  21669005.068    21669004.675    21669004.313
        48.000          50.250
 117731690.103 7  91738981.58945  22403595.166    22403594.089    22403594.478
        44.750          33.500
 115654098.694 7  90120079.30248  22008244.007    22008243.583    22008245.790
        46.000          48.750
 130057656.140 6 101343633.76243  24749147.983    24749147.872    24749147.767
        36.250          21.750
 116277207.624 7  90605642.99448  22126810.987    22126810.187    22126813.967
        46.000          49.000
 126351227.204 6  98455572.14443  24043827.232    24043826.964    24043830.335
        41.250          23.750
 119394971.427 8                  22720106.522
        48.000
 113974722.539 7                  21688669.184
        45.750
 126866651.106 8                  24141921.579
        48.500
 108738388.939 8                  20341764.880
        51.750
  30736254.175 7                   5848623.063
        43.750
 195185629.975 7                  37142589.998
        46.500
 125085549.869 7                  23802992.077
        42.250
 104642638.856 7                  19568701.809
        42.250
 113752198.402 6                  21264779.187
        39.500
 204016831.964 7                  38823112.425
        43.250
 191288127.644 7                  36400864.176
        46.750
 122078046.460 7                  22901530.416
        44.250
 120564754.123 6                  22593778.944
        37.750
 149159162.719 5                  28384040.306
        34.250
 121840372.411 7                  22800755.983
        46.250
 119638413.471 7                  22341633.199
        46.500
 124452095.578 7                  23256847.426
        44.000
 21 10 13 12 56  0.0000000  0 27G17G02G19G06G07G20G09G05G30G13E09E11
                                E04R05S48S36E12R20R19S23S25R14R06E05
                                R15R04R21
 128254362.066 6  99938443.65245  24406016.462    24406016.141    24406025.785
        37.500          34.500
 115817805.692 7  90247632.06546  22039395.043    22039394.055    22039392.352
        47.000          38.750
 122916968.115 7  95779438.87145  23390329.970    23390328.741    23390330.129
        43.500          31.250
 106168137.016 8  82728426.58549  20203125.310    20203125.163    20203127.448
        51.250          57.000
 113853887.526 7  88717318.00448  21665672.183    21665671.790    21665671.564
        47.750          50.000
 117666248.203 7  91687987.91945  22391141.756    22391140.674    22391141.688
        44.000          32.750
 115730871.890 7  90179902.54448  22022853.306    22022852.882    22022854.961
        46.000          48.500
 129984992.112 6 101287012.49243  24735319.671    24735319.542    24735320.621
        37.000          20.750
 116202667.919 7  90547560.15448  22112626.602    22112625.802    22112629.439
        46.250          49.000
 126255009.586 6  98380597.52443  24025517.514    24025517.255    24025521.254
        41.500          23.500
 119368487.786 7                  22715066.864
        47.750
 113976920.143 7                  21689087.436
        45.250
 126903786.287 8                  24148988.087
        48.250
 108761222.869 8                  20346037.017
        51.500
  30734692.760 7                   5848610.412
        44.000
 195185668.235 7                  37142597.957
        46.500
 125161305.515 6                  23817408.159
        41.500
 104632568.788 7                  19566819.084
        42.250
 113869439.003 6                  21286696.402
        39.500
 204017006.587 7                  38823145.676
        43.000
 191291232.053 7                  36401412.509
        46.500
 122060725.683 7                  22898281.269
        44.250
 120511388.072 6                  22583777.511
        37.500
 149096856.795 5                  28372184.180
        34.500
 121751706.902 7                  22784162.972
        46.500
 119710921.771 7                  22355172.971
        46.000
 124336360.702 7                  23235220.235
        45.250
 21 10 13 12 56 30.0000000  0 27G17G02G19G06G07G20G09G05G30G13E09E11
                                E04R05S48S36E12R20R19S23S25R14R06E05
                                R15R04R21
 128348409.906 6 100011727.13745  24423913.534    24423913.213    24423923.297
        37.250          34.500
 115752441.257 7  90196698.75046  22026956.638    22026955.646    22026953.949
        47.500          38.750
 123017024.393 7  95857404.62745  23409370.270    23409369.032    23409370.445
        43.250          30.250
 106181947.853 8  82739188.26149  20205753.579    20205753.432    20205755.559
        51.500          57.000
 113836859.757 7  88704049.63048  21662431.844    21662431.442    21662431.234
        47.750          49.500
 117600832.375 7  91637014.55245  22378693.674    22378692.583    22378692.910
        44.000          32.000
 115807809.331 7  90239853.76348  22037494.414    22037493.985    22037495.894
        45.750          48.250
 129912299.067 6 101230368.60243  24721486.990    24721486.847    24721488.099
        37.500          21.750
 116128434.662 7  90489716.10948  22098500.625    22098499.825    22098503.253
        46.250          48.750
 126159005.978 6  98305789.67143  24007248.638    24007248.402    24007252.494
        40.500          23.000
 119342226.305 7                  22710069.652
        47.500
 113979532.555 7                  21689584.494
        45.250
 126941048.468 8                  24156078.922
        48.000
 108784223.931 8                  20350339.747
        52.000
  30734742.326 7                   5848598.786
        44.000
 195185716.169 7                  37142605.622
        46.750
 125237301.682 6                  23831869.713
        41.250
 104623338.477 7                  19565092.305
        42.250
 113987076.828 6                  21308687.808
        39.500
 204017187.851 7                  38823179.258
        43.250
 191294352.741 7                  36401962.818
        47.250
 122044044.520 7                  22895152.263
        44.500
 120458229.722 6                  22573817.215
        37.500
 149034687.668 5                  28360355.033
        34.750
 121663271.083 7                  22767612.894
        47.250
 119783367.479 7                  22368701.989
        45.500
 124220968.582 7                  23213656.367
        45.500
 21 10 13 12 57  0.0000000  0 27G17G02G19G06G07G20G09G05G30G13E09E11
                                E04R05S48S36E12R20R19S23S25R14R06E05
                                R15R04R21
 128442335.044 6 100084915.03245  24441787.785    24441787.486    24441797.280
        37.750          35.000
 115687389.868 7  90146009.35746  22014577.730    22014576.733    22014574.928
        47.250          38.500
 123117122.924 7  95935403.29844  23428418.637    23428417.399    23428419.450
        42.250          29.500
 106196293.433 8  82750366.61449  20208483.368    20208483.225    20208485.592
        51.500          56.750
 113820306.755 8  88691151.20448  21659281.924    21659281.518    21659281.137
        48.000          49.500
 117535432.164 7  91586053.36945  22366248.290    22366247.195    22366247.571
        43.750          31.250
 115884897.648 7  90299922.54948  22052163.871    22052163.442    22052165.549
        45.500          48.250
 129839565.772 6 101173693.34343  24707646.174    24707646.036    24707647.676
        37.500          22.500
 116054499.308 7  90432104.19248  22084430.964    22084430.164    22084433.829
        46.500          48.750
 126063206.450 6  98231140.83743  23989018.589    23989018.339    23989021.460
        41.000          23.000
 119316175.122 7                  22705112.092
        47.750
 113982549.069 7                  21690158.474
        45.750
 126978425.192 8                  24163191.506
        48.250
 108807378.851 8                  20354670.968
        51.500
  30734789.054 7                   5848586.073
        43.750
 195185754.407 7                  37142612.763
        46.500
 125313525.856 6                  23846374.632
        41.250
 104614936.781 7                  19563521.541
        42.250
 114105096.470 6                  21330750.036
        39.750
 204017364.804 7                  38823212.813
        43.250
 191297472.297 7                  36402514.339
        47.000
 122027993.542 7                  22892141.462
        45.750
 120405267.031 6                  22563890.861
        37.250
 148972644.316 5                  28348547.622
        34.750
 121575057.948 7                  22751105.090
        46.750
 119855738.648 7                  22382216.812
        45.750
 124105912.338 7                  23192155.529
        45.000
 21 10 13 12 57 30.0000000  0 27G17G02G19G06G07G20G09G05G30G13E09E11
                                E04R05S48S36E12R20R19S23S25R14R06E05
                                R15R04R21
 128536136.863 6 100158006.90045  24459637.654    24459637.337    24459647.399
        37.500          33.500
 115622655.609 7  90095567.07646  22002259.427    22002258.430    22002256.359
        47.250          38.250
 123217262.639 7  96013434.07944  23447474.172    23447472.929    23447475.202
        42.000          28.750
 106211176.210 8  82761963.56349  20211315.520    20211315.373    20211317.596
        51.500          56.750
 113804231.620 7  88678625.13948  21656222.974    21656222.568    21656222.221
        47.750          49.750
 117470050.292 7  91535106.46345  22353806.656    22353805.548    22353805.509
        43.750          31.250
 115962136.831 7  90360108.88247  22066862.129    22066861.700    22066863.656
        45.250          47.750
 129766793.983 6 101116988.11544  24693798.391    24693798.253    24693799.942
        38.750          24.000
 115980866.616 7  90374728.11548  22070419.310    22070418.515    22070421.968
        46.250          48.750
 125967614.724 6  98156653.91643  23970827.471    23970827.239    23970830.547
        40.500          22.250
 119290335.672 7                  22700194.987
        47.750
 113985972.147 7                  21690809.974
        45.750
 127015917.268 8                  24170326.104
        48.500
 108830687.791 8                  20359031.545
        51.500
  30734836.275 7                   5848573.964
        43.750
 195185787.722 7                  37142619.582
        46.500
 125389978.750 6                  23860923.343
        41.750
 104607366.984 7                  19562105.652
        42.500
 114223495.353 6                  21352884.532
        40.000
 204017539.503 7                  38823246.368
        43.000
 191300593.752 7                  36403067.300
        47.000
 122012576.966 7                  22889248.698
        44.500
 120352501.023 6                  22554001.495
        37.500
 148910729.057 5                  28336765.508
        35.500
 121487073.864 7                  22734640.288
        47.000
 119928036.469 7                  22395717.519
        45.500
 123991198.129 7                  23170718.045
        43.250
 21 10 13 12 58  0.0000000  0 27G17G02G19G06G07G20G09G05G30G13E09E11
                                E04R05S48S36E12R20R19S23S25R14R06E05
                                R15R04R21
 128629820.454 6 100231006.70745  24477465.373    24477465.047    24477475.413
        37.500          34.000
 115558248.626 7  90045379.81846  21990003.048    21990002.056    21990000.205
        47.250          38.500
 123317448.099 7  96091500.48144  23466539.131    23466537.871    23466540.408
        42.500          28.750
 106226604.192 8  82773985.34749  20214251.433    20214251.290    20214253.297
        51.250          56.750
 113788643.172 7  88666478.31648  21653256.584    21653256.191    21653255.916
        47.500          49.750
 117404694.908 7  91484180.19945  22341369.726    22341368.626    22341368.541
        44.000          31.250
 116039532.417 7  90420417.10047  22081589.823    22081589.403    22081591.016
        46.000          47.750
 129693991.388 6 101060258.89443  24679944.734    24679944.632    24679945.554
        38.000          23.500
 115907546.984 7  90317595.98348  22056466.732    22056465.937    22056469.692
        46.750          48.750
 125872239.749 6  98082335.93043  23952678.137    23952677.905    23952681.375
        40.250          22.500
 119264714.976 7                  22695319.610
        47.750
 113989809.885 7                  21691540.286
        45.750
 127053531.138 8                  24177483.693
        48.500
 108854156.801 8                  20363422.180
        52.000
  30734892.375 7                   5848562.749
        44.000
 195185829.938 7                  37142629.607
        46.750
 125466666.668 6                  23875516.622
        41.500
 104600637.416 7                  19560847.855
        42.250
 114342277.298 6                  21375089.541
        39.000
 204017719.429 7                  38823280.558
        43.250
 191303733.301 7                  36403622.568
        47.250
 121997804.289 7                  22886478.040
        44.250
 120299938.644 6                  22544151.023
        37.000
 148848949.617 6                  28325009.696
        36.750
 121399331.535 7                  22718219.558
        46.500
 120000268.190 7                  22409207.250
        45.750
 123876837.769 7                  23149346.682
        42.000
 21 10 13 12 58 30.0000000  0 27G17G02G19G06G07G20G09G05G30G13E09E11
                                E04R05S48S36E12R20R19S23S25R14R06E05
                                R15R04R21
 128723372.890 6 100303904.32545  24495267.964    24495267.643    24495279.049
        36.000          33.750
 115494160.626 7  89995441.12046  21977807.489    21977806.497    21977804.726
        47.250          38.500
 123417665.439 6  96169591.73044  23485609.744    23485608.475    23485611.493
        41.000          28.500
 106242567.038 8  82786423.91049  20217289.076    20217288.933    20217291.049
        51.500          56.750
 113773531.636 7  88654703.09248  21650380.927    21650380.538    21650380.341
        47.750          50.000
 117339356.362 7  91433267.06645  22328936.118    22328935.036    22328934.644
        44.000          31.250
 116117071.759 7  90480837.33848  22096345.184    22096344.755    22096346.253
        46.000          48.000
 129621147.735 6 101003497.70244  24666082.928    24666082.790    24666083.949
        37.250          24.000
 115834532.350 7  90260701.51648  22042572.729    22042571.929    22042575.547
        46.500          49.000
 125777072.312 6  98008179.65143  23934568.343    23934568.093    23934571.662
        39.500          23.000
 119239301.740 7                  22690483.613
        47.500
 113994052.026 7                  21692347.565
        45.500
 127091254.929 8                  24184662.291
        48.250
 108877773.369 8                  20367839.911
        51.250
  30734946.425 7                   5848550.721
        43.750
 195185864.359 7                  37142635.912
        46.750
 125543577.610 6                  23890152.329
        41.250
 104594737.894 7                  19559743.632
        42.000
 114461427.226 6                  21397363.821
        39.500
 204017894.457 7                  38823312.709
        43.000
 191305272.525 7                  36404176.817
        47.000
 121983666.516 7                  22883825.695
        44.250
 120247568.099 6                  22534335.692
        36.250
 148787295.675 5                  28313275.909
        34.500
 121311823.975 7                  22701843.566
        47.000
 120072422.089 7                  22422680.935
        45.250
 123762824.792 7                  23128040.770
        44.750
 21 10 13 12 59  0.0000000  0 27G17G02G19G06G07G20G09G05G30G13E09E11
                                E04R05S48S36E12R20R19S23S25R14R06E05
                                R15R04R21
 128816798.115 6 100376702.87045  24513046.370    24513046.075    24513057.250
        36.500          33.250
 115430400.260 7  89945757.71346  21965674.258    21965673.266    21965671.632
        47.250          38.750
 123517918.072 6  96247710.49244  23504687.223    23504685.958    23504688.406
        41.750          27.500
 106259071.468 8  82799284.48449  20220429.850    20220429.707    20220431.836
        51.250          56.750
 113758904.090 7  88643305.02048  21647597.282    21647596.893    21647597.105
        47.750          50.500
 117274041.854 7  91382372.66445  22316507.289    22316506.203    22316506.006
        43.750          31.750
 116194759.133 7  90541372.91848  22111128.802    22111128.369    22111130.354
        45.250          48.000
 129548269.275 6 100946709.33843  24652214.197    24652214.068    24652215.627
        39.000          23.750
 115761831.840 7  90204051.82548  22028738.095    22028737.295    22028741.027
        47.000          49.500
 125682120.144 6  97934191.10943  23916499.291    23916499.046    23916502.403
        38.500          22.500
 119214101.723 7                  22685688.228
        47.500
 113998705.413 7                  21693232.999
        45.750
 127129093.808 8                  24191862.768
        48.000
 108901542.187 8                  20372286.119
        51.500
  30735004.328 7                   5848537.833
        44.000
 195185903.205 7                  37142642.982
        46.500
 125620716.594 6                  23904831.473
        41.500
 104589675.066 7                  19558796.885
        42.500
 114580947.036 6                  21419706.506
        39.500
 204018070.635 7                  38823345.625
        43.250
 191308418.536 7                  36404733.060
        47.000
 121970171.929 7                  22881293.766
        45.000
 120195394.822 6                  22524560.498
        37.250
 148725773.608 6                  28301570.111
        36.500
 121224562.540 7                  22685513.401
        47.000
 120144504.009 7                  22436141.698
        45.500
 123649169.802 7                  23106802.497
        45.500
 21 10 13 12 59 30.0000000  0 27G17G02G19G06G07G20G09G05G30G13E09E11
                                E04R05S48S36E12R20R19S23S25R14R06E05
                                R15R04R21
 128910095.924 6 100449402.21745  24530801.126    24530800.849    24530810.964
        37.000          33.250
 115366971.838 7  89896332.97146  21953604.330    21953603.338    21953601.439
        47.250          38.500
 123618205.385 6  96325856.25644  23523771.348    23523770.088    23523773.367
        41.250          28.500
 106276119.970 8  82812569.01049  20223674.013    20223673.870    20223676.061
        51.000          56.500
 113744763.807 7  88632286.65048  21644906.396    21644905.999    21644906.221
        47.250          50.000
 117208754.353 7  91331499.30745  22304083.424    22304082.342    22304082.837
        44.000          32.250
 116272594.671 7  90602023.94648  22125940.329    22125939.896    22125942.407
        45.500          48.000
 129475357.794 6 100889895.27543  24638339.411    24638339.295    24638340.544
        37.750          23.250
 115689450.302 7  90147650.68248  22014964.721    22014963.917    22014967.079
        46.500          49.250
 125587386.877 6  97860373.17843  23898472.014    23898471.751    23898475.522
        38.000          22.750
 119189116.487 7                  22680933.728
        47.500
 114003772.593 7                  21694197.382
        45.500
 127167048.782 8                  24199085.451
        48.000
 108925463.500 8                  20376761.401
        51.250
  30735069.563 7                   5848526.936
        44.000
 195185949.019 7                  37142651.067
        46.750
 125698084.508 6                  23919554.209
        41.250
 104585452.116 7                  19558008.478
        42.250
 114700835.131 6                  21442118.161
        39.250
 204018249.271 7                  38823380.906
        43.250
 191311570.829 7                  36405292.017
        47.000
 121957324.531 7                  22878883.504
        43.250
 120143420.194 6                  22514820.410
        37.500
 148664386.013 6                  28289887.697
        36.000
 121137553.856 7                  22669231.025
        46.750
 120216515.770 7                  22449589.223
        45.500
 123535879.390 7                  23085630.287
        45.250
 21 10 13 13  0  0.0000000  0 27G17G02G19G06G07G20G09G05G30G13E09E11
                                E04R05S48S36E12R20R19S23S25R14R06E05
                                R15R04R21
 129003256.918 5 100521994.98045  24548529.003    24548528.740    24548538.935
        35.500          32.500
 115303871.091 7  89847163.56246  21941596.432    21941595.440    21941593.728
        47.250          38.750
 123718516.506 7  96404020.58344  23542860.338    23542859.086    23542861.614
        42.000          28.500
 106293706.074 8  82826272.44649  20227020.595    20227020.452    20227022.471
        51.250          56.750
 113731104.989 7  88621643.43148  21642307.549    21642307.156    21642306.840
        47.500          50.250
 117143487.536 7  91280642.05945  22291663.911    22291662.825    22291663.160
        44.750          33.000
 116350569.614 7  90662783.59748  22140778.445    22140778.016    22140780.592
        45.500          48.250
 129402406.791 6 100833050.41343  24624457.266    24624457.155    24624458.544
        38.500          23.250
 115617383.657 7  90091494.90548  22001250.455    22001249.655    22001253.019
        46.750          49.250
 125492867.289 6  97786721.72743  23880485.302    23880485.052    23880488.863
        38.000          23.000
 119164338.624 8                  22676218.564
        48.000
 114009247.218 7                  21695239.127
        45.500
 127205111.883 8                  24206328.582
        48.250
 108949529.045 8                  20381263.675
        51.500
  30735135.630 7                   5848515.113
        43.750
 195185989.370 7                  37142658.230
        46.500
 125775673.187 6                  23934318.668
        41.500
 104582062.474 7                  19557373.522
        42.250
 114821080.276 6                  21464595.996
        38.750
 204018424.807 7                  38823414.058
        43.000
 191314731.314 7                  36405851.216
        46.500
 121945119.313 7                  22876593.797
        44.000
 120091636.419 6                  22505116.338
        37.750
 148603126.094 5                  28278230.210
        34.500
 121050795.581 7                  22652995.821
        47.000
 120288449.437 7                  22463022.855
        46.000
 123422950.589 7                  23064527.574
        46.500
 21 10 13 13  0 30.0000000  0 27G17G02G19G06G07G20G09G05G30G13E09E11
                                E04R05S48S36E12R20R19S23S25R14R06E05
                                R15R04R21
 129096282.322 6 100594482.13945  24566230.952    24566230.675    24566241.436
        36.750          32.750
 115241104.052 7  89798254.18246  21929652.492    21929651.504    21929649.430
        47.250          38.500
 123818852.654 6  96482204.41244  23561953.805    23561952.562    23561955.081
        41.500          28.750
 106311833.749 8  82840397.88349  20230470.130    20230469.992    20230472.176
        51.000          56.750
 113717932.127 7  88611378.87648  21639800.484    21639800.109    21639800.080
        47.750          50.000
 117078245.997 7  91229804.51145  22279248.599    22279247.513    22279247.718
        44.750          33.250
 116428685.617 7  90723653.16848  22155643.490    22155643.075    22155645.249
        45.750          48.000
 129329419.890 6 100776177.57844  24610568.596    24610568.489    24610569.161
        38.500          24.000
 115545638.338 7  90035589.51748  21987597.576    21987596.776    21987600.445
        46.500          49.500
 125398566.569 6  97713240.84143  23862540.769    23862540.528    23862543.396
        38.750          23.750
 119139771.223 7                  22671543.456
        47.750
 114015133.374 7                  21696359.279
        45.500
 127243285.679 8                  24213592.864
        48.250
 108973740.810 8                  20385792.712
        51.250
  30735203.459 7                   5848504.073
        44.000
 195186026.346 7                  37142664.808
        46.750
 125853485.039 6                  23949126.348
        41.500
 104579510.314 7                  19556897.010
        42.500
 114941681.920 6                  21487141.119
        38.500
 204018601.022 7                  38823448.154
        43.000
 191317896.543 7                  36406412.422
        46.500
 121933561.686 7                  22874426.199
        43.750
 120040046.323 6                  22495447.483
        37.000
 148541997.987 5                  28266597.890
        35.750
 120964295.815 7                  22636808.168
        46.000
 120360308.602 7                  22476442.138
        45.250
 123310391.610 7                  23043492.853
        44.250
 21 10 13 13  1  0.0000000  0 27G17G02G19G06G07G20G09G05G30G13E09E11
                                E04R05S48S36E12R20R19S23S25R14R06E05
                                R15R04R21
 129189169.782 6 100666861.89245  24583907.380    24583907.108    24583916.924
        37.000          32.250
 115178673.181 7  89749606.74946  21917772.363    21917771.384    21917769.406
        47.250          38.750
 123919210.665 7  96560405.26845  23581051.626    23581050.383    23581052.710
        42.000          30.000
 106330503.352 8  82854945.60149  20234022.893    20234022.755    20234025.050
        51.250          56.750
 113705246.213 8  88601493.75448  21637386.697    21637386.326    21637385.954
        48.000          50.250
 117013030.812 7  91178987.50345  22266838.463    22266837.363    22266837.772
        44.500          33.250
 116506940.766 7  90784631.18347  22170534.952    22170534.537    22170536.289
        45.500          47.750
 129256397.467 6 100719277.02843  24596672.146    24596672.017    24596673.787
        38.000          23.250
 115474217.039 7  89979936.60548  21974006.482    21974005.687    21974009.534
        46.750          49.750
 125304485.962 6  97639931.44844  23844637.763    23844637.531    23844640.240
        40.000          24.250
 119115413.751 7                  22666908.381
        47.500
 114021431.507 7                  21697557.794
        45.500
 127281569.060 8                  24220877.965
        48.000
 108998097.240 8                  20390348.927
        51.000
  30735274.150 7                   5848491.812
        43.750
 195186062.356 7                  37142672.624
        46.500
 125931518.787 6                  23963975.477
        41.000
 104577795.863 7                  19556576.632
        42.500
 115062635.637 6                  21509753.284
        39.250
 204018778.159 7                  38823482.541
        43.000
 191321067.677 7                  36406975.046
        46.750
 121922653.497 7                  22872379.136
        43.250
 119988648.922 6                  22485814.973
        38.500
 148481001.851 6                  28254990.703
        36.750
 120878059.256 7                  22620670.331
        46.250
 120432092.545 7                  22489847.321
        45.250
 123198206.754 7                  23022528.035
        43.000
 21 10 13 13  1 30.0000000  0 28G17G02G19G06G07G20G09G05G30G13E09E11
                                E04R05S48S36E12R20R19S23S25R14R06E05
                                R15R04R21R16
 129281914.680 6 100739130.59845  24601555.569    24601555.274    24601565.703
        37.500          34.000
 115116578.337 7  89701221.16046  21905955.963    21905954.980    21905953.278
        47.000          38.750
 124019585.308 7  96638619.06945  23600152.652    23600151.427    23600154.207
        42.500          31.000
 106349712.688 8  82869913.89149  20237678.281    20237678.143    20237680.548
        51.000          56.750
 113693046.099 8  88591987.18648  21635064.693    21635064.327    21635064.270
        48.000          50.250
 116947840.558 7  91128189.92645  22254433.580    22254432.485    22254432.668
        44.500          33.250
 116585330.691 7  90845714.21147  22185452.177    22185451.757    22185453.532
        45.750          47.750
 129183336.754 6 100662346.64843  24582770.600    24582770.453    24582770.282
        37.750          23.250
 115403120.084 7  89924536.43648  21960477.224    21960476.424    21960480.260
        47.000          49.750
 125210624.506 6  97566792.83144  23826776.621    23826776.380    23826778.885
        40.750          24.750
 119091263.150 7                  22662312.916
        47.750
 114028139.619 7                  21698834.308
        45.750
 127319958.437 8                  24228183.175
        48.000
 109022593.771 8                  20394931.693
        51.500
  30735346.509 7                   5848479.345
        43.750
 195186096.822 7                  37142680.217
        46.500
 126009770.653 6                  23978866.407
        41.500
 104576917.174 7                  19556411.820
        42.250
 115183935.411 6                  21532428.475
        39.250
 204018952.290 7                  38823516.007
        43.000
 191324247.890 7                  36407538.542
        47.000
 121912393.803 7                  22870454.343
        42.750
 119937441.049 6                  22476218.562
        37.750
 148420135.376 6                  28243407.815
        36.250
 120792087.960 7                  22604581.627
        46.500
 120503798.285 7                  22503236.853
        44.500
 123086397.786 7                  23001633.675
        42.750
 131943733.00116                  24700143.617
        36.250
 21 10 13 13  2  0.0000000  0 27G17G02G19G06G07G20G09G05G30G13E09E11
                                E04R05S48S36E12R20R19S23S25R14R06E05
                                R15R04R21
 129374519.819 6 100811290.41245  24619177.587    24619177.301    24619188.157
        37.250          31.750
 115054827.031 7  89653103.26546  21894205.175    21894204.192    21894202.829
        47.500          38.750
 124119978.489 7  96716847.34445  23619257.146    23619255.921    23619257.806
        43.000          30.000
 106369467.222 8  82885307.01349  20241437.496    20241437.362    20241439.667
        51.500          56.500
 113681337.132 8  88582863.32248  21632836.967    21632836.601    21632836.257
        48.250          50.250
 116882680.690 7  91077416.03145  22242033.658    22242032.558    22242033.659
        45.000          33.750
 116663858.596 7  90906904.74947  22200395.359    22200394.935    22200397.418
        46.250          47.750
 129110243.617 6 100605391.01943  24568860.359    24568860.190    24568860.791
        38.750          23.750
 115332355.368 7  89869395.15248  21947011.222    21947010.422    21947013.991
        47.250          49.500
 125116988.997 6  97493830.28644  23808957.716    23808957.444    23808960.726
        41.250          24.500
 119067324.076 7                  22657757.261
        47.750
 114035263.307 7                  21700189.921
        45.750
 127358457.934 8                  24235509.427
        48.000
 109047234.426 8                  20399540.964
        51.750
  30735424.135 7                   5848469.538
        44.000
 195186136.458 7                  37142686.097
        46.500
 126088244.564 6                  23993799.696
        41.250
 104576880.390 7                  19556405.441
        42.500
 115305581.665 6                  21555169.341
        39.000
 204019129.865 7                  38823549.057
        43.000
 191327424.500 7                  36408103.751
        47.000
 121902789.754 7                  22868653.204
        43.250
 119886427.050 6                  22466660.026
        38.000
 148359404.073 5                  28231850.614
        35.250
 120706391.790 7                  22588544.524
        46.500
 120575430.593 7                  22516614.763
        45.500
 122974974.162 7                  22980811.788
        44.750
 21 10 13 13  2 30.0000000  0 27G17G02G19G06G07G20G09G05G30G13E09E11
                                E04R05S48S36E12R20R19S23S25R14R06E05
                                R15R04R21
 129466980.158 6 100883337.44845  24636772.748    24636772.471    24636781.948
        38.000          32.250
 114993418.895 7  89605252.76946  21882519.448    21882518.469    21882516.905
        47.250          39.000
 124220384.742 7  96795085.77545  23638363.797    23638362.568    23638365.590
        42.250          30.500
 106389764.486 8  82901123.03849  20245299.916    20245299.782    20245302.040
        51.000          56.750
 113670117.817 8  88574121.01048  21630701.742    21630701.376    21630701.357
        48.000          50.250
 116817549.841 7  91026664.74845  22229639.656    22229638.556    22229639.605
        44.250          33.250
 116742519.893 7  90968199.23147  22215364.065    22215363.650    22215366.049
        45.750          47.750
 129037115.150 6 100548407.84744  24554944.613    24554944.430    24554944.860
        38.250          24.000
 115261922.877 7  89814512.74048  21933608.189    21933607.389    21933611.036
        47.250          50.000
 125023577.984 6  97421042.65244  23791182.210    23791181.893    23791185.315
        41.500          25.750
 119043593.188 8                  22653241.476
        48.000
 114042800.216 7                  21701624.257
        45.500
 127397063.723 8                  24242855.964
        48.250
 109072014.758 8                  20404176.583
        51.000
  30733906.679 7                   5848458.865
        44.000
 195186181.226 7                  37142694.509
        46.500
 126166936.466 6                  24008774.423
        41.250
 104577682.463 7                  19556555.074
        42.250
 115427567.959 6                  21577973.589
        39.250
 204019308.849 7                  38823582.974
        42.750
 191329018.435 7                  36408671.656
        47.000
 121893840.209 7                  22866974.311
        43.500
 119835603.208 6                  22457134.493
        37.250
 148298805.468 6                  28220319.272
        37.000
 120620972.516 7                  22572559.030
        47.500
 120646986.306 7                  22529977.341
        46.250
 122863937.481 7                  22960062.725
        46.750
 21 10 13 13  3  0.0000000  0 27G17G02G19G06G07G20G09G05G30G13E09E11
                                E04R05S48S36E12R20R19S23S25R14R06E05
                                R15R04R21
 129559292.775 6 100955269.40645  24654339.111    24654338.825    24654348.820
        38.250          33.500
 114932355.420 7  89557670.84246  21870899.666    21870898.683    21870896.593
        47.500          39.250
 124320800.060 7  96873331.28545  23657472.243    23657471.027    23657474.139
        42.000          30.250
 106410603.926 8  82917361.54249  20249265.528    20249265.399    20249267.676
        51.500          57.000
 113659388.298 8  88565760.36348  21628659.917    21628659.551    21628659.614
        48.000          50.750
 116752447.890 7  90975935.97345  22217251.029    22217249.934    22217250.469
        44.500          33.250
 116821311.858 7  91029595.53747  22230357.902    22230357.482    22230359.167
        45.250          47.000
 128963950.301 6 100491396.30744  24541021.379    24541021.205    24541022.601
        38.750          24.500
 115191824.565 7  89759890.72548  21920269.043    21920268.239    21920271.654
        47.250          50.250
 124930392.339 6  97348430.60344  23773449.458    23773449.141    23773451.661
        41.500          25.250
 119020069.134 7                  22648764.989
        47.750
 114050749.918 7                  21703136.894
        45.500
 127435773.928 7                  24250222.204
        47.750
 109096932.521 8                  20408838.402
        51.500
  30733992.731 7                   5848448.177
        43.750
 195186220.725 7                  37142702.808
        46.500
 126245844.268 6                  24023789.953
        41.000
 104579322.723 7                  19556861.602
        42.250
 115549888.827 6                  21600839.315
        39.000
 204019487.426 7                  38823615.943
        43.000
 191332223.557 7                  36409240.312
        46.750
 121885545.880 7                  22865418.363
        43.500
 119784967.903 6                  22447645.583
        37.000
 148238338.900 5                  28208812.224
        34.750
 120535833.767 7                  22556626.601
        47.750
 120718464.044 7                  22543325.762
        46.000
 122753291.304 7                  22939385.378
        46.000
 21 10 13 13  3 30.0000000  0 27G17G02G19G06G07G20G09G05G30G13E09E11
                                E04R05S48S36E12R20R19S23S25R14R06E05
                                R15R04R21
 129651451.733 6 101027081.61545  24671876.013    24671875.718    24671886.551
        37.500          33.250
 114871635.901 7  89510356.93246  21859344.909    21859343.930    21859342.279
        47.500          39.000
 124421218.468 7  96951579.19944  23676581.349    23676580.133    23676582.943
        42.750          29.500
 106431982.524 8  82934020.16649  20253333.753    20253333.624    20253335.900
        51.500          56.750
 113649146.182 8  88557779.50548  21626710.828    21626710.457    21626710.774
        48.000          50.500
 116687372.735 7  90925228.08145  22204867.396    22204866.292    22204866.775
        44.250          32.250
 116900229.336 7  91091089.64547  22245375.535    22245375.111    22245376.633
        45.000          47.000
 128890746.561 6 100434354.49744  24527091.486    24527091.308    24527092.174
        38.500          24.500
 115122059.879 7  89705528.68148  21906993.278    21906992.474    21906995.849
        47.250          49.750
 124837430.197 6  97275992.73444  23755759.240    23755758.932    23755761.716
        41.750          24.250
 118996748.114 7                  22644327.101
        47.750
 114059109.675 7                  21704727.711
        45.750
 127474584.252 8                  24257607.488
        48.000
 109121982.596 8                  20413524.798
        51.500
  30734077.534 7                   5848436.256
        43.750
 195186254.453 7                  37142708.639
        46.500
 126324963.451 6                  24038846.125
        41.000
 104581798.343 7                  19557324.480
        42.250
 115672537.132 6                  21623768.209
        39.000
 204019662.623 7                  38823649.914
        42.750
 191335429.448 7                  36409810.440
        46.750
 121877905.022 7                  22863984.948
        44.250
 119734516.903 6                  22438191.199
        37.750
 148178001.510 5                  28197330.506
        35.250
 120450976.926 7                  22540747.475
        47.250
 120789860.069 7                  22556657.890
        45.500
 122643036.503 7                  22918781.479
        45.250
 21 10 13 13  4  0.0000000  0 28G17G02G19G06G07G20G09G05G30G13E09E11
                                E04R05S48S36E12R20R19E31S23S25R14R06
                                E05R15R04R21
 129743462.548 6 101098778.39045  24689384.863    24689384.546    24689395.529
        36.750          33.000
 114811270.243 7  89463318.76146  21847857.949    21847856.966    21847855.199
        47.500          39.250
 124521644.675 6  97029833.19644  23695691.993    23695690.768    23695694.161
        41.250          29.500
 106453908.147 8  82951105.04149  20257506.172    20257506.047    20257508.206
        51.250          56.750
 113639399.952 7  88550185.05648  21624856.524    21624856.149    21624856.088
        47.500          50.500
 116622333.094 7  90874547.85945  22192491.154    22192490.046    22192490.120
        44.000          32.500
 116979278.199 7  91152686.12147  22260417.807    22260417.387    22260419.430
        45.500          47.500
 128817511.524 6 100377288.25144  24513155.075    24513154.910    24513156.026
        38.250          25.000
 115052639.217 7  89651434.69648  21893782.944    21893782.144    21893785.455
        47.250          50.000
 124744700.644 6  97203736.07344  23738113.054    23738112.746    23738115.549
        40.750          24.000
 118973637.230 7                  22639929.326
        47.750
 114067887.447 7                  21706398.135
        45.500
 127513501.286 8                  24265013.208
        48.000
 109147171.367 8                  20418236.374
        51.500
  30734169.621 7                   5848425.041
        44.000
 195186299.283 7                  37142717.028
        46.500
 126404300.376 6                  24053943.371
        41.250
 104585117.311 7                  19557945.296
        42.250
 115795516.109 6                  21646757.531
        38.750


 204019842.696 7                  38823683.558
        43.000
 191338642.757 7                  36410380.580
        46.750
 121870927.184 7                  22862675.814
        44.250
 119684257.146 6                  22428773.397
        37.750
 148117801.186 6                  28185874.854
        36.500
 120366414.344 7                  22524921.529
        47.500
 120861181.929 7                  22569977.054
        46.000
 122533185.226 7                  22898252.758
        43.000
 21 10 13 13  4 30.0000000  0 29G17G02G19G06G07G20G09G05G30G13E09E11
                                E04R05S48S36E12R20R19E31S23S25R14R06
                                E05R15R04R21R16
 129835316.650 6 101170353.07445  24706865.143    24706864.817    24706874.887
        36.250          31.750
 114751255.027 7  89416553.65746  21836437.322    21836436.339    21836434.469
        47.750          39.000
 124622069.364 6  97108085.99244  23714802.122    23714800.884    23714804.405
        41.750          28.750
 106476374.931 8  82968611.60049  20261781.414    20261781.289    20261783.538
        51.250          56.750
 113630144.489 8  88542973.01448  21623095.257    21623094.882    21623094.676
        48.500          50.500
 116557323.639 7  90823891.15145  22180120.041    22180118.941    22180119.260
        44.750          32.750
 117058450.480 7  91214378.77347  22275483.960    22275483.536    22275485.637
        45.500          47.750
 128744239.406 6 100320193.15244  24499212.116    24499211.942    24499212.765
        38.250          24.500
 114983559.286 7  89597606.22048  21880637.420    21880636.625    21880639.967
        47.250          50.000
 124652198.983 6  97131656.99343  23720510.728    23720510.433    23720512.805
        40.750          23.250
 118950729.856 7                  22635570.122
        47.750
 114077077.578 7                  21708146.958
        45.500
 127552517.938 7                  24272437.847
        47.750
 109172491.468 8                  20422973.564
        51.750
  30734263.845 7                   5848414.636
        44.000
 195186340.512 7                  37142724.594
        46.750
 126483847.715 6                  24069080.812
        40.750
 104589273.730 7                  19558722.085
        42.250
 115918815.844 6                  21669807.677
        39.250
 150216935.01515                  28585334.743
        32.000
 204020022.420 7                  38823718.893
        43.250
 191341859.220 7                  36410952.805
        47.000
 121864607.709 7                  22861489.663
        43.000
 119634181.676 6                  22419388.835
        38.250
 148057732.087 5                  28174443.914
        35.250
 120282144.457 7                  22509151.789
        47.750
 120932422.999 7                  22583280.833
        45.750
 122423735.591 7                  22877798.594
        43.000
 131307371.27315                  24581015.859
        32.750
 21 10 13 13  5  0.0000000  0 29G17G02G19G06G07G20G09G05G30G13E09E11
                                E04R05S48S36E12R20R19E31S23S25R14R06
                                E05R15R04R21R16
 129927007.227 6 101241800.35045  24724313.084    24724312.763    24724322.711
        36.500          32.250
 114691587.315 7  89370059.33246  21825083.015    21825082.036    21825079.781
        47.250          39.000
 124722484.517 6  97186331.36344  23733910.764    23733909.504    23733912.542
        41.000          28.250
 106499377.826 8  82986535.90649  20266158.791    20266158.666    20266160.908
        51.000          56.750
 113621375.333 8  88536139.91948  21621426.452    21621426.077    21621425.871
        48.000          50.500
 116492340.239 7  90773254.75445  22167754.256    22167753.165    22167753.717
        44.750          33.250
 117137739.132 7  91276162.10147  22290572.223    22290571.808    22290573.679
        44.750          47.000
 128670924.987 6 100263065.05744  24485260.629    24485260.477    24485262.452
        38.750          25.000
 114914817.493 7  89544041.22648  21867556.257    21867555.466    21867558.884
        47.250          50.250
 124559921.330 6  97059752.45643  23702950.538    23702950.230    23702952.632
        39.750          22.250
 118928020.206 7                  22631248.455
        47.750
 114086675.242 7                  21709973.361
        45.750
 127591627.955 8                  24279880.318
        48.000
 109197935.622 8                  20427732.986
        51.750
  30734354.901 7                   5848402.598
        43.750
 195186373.560 7                  37142731.042
        46.750
 126563598.881 6                  24084257.139
        40.750
 104594262.241 7                  19559655.630
        42.250
 116042426.422 6                  21692915.816
        39.000
 150158603.596 5                  28574235.033
        32.750
 204020196.244 7                  38823750.163
        43.000
 191345078.569 7                  36411526.608
        46.500
 121858942.876 7                  22860427.998
        43.500
 119584284.134 6                  22410037.206
        37.500
 147997789.276 6                  28163037.092
        36.250
 120198166.460 8                  22493436.287
        48.000
 121003577.682 7                  22596568.079
        45.750
 122314686.660 7                  22857421.747
        45.500
                                  24560970.361
        25.500
 21 10 13 13  5 30.0000000  0 29G17G02G19G06G07G20G09G05G30G13E09E11
                                E04R05S48S36E12R20R19E31S23S25R14R06
                                E05R15R04R21R16
 130018542.958 6 101313126.94145  24741731.287    24741730.992    24741741.071
        36.500          32.750
 114632280.860 7  89323846.51146  21813797.280    21813796.301    21813794.153
        47.500          38.750
 124822899.011 6  97264576.20844  23753018.891    23753017.635    23753021.158
        40.750          28.250
 106522928.574 8  83004887.10649  20270640.275    20270640.155    20270642.422
        51.250          56.500
 113613104.636 8  88529695.23048  21619852.728    21619852.353    21619851.811
        48.000          50.250
 116427395.593 7  90722648.55145  22155395.643    22155394.561    22155394.926
        45.000          33.250
 117217153.939 7  91338043.73247  22305684.205    22305683.781    22305686.001
        44.750          46.750
 128597580.183 6 100205913.29444  24471303.308    24471303.139    24471304.689
        38.750          25.250
 114846428.229 7  89490750.93148  21854542.043    21854541.248    21854544.781
        47.250          50.000
 124467881.129 6  96988032.94843  23685436.158    23685435.863    23685438.131
        38.750          22.500
 118905519.308 7                  22626966.857
        47.750
 114096692.363 7                  21711879.721
        45.750
 127630841.895 8                  24287342.442
        48.250
 109223514.042 8                  20432518.145
        51.500
  30734454.018 7                   5848391.504
        43.750
 195186412.910 7                  37142738.004
        46.500
 126643564.258 6                  24099473.977
        41.000
 104600094.753 7                  19560746.349
        42.000
 116166355.707 6                  21716082.806
        39.250
 150100084.324 5                  28563098.613
        32.250
 204020374.982 7                  38823785.918
        43.000
 191348309.333 7                  36412101.547
        46.250
 121853946.015 7                  22859489.903
        42.750
 119534575.601 6                  22400722.885
        38.000
 147937984.542 6                  28151656.705
        36.500
 120114496.859 7                  22477779.236
        47.750
 121074657.409 7                  22609842.280
        45.500
 122206054.317 7                  22837120.923
        46.000
                                  24540898.205
        34.000
 21 10 13 13  6  0.0000000  0 29G17G02G19G06G07G20G09G05G30G13E09E11
                                E04R05S48S36E12R20R19E31S23S25R14R06
                                E05R15R04R21R16
 130109920.594 6 101384330.34645  24759120.031    24759119.723    24759129.852
        37.000          30.750
 114573336.598 7  89277915.91546  21802580.718    21802579.739    21802577.396
        47.500          38.750
 124923308.429 6  97342817.10544  23772126.849    23772125.580    23772128.330
        40.750          27.750
 106547025.685 8  83023664.04649  20275225.944    20275225.824    20275227.928
        51.250          56.250
 113605331.961 8  88523638.60448  21618373.546    21618373.175    21618372.656
        48.250          49.750
 116362488.864 7  90672071.89345  22143044.250    22143043.173    22143043.387
        45.250          33.250
 117296691.430 7  91400020.96347  22320819.631    22320819.211    22320821.616
        45.250          46.750
 128524203.663 6 100148736.82743  24457339.829    24457339.669    24457341.600
        37.000          23.250
 114778392.526 7  89437736.13448  21841595.275    21841594.484    21841597.895
        47.500          50.000
 124376077.761 6  96916497.98443  23667965.953    23667965.654    23667968.929
        39.000          22.000
 118883224.960 7                  22622724.349
        47.500
 114107127.631 7                  21713865.360
        45.750
 127670157.102 8                  24294823.922
        48.000
 109249223.889 8                  20437327.679
        51.250
  30734562.431 7                   5848382.378
        43.500
 195186455.288 7                  37142746.746
        46.500
 126723740.859 6                  24114731.051
        40.750
 104606769.720 7                  19561994.689
        42.250
 116290597.816 6                  21739309.315
        39.750
 150041377.151 5                  28551927.658
        30.000
 204020557.578 7                  38823820.654
        43.000
 191349953.777 7                  36412678.972
        47.000
 121849616.652 7                  22858677.990
        44.250
 119485053.372 6                  22391442.167
        37.250
 147878316.549 5                  28140301.725
        35.750
 120031138.610 7                  22462179.282
        47.500
 121145660.119 7                  22623101.904
        45.250
 122097841.456 7                  22816898.673
        46.500
                                  24520777.289
        28.500
 21 10 13 13  6 30.0000000  0 29G17G02G19G06G07G20G09G05G30G13E09E11
                                E04R05S48S36E12R20R19E31S23S25R14R06
                                E05R15R04R21R16
 130201127.553 6 101455400.78245  24776476.061    24776475.748    24776485.883
        36.000          31.750
 114514746.817 7  89232261.54146  21791431.439    21791430.465    21791428.407
        47.750          39.500
 125023699.581 6  97421043.74744  23791230.174    23791228.940    23791232.309
        39.250          26.500
 106571659.151 8  83042858.92649  20279913.572    20279913.452    20279915.610
        51.250          56.750
 113598047.970 8  88517962.77048  21616987.504    21616987.138    21616986.458
        48.000          50.000
 116297611.257 7  90621517.92745  22130698.675    22130697.602    22130697.734
        45.250          34.000
 117376339.746 7  91462084.55047  22335976.217    22335975.802    22335978.226
        45.500          47.250
 128450785.695 6 100091528.06044  24443369.305    24443369.136    24443370.405
        38.750          24.250
 114710702.976 7  89384991.06148  21828714.320    21828713.533    21828716.957
        47.750          50.500
 124284502.889 6  96845141.06743  23650539.864    23650539.565    23650542.948
        39.000          23.000
 118861126.505 7                  22618519.145
        47.750
 114117971.283 7                  21715928.905
        45.750
 127709562.440 8                  24302322.600
        48.250
 109275053.425 8                  20442159.714
        51.250
  30734666.429 7                   5848373.537
        43.250
 195186497.458 7                  37142754.482
        46.500
 126804117.285 6                  24130026.320
        41.000
 104614276.736 7                  19563397.900
        42.250
 116415138.417 6                  21762591.016
        40.000
 149982473.834 5                  28540718.555
        32.500
 204020733.823 7                  38823853.444
        43.250
 191353200.215 7                  36413255.539
        47.000
 121845946.118 7                  22857989.060
        44.500
 119435706.596 6                  22382195.323
        37.500
 147818775.348 6                  28128971.563
        37.250
 119948085.742 7                  22446637.106
        47.000
 121216575.306 7                  22636343.854
        46.000
 121990042.037 7                  22796753.534
        46.000
 130877756.27015                  24500588.875
        35.500
 21 10 13 13  7  0.0000000  0 29G17G02G19G06G07G20G09G05G30G13E09E11
                                E04R05S48S36E12R20R19E31S23S25R14R06
                                E05R15R04R21R16
 130292171.622 6 101526344.28845  24793801.266    24793800.962    24793811.394
        36.000          32.500
 114456523.494 8  89186892.72146  21780351.657    21780350.683    21780348.938
        48.000          39.250
 125124079.140 6  97499261.38644  23810332.211    23810331.000    23810333.753
        40.750          26.750
 106596838.866 8  83062479.45349  20284705.085    20284704.969    20284707.325
        51.250          56.500
 113591262.598 8  88512675.47548  21615696.250    21615695.870    21615695.447
        48.000          49.750
 116232772.940 7  90570994.57545  22118360.090    22118359.008    22118360.031
        45.000          33.750
 117456106.830 7  91524240.68247  22351155.400    22351154.994    22351157.430
        45.500          47.250
 128377335.942 6 100034294.51244  24429392.410    24429392.236    24429393.619
        38.250          24.500
 114643372.064 7  89332525.44648  21815901.920    21815901.138    21815904.261
        47.250          50.250
 124193167.507 6  96773970.76243  23633159.184    23633158.876    23633162.060
        39.250          22.500
 118839233.177 7                  22614352.880
        47.750
 114129233.476 7                  21718072.110
        45.500
 127749066.710 8                  24309839.908
        48.250
 109301010.917 8                  20447015.345
        51.250
  30734776.273 7                   5848362.667
        44.000
 195186538.522 7                  37142762.307
        46.500
 126884702.024 6                  24145361.201
        41.000
 104622625.264 7                  19564959.488
        42.000
 116539983.199 6                  21785928.737
        39.500
 149923385.748 5                  28529474.578
        33.250
 204020914.028 7                  38823889.597
        43.250
 191356453.758 7                  36413834.149
        47.000
 121842945.682 7                  22857426.371
        45.000
 119386544.107 6                  22372980.980
        36.750
 147759371.034 5                  28117666.509
        35.750
 119865352.835 7                  22431154.731
        47.000
 121287412.544 7                  22649572.802
        45.500
 121882670.173 7                  22776688.429
        45.250
                                  24480359.004
        34.000
 21 10 13 13  7 30.0000000  0 29G17G02G19G06G07G20G09G05G30G13E09E11
                                E04R05S48S36E12R20R19E31S23S25R14R06
                                E05R15R04R21R16
 130383043.731 5 101597153.79445  24811093.815    24811093.520    24811103.431
        35.500          30.000
 114398662.163 8  89141805.97446  21769341.105    21769340.131    21769338.243
        48.000          39.250
 125224437.653 6  97577462.58844  23829430.129    23829428.909    23829432.249
        41.250          27.250
 106622558.017 8  83082520.31949  20289599.241    20289599.121    20289601.596
        51.500          56.750
 113584970.002 7  88507772.15848  21614498.576    21614498.201    21614498.107
        47.750          50.000
 116167968.835 7  90520497.88545  22106028.370    22106027.275    22106027.622
        45.000          33.500
 117535984.053 7  91586482.63747  22366355.944    22366355.547    22366357.553
        44.500          47.000
 128303847.928 6  99977031.15844  24415408.365    24415408.187    24415409.604
        39.000          25.000
 114576395.572 7  89280336.00348  21803156.494    21803155.712    21803159.117
        47.750          50.500
 124102066.495 6  96702983.07944  23615823.525    23615823.190    23615825.995
        40.500          24.250
 118817537.508 7                  22610224.463
        47.500
 114140907.607 7                  21720293.417
        45.500
 127788662.040 7                  24317374.751
        47.750
 109327088.141 8                  20451893.436
        51.000
  30733287.567 7                   5848351.751
        44.000
 195186577.148 7                  37142769.949
        46.750
 126965486.861 6                  24160734.291
        40.500
 104631808.590 7                  19566676.711
        42.000
 116665121.236 6                  21809321.879
        39.000
 149864107.764 5                  28518194.095
        32.250
 204021092.300 7                  38823921.529
        43.250
 191359712.525 7                  36414415.142
        47.250
 121840609.781 7                  22856987.924
        43.500
 119337558.080 6                  22363801.052
        37.750
 147700096.931 6                  28106387.570
        36.500
 119782937.553 7                  22415731.526
        45.750
 121358164.480 7                  22662784.970
        44.750
 121775723.359 7                  22756701.959
        44.250
 130661396.410 6                  24460085.000
        36.750
 21 10 13 13  8  0.0000000  0 29G17G02G19G06G07G20G09G05G30G13E09E11
                                E04R05S48S36E12R20R19E31S23S25R14R06
                                E05R15R04R21R16
 130473743.668 6 101667829.09145  24828353.892    24828353.624    24828363.188
        36.500          32.000
 114341167.103 7  89097004.62946  21758400.096    21758399.122    21758397.399
        47.750          39.250
 125324774.014 6  97655646.56844  23848523.516    23848522.318    23848524.673
        40.500          26.250
 106648818.565 8  83102983.05649  20294596.416    20294596.300    20294598.764
        51.000          56.250
 113579173.069 7  88503255.07048  21613395.542    21613395.158    21613394.949
        47.500          49.750
 116103201.733 7  90470030.02145  22093703.629    22093702.538    22093701.872
        44.750          32.750
 117615971.497 7  91648810.47447  22381577.031    22381576.638    22381578.527
        44.250          46.000
 128230323.621 6  99919739.53244  24401416.844    24401416.666    24401417.458
        39.000          24.250
 114509778.121 7  89228426.33448  21790479.565    21790478.783    21790482.219
        47.250          50.250
 124011202.576 6  96632180.14744  23598532.754    23598532.388    23598534.754
        40.000          24.500
 118796040.867 8                  22606133.919
        48.000
 114152995.937 7                  21722593.841
        45.750
 127828349.307 8                  24324927.051
        48.000
 109353285.434 8                  20456794.663
        51.250
  30733400.357 7                   5848341.485
        43.750
 195186610.725 7                  37142777.582
        46.500
 127046472.428 6                  24176145.113
        40.750
 104641828.471 7                  19568550.738
        42.250
 116790549.771 6                  21832769.451
        38.750
 149804643.475 5                  28506878.838
        32.500
 204021270.506 7                  38823953.551
        43.000
 191362977.856 7                  36414996.949
        46.750
 121838941.804 7                  22856674.860
        42.750
 119288749.662 6                  22354653.956
        37.250
 147640955.183 6                  28095132.923
        37.250
 119700846.555 7                  22400368.794
        47.000
 121428833.081 7                  22675982.588
        45.000
 121669207.775 7                  22736797.442
        44.500
                                  24439762.850
        34.750
 21 10 13 13  8 30.0000000  0 29G17G02G19G06G07G20G09G05G30G13E09E11
                                E04R05S48S36E12R20R19E31S23S25R14R06
                                E05R15R04R21R16
 130564270.647 6 101738369.63845  24845579.659    24845579.409    24845589.506
        37.000          32.750
 114284042.365 7  89052491.84546  21747529.706    21747528.732    21747526.683
        47.750          39.750
 125425087.100 6  97733812.37744  23867612.878    23867611.680    23867614.822
        41.000          27.750
 106675622.132 8  83123868.92249  20299697.068    20299696.952    20299699.361
        51.000          56.750
 113573873.857 8  88499125.81748  21612387.490    21612387.101    21612386.732
        48.000          50.250
 116038474.137 7  90419592.94645  22081386.464    22081385.360    22081384.738
        44.250          33.250
 117696069.034 7  91711224.10847  22396819.128    22396818.731    22396820.397
        44.750          46.250
 128156764.804 6  99862420.99844  24387419.211    24387419.001    24387420.019
        38.250          24.500
 114443523.924 7  89176799.71848  21777871.888    21777871.110    21777874.408
        47.250          50.500
 123920579.177 6  96561564.62544  23581287.367    23581287.023    23581289.338
        40.500          25.500
 118774744.240 8                  22602081.062
        48.000
 114165500.276 7                  21724973.391
        45.750
 127868129.146 7                  24332496.914
        47.750
 109379603.198 8                  20461718.140
        51.750
  30733516.964 7                   5848331.687
        44.000
 195186653.022 7                  37142784.433
        46.500
 127127658.980 6                  24191594.670
        41.000
 104652686.131 7                  19570580.789
        42.000
 116916266.513 6                  21856270.837
        38.750
 149744996.248 5                  28495527.975
        34.750
 204021449.863 7                  38823991.000
        43.000
 191366253.257 7                  36415580.527
        47.000
 121837944.396 7                  22856487.713
        43.250
 119240119.490 6                  22345541.883
        37.250
 147581947.540 6                  28083903.794
        36.000
 119619086.043 7                  22385068.666
        46.250
 121499419.602 7                  22689163.727
        45.000
 121563129.298 7                  22716974.554
        45.500
                                  24419395.089
        33.750
 21 10 13 13  9  0.0000000  0 29G17G02G19G06G07G20G09G05G30G13E09E11
                                E04R05S48S36E12R20R19E31S23S25R14R06
                                E05R15R04R21R16
 130654622.194 6 101808773.52645  24862773.305    24862773.037    24862782.622
        37.250          32.500
 114227289.670 7  89008268.96546  21736729.976    21736729.011    21736727.352
        47.750          40.000
 125525373.439 6  97811957.37144  23886696.927    23886695.738    23886697.958
        41.000          27.000
 106702968.046 8  83145177.39649  20304900.918    20304900.807    20304903.136
        51.250          56.500
 113569072.361 7  88495384.39548  21611473.520    21611473.131    21611473.028
        47.750          50.250
 115973786.666 7  90369187.14445  22069076.679    22069075.588    22069075.555
        44.750          33.250
 117776274.240 7  91773721.63247  22412081.457    22412081.055    22412082.845
        44.500          46.250
 128083171.793 6  99805075.83844  24373415.108    24373414.880    24373415.733
        38.750          24.000
 114377635.022 7  89125457.74848  21765333.648    21765332.866    21765336.041
        47.750          50.250
 123830196.858 6  96491136.96744  23564088.461    23564088.122    23564090.387
        41.500          26.000
 118753646.403 7                  22598066.288
        47.500
 114178420.259 7                  21727431.923
        45.000
 127907999.920 7                  24340083.977
        47.500
 109406039.246 8                  20466662.982
        51.250
  30733636.763 7                   5848321.541
        44.250
 195186694.903 7                  37142792.039
        47.000
 127209044.551 6                  24207081.686
        40.500
 104664380.704 7                  19572768.064
        42.000
 117042267.000 6                  21879826.275
        38.500
 149685167.122 5                  28484142.885
        34.750
 204021629.082 7                  38824023.531
        43.500
 191369535.714 7                  36416165.107
        47.250
 121837618.430 7                  22856427.009
        43.000
 119191666.165 6                  22336461.256
        37.250
 147523073.667 6                  28072700.858
        36.000
 119537659.677 7                  22369830.567
        46.000
 121569923.079 7                  22702329.598
        43.750
 121457491.548 7                  22697234.535
        47.250
 130334985.659 5                  24398980.237
        33.250
 21 10 13 13  9 30.0000000  0 29G17G02G19G06G07G20G09G05G30G13E09E11
                                E04R05S48S36E12R20R19E31S23S25R14R06
                                E05R15R04R21R16
 130744795.654 6 101879038.62045  24879933.077    24879932.814    24879941.870
        37.750          32.750
 114170910.859 8  88964337.43146  21726001.518    21726000.553    21725999.036
        48.000          40.000
 125625630.017 6  97890079.12544  23905775.359    23905774.179    23905777.652
        41.000          28.000
 106730856.143 8  83166908.34849  20310207.734    20310207.623    20310210.053
        51.250          56.500
 113564769.137 8  88492031.23748  21610654.737    21610654.348    21610654.091
        48.000          50.250
 115909139.973 7  90318813.11245  22056774.746    22056773.651    22056773.719
        45.000          33.750
 117856585.198 7  91836301.56147  22427364.201    22427363.804    22427365.684
        44.750          46.500
 128009544.114 6  99747703.65844  24359403.462    24359403.234    24359403.551
        39.500          24.500
 114312113.845 8  89074402.31848  21752865.221    21752864.439    21752867.686
        48.000          50.750
 123740057.005 6  96420898.24444  23546934.914    23546934.575    23546937.050
        41.000          26.500
 118732746.595 8                  22594089.197
        48.000
 114191755.981 7                  21729969.597
        45.500
 127947960.450 8                  24347688.255
        48.000
 109432591.976 8                  20471630.171
        51.250
  30733761.808 7                   5848312.352
        44.000
 195186732.241 7                  37142799.976
        46.750
 127290627.591 6                  24222606.690
        40.500
 104676911.901 7                  19575110.981
        42.000
 117168546.425 6                  21903432.533
        39.000
 149625157.582 5                  28472723.534
        34.750
 204021807.986 7                  38824056.997
        43.000
 191372819.504 7                  36416751.127
        46.750
 121837964.550 7                  22856492.447
        43.750
 119143388.502 6                  22327413.422
        37.250
 147464333.518 6                  28061522.469
        36.250
 119456572.061 7                  22354656.152
        46.250
 121640343.062 7                  22715480.283
        44.500
 121352298.586 7                  22677576.159
        47.500
                                  24378522.431
        34.250
 21 10 13 13 10  0.0000000  0 29G17G02G19G06G07G20G09G05G30G13E09E11
                                E04R05S48S36E12R20R19E31S23S25R14R06
                                E05R15R04R21R16
 130834789.186 6 101949163.49145  24897057.322    24897057.081    24897067.290
        37.000          30.500
 114114908.441 7  88920699.18146  21715344.458    21715343.497    21715341.795
        47.750          39.750
 125725854.125 6  97968175.61744  23924847.262    23924846.069    23924848.885
        41.000          27.000
 106759286.357 8  83189061.73249  20315617.975    20315617.859    20315620.157
        51.000          56.500
 113560964.851 8  88489066.86848  21609930.882    21609930.485    21609929.961
        48.000          50.000
 115844535.411 7  90268471.92345  22044481.168    22044480.068    22044480.496
        44.750          34.250
 117937000.170 7  91898962.53647  22442666.813    22442666.424    22442668.417
        45.000          46.500
 127935882.197 6  99690304.80144  24345386.570    24345386.365    24345386.096
        39.250          25.000
 114246963.043 7  89023635.49448  21740467.608    21740466.826    21740470.010
        47.750          50.750
 123650160.697 6  96350849.28744  23529828.447    23529828.117    23529830.228
        41.500          26.500
 118712044.238 8                  22590149.744
        48.000
 114205507.690 7                  21732586.479
        45.750
 127988009.749 7                  24355309.416
        47.750
 109459260.127 8                  20476619.408
        51.750
  30733889.420 7                   5848302.116
        43.500
 195186771.098 7                  37142807.073
        46.250
 127372406.817 6                  24238168.752
        40.750
 104690279.052 7                  19577611.805
        42.000
 117295100.762 6                  21927091.112
        39.000
 149564969.411 5                  28461269.528
        35.500
 204021987.688 7                  38824093.347
        43.000
 191374510.356 7                  36417338.470
        46.250
 121838984.089 7                  22856682.726
        43.000
 119095285.356 6                  22318399.171
        37.500
 147405727.345 6                  28050370.139
        36.250
 119375827.714 7                  22339545.662
        46.250
 121710679.344 7                  22728615.450
        45.250
 121247554.776 7                  22658002.187
        46.000
 130116173.765 5                  24358018.299
        35.000
 21 10 13 13 10 30.0000000  0 29G17G02G19G06G07G20G09G05G30G13E09E11
                                E04R05S36E12R20R19E31S23S25R14R06E05
                                R15S48R04R21R16
 130924597.096 6 102019143.68645  24914147.228    24914146.992    24914157.522
        36.250          31.250
 114059281.331 7  88877353.38046  21704759.254    21704758.284    21704756.235
        47.250          39.500
 125826038.964 6  98046241.48844  23943912.143    23943910.945    23943914.614
        40.750          28.250
 106788254.973 8  83211634.64649  20321130.564    20321130.453    20321132.635
        50.750          56.500
 113557656.275 7  88486488.76148  21609301.140    21609300.738    21609300.352
        47.750          50.000
 115779970.280 7  90218161.45545  22032194.626    22032193.522    22032194.248
        44.500          34.000
 118017513.785 7  91961700.37547  22457987.922    22457987.529    22457989.765
        44.500          46.250
 127862182.595 6  99632876.56944  24331362.103    24331361.911    24331362.649
        39.500          25.750
 114182181.600 7  88973156.48448  21728139.790    21728139.008    21728142.618
        47.750          51.000
 123560506.006 6  96280988.60644  23512767.401    23512767.044    23512769.226
        41.250          26.500
 118691535.092 8                  22586246.983
        48.000
 114219671.954 7                  21735281.848
        45.750
 128028143.237 8                  24362946.517
        48.000
 109486038.670 8                  20481628.783
        51.750
 195186811.741 7                  37142815.484
        46.500
 127454377.200 6                  24253767.585
        40.500
 104704478.021 7                  19580266.332
        42.250
 117421922.028 6                  21950799.035
        38.250
 149504600.688 6                  28449781.883
        36.500
 204022165.053 7                  38824126.048
        43.000
 191377806.052 7                  36417926.788
        46.000
 121840674.616 7                  22857000.046
        42.250
 119047352.547 6                  22309417.222
        37.500
 147347251.648 5                  28039241.963
        35.500
 119295427.562 7                  22324500.525
        47.500
  30733084.47717                   5848293.714
        43.750
 121780928.359 7                  22741733.071
        45.250
 121143260.771 7                  22638511.986
        44.750
 130006412.389 5                  24337470.531
        35.500
 21 10 13 13 11  0.0000000  0 29G17G02G19G06G07G20G09G05G30G13E09E11
                                E04R05S36E12R20R19E31S23S25R14R06E05
                                R15S48R04R21R16
 131014218.828 5 102088978.86644  24931201.653    24931201.434    24931211.401
        35.500          29.500
 114004033.266 7  88834302.94246  21694245.787    21694244.822    21694242.641
        47.750          39.500
 125926183.680 6  98124276.10144  23962969.308    23962968.106    23962971.149
        41.000          27.000
 106817763.600 8  83234628.35249  20326745.960    20326745.849    20326747.920
        50.750          56.250
 113554845.564 7  88484298.59948  21608766.371    21608765.974    21608765.497
        47.750          49.750
 115715447.410 7  90167883.90645  22019916.259    22019915.168    22019915.543
        45.000          33.750
 118098125.997 7  92024515.04947  22473327.973    22473327.571    22473329.716
        44.750          46.250
 127788446.993 6  99575420.28644  24317330.108    24317329.916    24317331.024
        39.250          26.000
 114117773.789 7  88922968.61348  21715883.460    21715882.678    21715886.098
        47.750          50.750
 123471095.724 6  96211318.36844  23495753.369    23495753.039    23495754.559
        41.000          25.250
 118671220.234 8                  22582381.301
        48.000
 114234250.617 7                  21738056.148
        45.500
 128068361.532 8                  24370599.827
        48.000
 109512927.755 8                  20486658.915
        51.500
 195186851.077 7                  37142822.249
        46.500
 127536539.068 6                  24269402.362
        40.250
 104719510.358 7                  19583077.775
        42.000
 117549008.028 6                  21974556.094
        38.000
 149444054.887 5                  28438260.354
        34.500
 204022341.853 7                  38824158.413
        43.500
 191381112.099 7                  36418516.501
        46.750
 121843038.812 7                  22857443.722
        43.500
 118999590.776 6                  22300465.883
        38.000
 147288908.305 6                  28028139.907
        36.000
 119215377.716 7                  22309519.595
        46.500
  30733184.211 7                   5848281.762
        43.750
 121851091.239 7                  22754836.115
        44.500
 121039422.189 7                  22619107.092
        44.500
 129896419.107 6                  24316879.276
        36.500
 21 10 13 13 11 30.0000000  0 29G17G02G19G06G07G20G09G05G30G13E09E11
                                E04R05S36E12R20R19E31S23S25R14R06E05
                                R15S48R04R21R16
 131103656.296 5 102158670.44644  24948220.940    24948220.721    24948230.012
        35.500          28.250
 113949170.215 7  88791552.51246  21683805.606    21683804.636    21683802.833
        47.500          40.000
 126026288.857 6  98202279.89744  23982018.581    23982017.383    23982020.949
        40.750          28.000
 106847815.753 8  83258045.58049  20332464.648    20332464.537    20332466.826
        50.750          56.500
 113552537.187 7  88482499.87248  21608326.990    21608326.601    21608326.084
        47.750          49.750
 115650971.422 7  90117642.89045  22007646.922    22007645.836    22007645.997
        44.750          33.750
 118178838.671 7  92087407.99747  22488687.016    22488686.623    22488688.925
        44.250          46.000
 127714679.898 6  99517939.50244  24303292.703    24303292.511    24303293.175
        38.750          25.250
 114053745.863 7  88873076.75348  21703699.413    21703698.635    21703701.776
        47.750          50.750
 123381934.829 6  96141842.46144  23478786.477    23478786.151    23478787.381
        40.750          25.500
 118651102.713 7                  22578552.914
        47.750
 114249247.551 7                  21740909.972
        45.500
 128108667.393 7                  24378269.771
        47.500
 109539929.639 8                  20491710.188
        51.250
 195186890.176 7                  37142829.592
        46.500
 127618894.748 6                  24285074.264
        40.250
 104735379.013 6                  19586045.010
        41.750
 117676358.065 6                  21998363.515
        38.250
 149383337.431 6                  28426705.939
        36.250
 204022522.482 7                  38824191.445
        43.500
 191384423.459 7                  36419109.791
        47.000
 121846081.604 7                  22858014.740
        44.000
 118952002.585 6                  22291549.110
        38.000
 147230701.174 6                  28017063.234
        36.000
 119135686.269 7                  22294606.645
        47.000
  30733289.838 7                   5848274.629
        44.000
 121921171.799 7                  22767923.094
        44.250
 120936047.199 7                  22599788.814
        45.750
 129786201.221 6                  24296246.720
        36.250
 21 10 13 13 12  0.0000000  0 29G17G02G19G06G07G20G09G05G30G13E09E11
                                E04R05S36E12R20R19E31S23S25R14R06E05
                                R15S48R04R21R16
 131192907.627 6 102228216.93545  24965204.625    24965204.424    24965215.484
        38.000          33.000
 113894694.608 8  88749103.99046  21673439.079    21673438.114    21673436.562
        48.000          40.000
 126126352.295 6  98280251.16944  24001060.601    24001059.408    24001063.068
        40.250          27.500
 106878411.668 8  83281886.52149  20338286.872    20338286.761    20338289.147
        50.750          56.500
 113550732.092 7  88481093.30848  21607983.465    21607983.076    21607982.784
        47.750          50.000
 115586544.044 7  90067439.75045  21995386.846    21995385.755    21995385.773
        45.000          33.500
 118259650.591 7  92150378.27547  22504065.163    22504064.766    22504067.028
        44.250          46.000
 127640881.691 6  99460434.44944  24289249.805    24289249.586    24289249.606
        38.250          25.250
 113990100.779 7  88823483.21848  21691588.037    21691587.259    21691590.395
        47.750          50.750
 123293025.052 6  96072562.22444  23461867.207    23461866.863    23461868.286
        40.500          24.750
 118631182.324 8                  22574762.208
        48.000
 114264663.343 7                  21743843.556
        45.750
 128149060.180 7                  24385956.415
        47.750
 109567043.406 8                  20496782.454
        51.750
 195186931.834 7                  37142837.685
        46.500
 127701443.220 6                  24300782.795
        40.000
 104752083.697 7                  19589168.806
        42.000
 117803968.592 6                  22022219.482
        38.500
 149322450.364 5                  28415118.979
        35.750
 204022705.990 7                  38824229.736
        42.750
 191387743.302 7                  36419703.350
        47.000
 121849804.301 7                  22858712.180
        44.250
 118904587.602 6                  22282661.600
        37.500
 147172630.852 5                  28006012.818
        35.500
 119056358.218 7                  22279761.515
        46.250
  30733402.944 7                   5848265.538
        43.750
 121991170.148 7                  22780994.635
        44.750
 120833140.659 7                  22580558.622
        46.000
 129675762.178 6                  24275572.872
        36.750
 21 10 13 13 12 30.0000000  0 29G17G02G19G06G07G20G09G05G30G13E09E11
                                E04R05S36E12R20R19E31S23S25R14R06E05
                                R15S48R04R21R16
 131281962.438 5 102297610.29044  24982151.187    24982150.959    24982162.562
        33.250          29.250
 113840601.205 7  88706953.28546  21663145.560    21663144.595    21663142.726
        47.750          39.750
 126226363.458 6  98358181.70744  24020091.981    24020090.774    24020094.812
        40.500          27.500
 106909543.317 8  83306144.91849  20344210.946    20344210.835    20344213.313
        50.750          56.500
 113549422.764 7  88480073.05648  21607734.434    21607734.050    21607733.750
        47.500          50.000
 115522158.605 7  90017269.28845  21983134.527    21983133.436    21983133.751
        45.000          33.750
 118340552.123 7  92213418.37947  22519460.005    22519459.612    22519462.001
        44.250          45.750
 127567044.857 6  99402899.30044  24275198.726    24275198.521    24275199.817
        39.000          26.500
 113926833.232 7  88774183.87248  21679548.589    21679547.816    21679551.061
        47.500          50.750
 123204360.049 6  96003472.73044  23444994.219    23444993.884    23444996.089
        40.250          24.500
 118611450.550 8                  22571007.398
        48.250
 114280490.266 7                  21746855.301
        45.750
 128189531.100 8                  24393657.698
        48.000
 109594259.865 8                  20501873.895
        51.500
 195186972.680 7                  37142845.712
        46.500
 127784175.277 6                  24316526.235
        40.250
 104769616.155 7                  19592448.101
        42.250
 117931827.151 6                  22046120.256
        38.000
 149261387.630 5                  28403499.159
        35.750
 204022884.014 7                  38824262.750
        43.000
 191391068.965 7                  36420297.736
        46.750
 121854199.745 7                  22859536.453
        44.250
 118857337.162 6                  22273808.089
        37.500
 147114689.563 6                  27994986.650
        36.000
 118977390.546 7                  22264983.204
        47.250
  30733515.419 7                   5848256.291
        43.750
 122061078.134 7                  22794049.966
        43.750
 120730698.361 7                  22561415.199
        46.750
                                  24254854.379
        36.000
 21 10 13 13 13  0.0000000  0 29G17G02G19G06G07G20G09G05G30G13E09E11
                                E04R05S36E12R20R19E31S23S25R14R06E05
                                R15S48R04R21R16
 131370822.027 5 102366851.55745  24999061.429    24999061.188    24999070.527
        35.750          31.000
 113786894.838 7  88665104.16046  21652925.577    21652924.612    21652922.640
        47.750          40.000
 126326322.122 6  98436071.32444  24039113.745    24039112.538    24039116.889
        38.500          26.250
 106941213.210 8  83330822.72449  20350237.674    20350237.563    20350239.925
        50.500          56.500
 113548612.527 7  88479441.70348  21607579.461    21607579.081    21607579.596
        47.250          50.250
 115457818.736 7  89967134.33445  21970891.167    21970890.072    21970890.109
        45.250          34.250
 118421544.339 7  92276529.15947  22534872.575    22534872.186    22534874.025
        44.000          45.500
 127493172.444 6  99345336.42444  24261142.064    24261141.854    24261142.627
        37.500          25.250
 113863948.484 7  88725182.81348  21667581.980    21667581.202    21667584.396
        47.750          50.750
 123115943.689 6  95934576.97844  23428169.216    23428168.890    23428170.724
        40.250          24.250
 118591909.488 8                  22567288.873
        48.250
 114296731.171 7                  21749945.961
        45.750
 128230081.897 7                  24401374.350
        47.750
 109621580.679 8                  20506985.076
        51.500
 195187012.369 7                  37142852.996
        46.500
 127867092.210 6                  24332304.809
        40.500
 104787978.179 7                  19595881.340
        42.000
 118059932.262 6                  22070067.998
        38.000
 149200153.684 6                  28391846.839
        36.000
 204023061.194 7                  38824298.192
        42.750
 191394396.014 7                  36420891.277
        46.500
 121859271.901 7                  22860488.778
        45.250
 118810252.847 6                  22264984.362
        38.000
 147056880.222 6                  27983986.203
        37.750
 118898789.879 7                  22250274.971
        47.000
  30733629.223 7                   5848245.805
        43.750
 122130898.331 7                  22807088.347
        44.000
 120628727.492 7                  22542359.560
        47.750
                                  24234098.010
        34.500
 21 10 13 13 13 30.0000000  0 29G17G02G19G06G07G20G09G05G30G13E09E11
                                E04R05S36E12R20R19E31S23S25R14R06E05
                                R15S48R04R21R16
 131459488.565 6 102435942.33545  25015933.284    25015933.052    25015943.739
        36.750          30.750
 113733582.615 7  88623562.16846  21642780.761    21642779.796    21642777.870
        47.750          39.750
 126426230.137 6  98513921.47144  24058126.025    24058124.809    24058128.846
        40.000          27.250
 106973425.763 8  83355923.38449  20356367.488    20356367.377    20356369.706
        50.750          56.250
 113548306.266 7  88479203.06148  21607521.411    21607521.022    21607521.264
        47.500          50.000
 115393530.000 7  89917039.23545  21958657.532    21958656.441    21958656.402
        45.250          34.250
 118502630.114 7  92339712.84047  22550302.877    22550302.480    22550303.994
        44.000          45.000
 127419269.390 6  99287749.68344  24247077.906    24247077.683    24247078.860
        39.750          25.500
 113801453.716 8  88676485.63048  21655689.507    21655688.729    21655691.816
        48.000          50.500
 123027781.989 6  95865879.66644  23411392.730    23411392.395    23411394.395
        40.000          24.250
 118572563.136 8                  22563607.219
        48.500
 114313390.815 7                  21753116.170
        46.000
 128270716.228 8                  24409106.771
        48.000
 109649008.769 8                  20512116.005
        51.250
 195187050.439 7                  37142859.959
        46.500
 127950197.281 6                  24348119.336
        40.750
 104807173.988 7                  19599471.637
        42.000
 118188284.635 6                  22094062.648
        38.000
 149138754.962 6                  28380162.891
        36.500
 204023242.285 7                  38824332.695
        43.000
 191397731.393 7                  36421488.256
        46.500
 121865026.102 7                  22861568.198
        44.500
 118763338.440 6                  22256192.636
        37.750
 146999207.563 6                  27973011.266
        37.000
 118820565.626 7                  22235636.357
        46.500
  30733748.325 7                   5848235.901
        43.750
 122200635.634 7                  22820110.679
        43.750
 120527236.825 7                  22523393.854
        47.500
                                  24213301.074
        36.000
 21 10 13 13 14  0.0000000  0 29G17G02G19G06G07G20G09G05G30G13E09E11
                                E04R05S36E12R20R19E31S23S25R14R06E05
                                R15S48R04R21R16
 131547953.456 5 102504876.01544  25032768.058    25032767.822    25032778.324
        30.500          26.250
 113680660.328 7  88582324.02246  21632709.839    21632708.878    21632707.047
        47.750          40.000
 126526078.530 6  98591725.16244  24077126.066    24077124.832    24077129.034
        39.000          25.750
 107006174.486 8  83381441.83849  20362599.343    20362599.232    20362601.538
        50.750          56.250
 113548498.380 7  88479352.76448  21607558.111    21607557.709    21607557.868
        47.750          50.250
 115329288.238 7  89866980.74145  21946432.529    21946431.443    21946431.970
        45.000          34.250
 118583801.588 7  92402963.29447  22565749.210    22565748.813    22565750.727
        44.250          45.500
 127345329.496 6  99230134.22944  24233007.715    24233007.532    24233008.860
        38.000          25.250
 113739345.225 8  88628089.43948  21643870.583    21643869.801    21643872.933
        48.000          50.750
 122939869.835 6  95797376.80044  23394663.070    23394662.757    23394665.062
        40.250          24.750
 118553404.666 8                  22559961.543
        48.000
 114330463.110 7                  21756364.757
        45.500
 128311426.887 7                  24416853.726
        47.500
 109676536.701 8                  20517265.705
        51.500
 195187089.792 7                  37142867.605
        46.500
 128033482.872 6                  24363968.203
        39.750
 104827196.048 7                  19603215.605
        42.000
 118316873.668 6                  22118102.260
        38.000
 149077187.017 5                  28368446.517
        34.750
 204023420.790 7                  38824366.474
        43.000
 191399479.508 7                  36422087.145
        46.500
 121871457.138 7                  22862775.210
        44.500
 118716586.761 6                  22247431.399
        38.000
 146941665.586 6                  27962060.656
        36.500
 118742716.118 7                  22221067.109
        47.000
  30733866.941 7                   5848228.509
        44.000
 122270283.285 7                  22833117.665
        44.000
 120426224.590 7                  22504515.765
        45.500
                                  24192462.776
        37.250
 21 10 13 13 14 30.0000000  0 29G17G02G19G06G07G20G09G05G30G13E09E11
                                E04R05S36E12R20R19E31S23S25R14R06E05
                                R15S48R04R21R16
 131636221.109 5 102573656.02445  25049564.530    25049564.302    25049575.254
        33.500          31.750
 113628135.526 7  88541395.60946  21622714.789    21622713.828    21622712.251
        47.750          40.000
 126625869.827 6  98669484.36144  24096116.214    24096114.967    24096119.219
        39.750          27.000
 107039464.536 8  83407382.10449  20368934.149    20368934.038    20368936.495
        50.750          56.250
 113549194.647 7  88479895.31048  21607690.932    21607690.530    21607690.228
        47.750          50.000
 115265099.210 7  89816963.33645  21934217.705    21934216.614    21934216.982
        44.750          34.000
 118665062.431 7  92466283.38147  22581212.952    22581212.550    22581214.452
        43.750          45.250
 127271358.917 6  99172494.85344  24218931.366    24218931.206    24218933.068
        39.000          24.750
 113677630.944 7  88580000.42448  21632126.726    21632125.944    21632129.276
        47.750          50.750
 122852213.982 6  95729073.65444  23377983.146    23377982.847    23377984.725
        40.750          25.000
 118534438.836 8                  22556352.550
        48.000
 114347953.525 7                  21759693.114
        45.500
 128352218.364 7                  24424616.105
        47.750
 109704168.743 8                  20522434.629
        51.500
 195187133.086 7                  37142875.641
        46.500
 128116953.025 6                  24379852.013
        40.250
 104848049.560 7                  19607115.183
        42.000
 118445700.565 6                  22142184.648
        38.000
 149015456.921 5                  28356699.389
        35.000
 204023601.992 7                  38824401.370
        43.250
 191402829.292 7                  36422687.738
        46.500
 121878570.993 7                  22864109.626
        44.250
 118670002.297 6                  22238701.829
        38.500
 146884259.788 6                  27951136.750
        37.500
 118665251.298 7                  22206571.127
        47.500
  30733989.217 7                   5848218.215
        44.000
 122339846.688 7                  22846108.440
        44.500
 120325699.937 7                  22485730.204
        45.750
                                  24171586.792
        36.750
