     2.11           OBSERVATION DATA    M (MIXED)           RINEX VERSION / TYPE
teqc  2019Feb25                         20230504 17:05:59UTCPGM / RUN BY / DATE
Linux2.6.32-573.12.1.el6.x86_64|x86_64|gcc|Win64-MinGW64|=+ COMMENT
BIT 2 OF LLI FLAGS DATA COLLECTED UNDER A/S CONDITION       COMMENT
-Unknown-                                                   MARKER NAME
-Unknown-           -Unknown-                               OBSERVER / AGENCY
-Unknown-           -Unknown-           -Unknown-           REC # / TYPE / VERS
-Unknown-           -Unknown-                               ANT # / TYPE
        0.0000        0.0000        0.0000                  APPROX POSITION XYZ
        0.0000        0.0000        0.0000                  ANTENNA: DELTA H/E/N
     1     1                                                WAVELENGTH FACT L1/2
     7    L1    L2    C1    P1    P2    S1    S2            # / TYPES OF OBSERV
 SNR is mapped to RINEX snr flag value [0-9]                COMMENT
  L1 & L2: min(max(int(snr_dBHz/6), 0), 9)                  COMMENT
  2021    10    21     0     0    0.0000000     GPS         TIME OF FIRST OBS
    18                                                      LEAP SECONDS
                                                            END OF HEADER
 21 10 21  0  0  0.0000000  0 27G31G16R01G32G04S25G29E30E02E05R03E03
                                S23R23G27S48G25R22E11R21S36E08G26R02
                                E25R12G18
 107064830.221 8  83427151.86549  20373751.610    20373751.320    20373749.535
        50.750          55.750
 125129152.697 6  97503231.36243  23811282.101    23811281.252    23811279.280
        39.000          22.750
 130964092.70016                  24499541.182
        41.500
 122262937.050 7  95269850.98345  23265859.526    23265859.433    23265862.209
        43.500          31.500
 134025992.22115                  25504298.110
        32.500
 183531144.848 7                  34924762.975
        45.250
 116879053.802 7  91074642.38847  22241320.306    22241319.837    22241318.390
        46.500          47.250
 144077148.006 6                  27416969.126
        36.750
 129304166.605 7                  24605749.212
        46.500
 149987609.868 5                  28541693.915
        35.250
 130051064.129 6                  24294631.019
        41.000
 138444848.404 7                  26345172.575
        42.000
 204017913.911 7                  38823308.421
        43.750
 124668714.903 7                  23305499.362
        44.250
 128084053.057 6  99805777.24544  24373580.168    24373579.601    24373581.845
        37.250          24.250
  30856709.321 7                   5871828.933
        43.500
 123824328.242 6  96486559.85246  23562966.124    23562965.315    23562967.052
        40.000          39.000
 103163503.618 7                  19325993.381
        43.000
 122766309.127 7                  23361624.310
        42.750
 110146648.356 8                  20583519.299
        51.000
 195145936.430 7                  37135034.923
        47.500
 129407512.227 6                  24625430.434
        40.500
 113096346.200 7  88127080.28146  21521506.432    21521505.990    21521507.992
        46.500          38.750
 123641746.086 7                  23170409.417
        44.000
 128732022.724 7                  24496864.678
        47.250
 111713349.749 8                  20912969.635
        50.000
 114256764.238 7  89031261.62546  21742331.046    21742330.850    21742330.510
        47.000          37.500
 21 10 21  0  0 30.0000000  0 27G31G16R01G32G04S25G29E30E02E05R03E03
                                S23R23G27S48G25R22E11R21S36E08G26R02
                                E25R12G18
 107050071.115 8  83415651.25149  20370942.885    20370942.599    20370940.762
        50.500          55.250
 125065121.762 6  97453337.14743  23799097.017    23799096.163    23799095.303
        39.750          23.500
 131056094.804 5                  24516751.690
        33.750
 122355904.358 7  95342292.99145  23283551.046    23283550.939    23283552.825
        43.000          30.250
 133958308.028 4 104383096.20851  25491417.089    25491416.987    25491418.046
        29.750           9.000
 183528248.982 7                  34924123.283
        45.000
 116962747.751 7  91139858.46947  22257246.855    22257246.386    22257244.284
        46.500          47.000
 144027060.850 6                  27407437.818
        36.000
 129272571.409 7                  24599736.843
        46.500
 150059910.760 5                  28555452.559
        35.000
 130041073.002 6                  24292765.432
        41.000
 138514519.176 7                  26358430.756
        42.000
 204017830.631 7                  38823293.776
        43.250
 124535221.049 7                  23280544.781
        44.000
 127984712.083 6  99728368.71044  24354676.107    24354675.508    24354678.208
        37.500          25.000
  30857429.870 7                   5871861.651
        42.750
 123888347.137 6  96536444.70446  23575147.855    23575147.046    23575149.496
        38.750          38.250
 103122137.104 7                  19318244.163
        43.000
 122786149.025 7                  23365399.986
        42.500
 110222762.013 8                  20597742.547
        50.750
 195145945.284 7                  37135037.074
        47.000
 129427490.089 6                  24629232.540
        40.500
 113057910.860 7  88097130.66946  21514192.576    21514192.134    21514194.438
        46.750          39.000
 123703146.337 7                  23181917.022
        45.500
 128743011.112 7                  24498955.516
        47.000
 111645912.363 8                  20900345.039
        50.250
 114199270.621 7  88986461.43046  21731390.339    21731390.152    21731389.576
        47.000          37.500
 21 10 21  0  1  0.0000000  0 27G31G16R01G32G04S25G29E30E02E05R03E03
                                S23R23G27S48G25R22E11R21S36E08G26R02
                                E25R12G18
 107035773.042 8  83404509.89349  20368222.232    20368221.942    20368219.659
        50.750          56.000
 125001164.191 6  97403500.09943  23786925.909    23786925.033    23786924.315
        40.250          23.500
 131147891.169 5                  24533924.977
        31.750
 122448942.544 7  95414790.20245  23301255.668    23301255.579    23301257.628
        43.250          30.250
 133891015.912 5 104330660.75042  25478612.340    25478612.269    25478613.171
        33.250          13.000
 183525347.487 7                  34923484.847
        46.000
 117046651.805 7  91205238.25947  22273213.232    22273212.763    22273211.120
        45.750          47.250
 143976919.378 6                  27397896.395
        37.000
 129240977.897 7                  24593724.809
        46.750
 150132017.213 5                  28569173.362
        34.750
 130031722.162 6                  24291018.497
        39.750
 138584284.884 7                  26371706.652
        42.750
 204017755.520 7                  38823280.057
        43.250
 124401866.297 7                  23255616.266
        44.500
 127885579.683 6  99651122.56844  24335811.553    24335810.923    24335814.306
        39.250          27.000
  30858158.883 7                   5871894.670
        43.500
 123952420.462 6  96586371.95046  23587341.262    23587340.453    23587342.045
        39.750          39.000
 103081582.080 7                  19310646.594
        42.750
 122806421.130 7                  23369257.522
        43.000
 110299507.988 8                  20612084.674
        51.000
 195145970.672 7                  37135040.289
        47.000
 129447827.655 6                  24633102.459
        40.750
 113019583.315 7  88067265.05446  21506898.953    21506898.511    21506900.493
        47.250          39.250
 123764952.443 7                  23193499.527
        44.250
 128754063.113 7                  24501058.864
        47.250
 111578556.481 8                  20887735.630
        50.000
 114142197.998 7  88941989.28246  21720529.918    21720529.731    21720528.707
        47.250          37.500
 21 10 21  0  1 30.0000000  0 27G31G16R01G32G04S25G29E30E02E05R03E03
                                S23R23G27S48G25R22E11R21S36E08G26R02
                                E25R12G18
 107021921.461 8  83393716.44249  20365586.311    20365586.016    20365583.829
        50.750          56.000
 124937264.158 6  97353707.87743  23774766.650    23774765.783    23774764.623
        40.000          23.750
 131239458.56116                  24551055.741
        36.250
 122542033.242 7  95487328.33844  23318970.190    23318970.092    23318972.024
        42.000          29.250
 133824102.227 5 104278520.27842  25465880.287    25465880.189    25465880.208
        32.750          13.750
 183520838.767 7                  34922843.240
        45.250
 117130748.872 7  91270768.42447  22289216.157    22289215.679    22289214.646
        45.750          47.250
 143926707.956 6                  27388341.489
        36.250
 129209370.936 7                  24587710.206
        46.750
 150203912.685 5                  28582855.052
        34.000
 130022995.365 6                  24289388.078
        40.500
 138654128.146 7                  26384997.435
        42.500
 204017673.333 7                  38823263.365
        43.500
 124268639.259 7                  23230709.562
        45.000
 127786642.578 6  99574028.82944  24316984.468    24316983.851    24316987.282
        39.000          26.250
  30857278.921 7                   5871927.702
        43.500
 124016533.098 6  96636329.82046  23599541.005    23599540.192    23599542.380
        39.000          38.500
 103041824.242 7                  19303199.132
        42.750
 122827109.551 7                  23373194.536
        43.000
 110376866.899 8                  20626541.172
        51.000
 195145983.115 7                  37135044.179
        47.000
 129468508.424 6                  24637037.803
        41.000
 112981348.372 7  88037471.59346  21499623.175    21499622.742    21499624.171
        46.750          38.750
 123827144.323 7                  23205152.819
        43.500
 128765164.021 7                  24503171.269
        47.250
 111511268.601 8                  20875139.704
        50.250
 114085533.617 7  88897835.24246  21709747.100    21709746.913    21709745.832
        47.000          37.500
 21 10 21  0  2  0.0000000  0 27G31G16R01G32G04S25G29E30E02E05R03E03
                                S23R23G27S48G25R22E11R21S36E08G26R02
                                E25R12G18
 107008521.147 8  83383274.62849  20363036.300    20363036.010    20363034.048
        51.250          56.000
 124873424.713 6  97303962.87243  23762617.565    23762616.720    23762615.565
        39.750          23.250
 131330804.634 4                  24568143.437
        27.250
 122635176.670 7  95559907.56744  23336694.551    23336694.449    23336696.319
        42.500          28.500
 133757572.266 5 104226678.73442  25453219.113    25453219.042    25453219.779
        34.250          15.750
 183517907.553 7                  34922199.832
        45.500
 117215039.304 7  91336449.27247  22305256.379    22305255.901    22305254.370
        46.750          47.500
 143876429.535 6                  27378773.599
        36.250
 129177754.046 7                  24581693.755
        47.000
 150275598.790 5                  28596496.257
        35.500
 130014895.435 6                  24287874.852
        39.250
 138724050.134 7                  26398303.304
        42.750
 204017585.144 7                  38823247.459
        43.500
 124135546.391 7                  23205828.651
        43.750
 127687904.976 6  99497090.48444  24298194.563    24298193.978    24298198.235
        40.000          27.250
  30857995.586 7                   5871958.811
        43.250
 124080688.577 6  96686321.10346  23611749.644    23611748.826    23611750.594
        39.000          38.000
 103002868.684 7                  19295901.205
        42.750
 122848217.000 7                  23377210.999
        43.000
 110454838.228 8                  20641111.213
        50.250
 195145993.046 7                  37135045.423
        47.250
 129489534.632 6                  24641039.199
        40.750
 112943209.447 7  88007752.94746  21492365.728    21492365.290    21492366.937
        47.000          39.000
 123889721.946 7                  23216881.348
        44.500
 128776317.761 7                  24505293.757
        47.250
 111444054.088 8                  20862556.536
        50.000
 114029283.342 7  88854003.87846  21699042.832    21699042.645    21699041.819
        47.250          37.500
 21 10 21  0  2 30.0000000  0 27G31G16R01G32G04S25G29E30E02E05R03E03
                                S23R23G27S48G25R22E11R21S36E08G26R02
                                E25R12G18
 106995576.157 8  83373187.61649  20360573.009    20360572.714    20360570.850
        51.000          56.250
 124809648.294 6  97254266.97343  23750481.906    23750481.052    23750479.483
        39.750          23.000
 131421924.896 6                  24585189.025
        37.750
 122728372.705 6  95632527.79044  23354428.998    23354428.896    23354430.573
        41.750          28.000
 133691430.536 5 104175139.77742  25440633.639    25440633.501    25440633.632
        33.750          13.250
 183514972.128 7                  34921553.101
        45.750
 117299523.616 7  91402281.20347  22321333.024    22321332.546    22321330.854
        46.000          47.000
 143826086.639 6                  27369193.581
        36.000
 129146130.362 7                  24575675.989
        47.000
 150347077.327 5                  28610098.244
        34.750
 130007424.770 6                  24286478.961
        40.500
 138794051.669 7                  26411624.061
        42.750
 204017495.070 7                  38823231.093
        43.500
 124002594.089 7                  23180975.012
        45.250
 127589371.612 6  99420311.39344  24279444.242    24279443.634    24279447.420
        39.750          28.000
  30858708.726 7                   5871989.075
        43.250
 124144890.088 6  96736348.24846  23623966.803    23623965.985    23623967.429
        39.500          38.250
 102964719.652 7                  19288753.838
        42.750
 122869745.747 7                  23381307.783
        43.000
 110533421.181 8                  20655796.667
        50.500
 195146002.973 7                  37135046.925
        47.000
 129510907.964 6                  24645106.169
        40.750
 112905169.569 7  87978111.48446  21485126.752    21485126.310    21485128.579
        47.250          39.250
 123952683.818 7                  23228678.554
        44.000
 128787527.886 7                  24507426.739
        47.500
 111376917.949 8                  20849989.004
        50.500
 113973452.651 7  88810499.47146  21688418.732    21688418.549    21688417.668
        47.250          37.750
 21 10 21  0  3  0.0000000  0 27G31G16R01G32G04S25G29E30E02E05R03E03
                                S23R23G27S48G25R22E11R21S36E08G26R02
                                E25R12G18
 106983090.142 8  83363458.25149  20358196.980    20358196.690    20358194.666
        51.250          56.000
 124745937.003 6  97204621.80443  23738357.905    23738357.047    23738355.563
        38.500          21.750
                                  24602193.922
        32.250
 122821620.649 7  95705188.44844  23372173.443    23372173.341    23372175.997
        42.500          29.250
 133625681.348 5 104123906.61742  25428121.616    25428121.411    25428121.438
        34.750          15.750
 183512036.130 7                  34920906.402
        45.500
 117384201.879 7  91468264.26847  22337446.839    22337446.370    22337444.659
        45.500          46.500
 143775681.255 5                  27359602.364
        35.500
 129114502.415 7                  24569657.335
        47.000
 150418349.579 5                  28623661.028
        34.500
 130000585.447 6                  24285201.620
        39.000
 138864133.045 7                  26424960.002
        42.750
 204017408.130 7                  38823215.093
        43.500
 123869789.247 7                  23156147.567
        44.250
 127491045.812 6  99343693.95544  24260733.996    24260733.375    24260736.502
        39.750          28.000
  30857823.984 7                   5872021.718
        43.500
 124209140.210 6  96786413.26746  23636193.315    23636192.506    23636194.164
        39.250          38.250
 102927380.942 7                  19281759.807
        42.750
 122891697.516 7                  23385485.003
        42.750
 110612614.508 8                  20670596.171
        50.750
 195146016.308 7                  37135048.709
        47.250
 129532629.639 6                  24649239.895
        40.750
 112867231.266 7  87948549.17046  21477907.340    21477906.902    21477908.778
        47.000          39.000
 124016028.219 7                  23240549.920
        42.750
 128798797.398 7                  24509571.412
        47.250
 111309864.404 8                  20837436.268
        49.750
 113918046.399 7  88767325.78846  21677875.193    21677874.997    21677874.195
        47.000          37.500
 21 10 21  0  3 30.0000000  0 26G31G16G32G04S25G29E30E02E05R03E03S23
                                R23G27S48G25R22E11R21S36E08G26R02E25
                                R12G18
 106971065.292 8  83354088.22949  20355908.761    20355908.471    20355906.246
        51.000          56.000
 124682291.829 6  97155028.18243  23726246.939    23726246.072    23726244.147
        39.250          21.750
 122914918.602 7  95777888.08445  23389927.834    23389927.736    23389930.020
        43.250          30.250
 133560327.549 5 104072981.58442  25415685.031    25415684.853    25415685.145
        34.750          16.500
 183507490.288 7                  34920256.465
        46.250
 117469072.389 7  91534397.12547  22353596.899    22353596.426    22353595.015
        46.000          47.000
 143725214.185 6                  27349998.398
        36.250
 129082871.633 7                  24563638.044
        46.750
 150489415.236 6                  28637183.992
        37.500
 129994377.868 6                  24284040.601
        39.500
 138934293.304 7                  26438311.311
        42.500
 204017324.741 7                  38823199.885
        43.750
 123737136.525 7                  23131350.477
        43.750
 127392929.975 6  99267239.90544  24242062.888    24242062.262    24242066.020
        39.250          28.250
  30858542.211 7                   5872052.854
        43.500
 124273440.391 6  96836517.28646  23648429.400    23648428.578    23648430.531
        40.250          39.250
 102890854.858 7                  19274916.902
        42.750
 122914072.841 7                  23389742.652
        42.250
 110692415.287 8                  20685508.432
        50.500
 195146028.525 7                  37135052.506
        47.250
 129554699.644 6                  24653439.561
        41.000
 112829395.849 7  87919067.03146  21470707.618    21470707.176    21470708.598
        47.250          39.000
 124079752.536 7                  23252492.574
        44.000
 128810128.138 7                  24511727.560
        47.000
 111242897.236 8                  20824899.669
        50.250
 113863068.358 7  88724485.78146  21667413.248    21667413.052    21667412.240
        47.250          38.000
 21 10 21  0  4  0.0000000  0 26G31G16G32G04S25G29E30E02E05R03E03S23
                                R23G27S48G25R22E11R21S36E08G26R02E25
                                R12G18
 106959495.560 8  83345072.83649  20353707.078    20353706.788    20353704.736
        51.250          56.250
 124618704.871 6  97105479.92143  23714146.297    23714145.417    23714144.155
        38.500          22.000
 123008255.988 7  95850618.45045  23407689.385    23407689.292    23407691.511
        43.000          30.500
 133495363.424 6 104022360.17743  25403324.080    25403323.870    25403323.071
        36.500          18.750
 183504537.474 7                  34919605.119
        46.250
 117554125.478 7  91600672.24747  22369782.007    22369781.534    22369780.178
        46.250          47.250
 143674677.533 5                  27340381.617
        35.750
 129051230.673 7                  24557617.149
        46.750
 150560265.041 5                  28650666.323
        33.250
 129988793.686 6                  24282998.998
        40.000
 139004522.813 7                  26451675.718
        42.250
 204017236.402 7                  38823183.112
        43.750
 123604631.475 7                  23106580.369
        46.250
 127295018.687 6  99190945.34444  24223431.143    24223430.544    24223433.462
        38.500          28.000
  30859254.608 7                   5872084.329
        43.750
 124337783.300 6  96886654.60946  23660673.335    23660672.513    23660674.893
        40.500          39.500
 102855135.080 7                  19268225.453
        42.750
 122936863.488 7                  23394079.958
        42.500
 110772812.114 8                  20700533.112
        51.000
 195146038.184 7                  37135053.753
        47.500
 129577109.223 6                  24657704.115
        41.250
 112791655.871 7  87889659.25846  21463526.038    21463525.600    21463526.998
        47.500          39.000
 124143844.811 7                  23264503.745
        43.750
 128821513.194 7                  24513894.200
        47.000
 111176010.548 8                  20812378.464
        50.500
 113808513.433 7  88681975.47246  21657031.823    21657031.627    21657030.836
        47.250          38.000
 21 10 21  0  4 30.0000000  0 26G31G16G32G04S25G29E30E02E05R03E03S23
                                R23G27S48G25R22E11R21S36E08G26R02E25
                                R12G18
 106948394.208 8  83336422.42549  20351594.432    20351594.142    20351592.320
        51.250          56.500
 124555187.840 6  97055986.13443  23702059.366    23702058.477    23702057.655
        38.250          21.750
 123101642.073 7  95923386.74145  23425460.638    23425460.549    23425463.035
        44.000          31.750
 133430803.025 5 103972053.41843  25391038.023    25391037.827    25391038.326
        33.750          18.000
 183501578.041 7                  34918953.054
        46.250
 117639370.496 7  91667096.92947  22386003.606    22386003.128    22386001.718
        45.750          47.000
 143624083.248 6                  27330753.957
        36.000
 129019592.126 7                  24551596.513
        46.500
 150630910.292 5                  28664109.166
        30.250
 129983844.610 6                  24282074.111
        39.500
 139074831.812 7                  26465054.959
        42.000
 204017153.350 7                  38823167.573
        43.500
 123472290.923 7                  23081839.548
        44.250
 127197325.503 6  99114820.80044  24204841.143    24204840.535    24204843.339
        38.500          27.500
  30858372.804 7                   5872116.377
        43.500
 124402181.564 6  96936835.06846  23672927.604    23672926.773    23672928.709
        39.750          38.250
 102820235.591 7                  19261687.882
        43.000
 122960081.077 7                  23398498.060
        42.500
 110853813.841 8                  20715669.892
        51.000
 195146051.609 7                  37135057.639
        47.000
 129599869.515 6                  24662035.180
        41.500
 112754023.828 7  87860335.59246  21456364.693    21456364.260    21456366.043
        47.500          39.250
 124208313.464 7                  23276585.578
        44.250
 128832965.552 7                  24516073.606
        47.000
 111109219.106 8                  20799874.781
        50.750
 113754396.460 7  88639806.42646  21646733.601    21646733.396    21646732.528
        46.750          38.000
 21 10 21  0  5  0.0000000  0 26G31G16G32G04S25G29E30E02E05R03E03S23
                                R23G27S48G25R22E11R21S36E08G26R02E25
                                R12G18
 106937742.399 8  83328122.30249  20349567.551    20349567.261    20349565.315
        51.250          56.500
 124491720.988 6  97006531.46043  23689981.786    23689980.861    23689979.127
        38.750          22.250
 123195054.019 7  95996175.20245  23443236.303    23443236.205    23443238.379
        43.750          31.500
 133366628.141 6 103922046.96543  25378825.526    25378825.348    25378824.692
        36.750          20.500
 183497001.746 7                  34918295.757
        46.000
 117724785.432 7  91733654.02447  22402257.732    22402257.250    22402255.199
        46.250          46.750
 143573411.184 6                  27321111.034
        36.000
 128987936.414 7                  24545572.676
        46.250
 150701329.464 5                  28677509.519
        32.500
 129979509.816 6                  24281263.591
        38.750
 139145198.360 6                  26478444.932
        41.500
 204017056.118 7                  38823148.435
        43.750
 123340098.120 7                  23057127.824
        44.000
 127099832.047 6  99038851.96844  24186288.331    24186287.732    24186291.409
        37.500          28.000
  30859077.432 7                   5872146.136
        43.750
 124466615.617 6  96987043.40746  23685188.859    23685188.041    23685189.361
        40.250          37.250
 102786137.242 7                  19255300.270
        43.000
 122983705.136 7                  23402993.425
        42.500
 110935396.097 8                  20730915.342
        50.500
 195146056.202 7                  37135057.840
        47.500
 129622959.492 6                  24666428.953
        40.750
 112716480.083 7  87831080.72846  21449220.586    21449220.153    21449221.781
        47.250          39.500
 124273134.539 7                  23288731.746
        42.750
 128844466.020 7                  24518261.815
        47.250
 111042504.944 8                  20787386.011
        50.500
 113700700.117 7  88597965.14146  21636515.744    21636515.539    21636514.325
        47.000          38.000
 21 10 21  0  5 30.0000000  0 27G31G16G32G04S25G29E30R13E02E05R03E03
                                S23R23G27S48G25R22E11R21S36E08G26R02
                                E25R12G18
 106927554.859 8  83320183.94649  20347628.917    20347628.627    20347626.751
        51.000          56.250
 124428316.859 6  96957125.66143  23677917.424    23677916.512    23677914.511
        38.500          21.750
 123288502.119 7  96068991.83345  23461019.020    23461018.913    23461020.448
        43.250          30.500
 133302853.899 6 103872352.78643  25366689.257    25366689.088    25366690.422
        36.000          21.000
 183494018.056 7                  34917639.269
        46.500
 117810381.154 7  91800351.99747  22418546.101    22418545.619    22418543.527
        46.000          46.250
 143522674.292 6                  27311456.353
        37.000


 128956277.095 7                  24539548.123
        46.750
 150771534.920 5                  28690867.991
        33.250
 129975802.148 6                  24280571.264
        40.000
 139215633.754 6                  26491848.485
        41.750
 204016961.795 7                  38823130.727
        43.750
 123208070.498 7                  23032446.918
        45.500
 127002552.901 6  98963050.12444  24167777.212    24167776.618    24167779.102
        37.000          27.250
  30859783.208 7                   5872175.962
        43.750
 124531098.989 6  97037290.19446  23697459.958    23697459.140    23697460.799
        40.250          38.500
 102752854.455 7                  19249065.453
        42.750
 123007748.280 7                  23407568.586
        42.750
 111017568.775 8                  20746271.782
        50.750
 195146062.497 7                  37135058.869
        47.500
 129646391.266 6                  24670887.825
        41.500
 112679038.131 7  87801905.18046  21442095.563    21442095.130    21442096.939
        47.250          39.000
 124338317.690 7                  23300946.605
        42.750
 128856028.618 7                  24520462.202
        47.250
 110975883.626 8                  20774913.956
        50.250
 113647440.191 7  88556463.92446  21626380.745    21626380.544    21626379.495
        46.500          37.750
 21 10 21  0  6  0.0000000  0 27G31G16G32G04S25G29E30R13E02E05R03E03
                                S23R23G27S48G25R22E11R21S36E08G26R02
                                E25R12G18
 106917841.828 8  83312615.34049  20345780.626    20345780.336    20345778.625
        51.000          56.500
 124364984.827 6  96907776.04943  23665864.847    23665863.944    23665862.343
        39.750          22.750
 123381992.544 7  96141841.44345  23478809.310    23478809.181    23478811.205
        43.250          31.250
 133239491.194 6 103822979.24243  25354632.147    25354631.951    25354632.517
        36.500          20.500
 183491032.880 7                  34916982.718
        46.750
 117896164.047 7  91867195.80347  22434869.905    22434869.418    22434868.164
        45.750          46.500
 143471881.418 6                  27301790.798
        36.000


 128924623.587 7                  24533524.573
        46.250
 150841534.141 5                  28704189.031
        34.250
 129972729.872 6                  24279998.309
        38.750
 139286144.991 6                  26505266.375
        41.000
 204016878.681 7                  38823115.725
        44.000
 123076220.936 7                  23007798.075
        44.750
 126905498.684 6  98887423.59544  24149307.789    24149307.181    24149310.344
        38.250          27.000
  30858897.167 7                   5872206.914
        44.000
 124595641.144 6  97087582.76846  23709742.026    23709741.199    23709743.425
        39.250          38.750
 102720397.870 7                  19242984.937
        42.500
 123032218.961 7                  23412225.532
        42.750
 111100337.069 8                  20761738.433
        50.500
 195146078.804 7                  37135061.731
        47.500
 129670172.785 6                  24675413.268
        40.500
 112641707.276 7  87772816.19946  21434991.807    21434991.374    21434993.149
        46.750          39.250
 124403867.421 7                  23313231.515
        43.750
 128867663.146 7                  24522676.039
        47.250
 110909366.783 8                  20762461.720
        50.000
 113594628.247 7  88515311.78646  21616330.805    21616330.609    21616329.662
        46.750          38.000
 21 10 21  0  6 30.0000000  0 27G31G16G32G04S25G29E30R13E02E05R03E03
                                S23R23G27S48G25R22E11R21S36E08G26R02
                                E25R12G18
 106908589.420 8  83305405.66249  20344019.933    20344019.643    20344017.999
        51.250          56.250
 124301709.542 6  96858470.65043  23653824.201    23653823.347    23653821.632
        39.750          23.000
 123475507.240 7  96214709.95744  23496604.731    23496604.606    23496606.497
        43.000          29.750
 133176526.713 6 103773916.00343  25342651.182    25342650.981    25342650.621
        37.500          20.000
 183488034.925 7                  34916322.702
        46.250
 117982116.431 7  91934171.68047  22451226.327    22451225.836    22451224.291
        45.750          46.250
 143421017.236 6                  27292111.712
        36.500


 128892961.156 7                  24527499.261
        47.000
 150911310.970 5                  28717466.842
        33.500
 129970277.240 6                  24279540.353
        40.000
 139356715.015 6                  26518695.419
        41.750
 204016789.308 7                  38823097.230
        43.500
 122944538.005 7                  22983181.523
        44.250
 126808655.663 6  98811961.59444  24130879.535    24130878.932    24130881.669
        37.250          26.500
  30859604.500 7                   5872238.462
        43.500
 124660227.328 6  97137909.63946  23722032.416    23722031.594    23722033.255
        39.750          37.000
 102688752.968 7                  19237056.490
        42.750
 123057101.370 7                  23416960.413
        42.750
 111183681.782 8                  20777313.339
        50.250
 195146088.970 7                  37135062.880
        47.000
 129694287.730 6                  24680002.324
        41.500
 112604472.707 7  87743802.25346  21427906.147    21427905.709    21427907.470
        47.250          39.000
 124469764.991 7                  23325581.109
        44.250
 128879355.254 8                  24524901.046
        48.000
 110842941.171 8                  20750027.041
        50.500
 113542251.772 7  88474498.96846  21606363.624    21606363.419    21606362.644
        47.000          37.750
 21 10 21  0  7  0.0000000  0 27G31G16G32G04S25G29E30R13E02E05R03E03
                                S23R23G27S48G25R22E11R21S36E08G26R02
                                E25R12G18
 106899809.772 8  83298564.36749  20342349.405    20342349.115    20342347.084
        51.000          56.250
 124238501.406 6  96809217.56543  23641796.109    23641795.269    23641793.915
        40.250          23.750
 123569054.319 7  96287603.73345  23514406.377    23514406.248    23514407.503
        43.500          30.250
 133113973.354 5 103725173.08743  25330747.792    25330747.591    25330746.111
        35.500          19.750
 183483435.198 7                  34915663.737
        46.000
 118068247.712 7  92001286.96447  22467616.474    22467615.978    22467614.321
        46.000          46.250
 143370092.471 6                  27282420.481
        36.250
 130218584.55815                  24385758.043
        31.000
 128861301.222 7                  24521474.817
        46.750
 150980875.091 5                  28730705.173
        32.750
 129968454.374 6                  24279200.319
        40.000
 139427352.872 6                  26532137.428
        40.750
 204016704.433 7                  38823082.461
        43.500
 122813036.723 7                  22958599.736
        46.000
 126712036.340 6  98736673.88144  24112493.044    24112492.436    24112495.055
        38.250          27.000
  30860316.758 7                   5872269.025
        43.750
 124724868.965 6  97188279.75546  23734333.484    23734332.666    23734333.893
        39.750          37.500
 102657932.298 7                  19231283.183
        42.500
 123082405.859 7                  23421775.559
        42.500
 111267610.424 8                  20792997.875
        50.750
 195146105.833 7                  37135066.399
        47.250
 129718746.024 6                  24684656.583
        41.500
 112567345.778 7  87714872.18746  21420841.231    21420840.798    21420842.422
        47.500          39.750
 124536017.642 7                  23337994.954
        42.000
 128891116.770 7                  24527139.169
        47.500
 110776620.448 8                  20737612.191
        50.250
 113490324.308 7  88434036.02946  21596482.366    21596482.165    21596480.837
        47.000          37.750
 21 10 21  0  7 30.0000000  0 27G31G16G32G04S25G29E30R13E02E05R03E03
                                S23R23G27S48G25R22E11R21S36E08G26R02
                                E25R12G18
 106891493.277 8  83292083.97449  20340766.750    20340766.460    20340764.398
        50.750          56.250
 124175349.797 6  96760008.53343  23629778.570    23629777.734    23629776.425
        39.750          23.750
 123662620.193 7  96360512.11044  23532211.773    23532211.644    23532213.678
        42.000          29.250
 133051822.072 5 103676743.56943  25318919.425    25318919.224    25318921.509
        35.750          21.000
 183480425.596 7                  34915003.368
        46.750
 118154544.242 7  92068531.00947  22484038.225    22484037.729    22484036.002
        45.250          45.750
 143319096.255 6                  27272716.776
        36.000
 130126771.744 5                  24368566.046
        31.750
 128829633.483 7                  24515448.559
        46.500
 151050215.036 5                  28743899.414
        34.250
 129967249.633 6                  24278973.614
        39.750
 139498045.868 6                  26545589.746
        40.250
 204016615.345 7                  38823064.279
        43.500
 122681710.024 7                  22934049.043
        45.500
 126615631.568 6  98661553.35844  24094148.131    24094147.505    24094150.572
        39.250          27.000
  30859424.751 7                   5872301.064
        43.500
 124789555.714 6  97238685.02446  23746642.924    23746642.106    23746643.814
        40.250          38.750
 102627926.209 7                  19225661.454
        42.500
 123108121.237 7                  23426669.215
        42.000
 111352108.010 8                  20808787.933
        50.250
 195146116.026 7                  37135068.751
        47.000
 129743535.799 6                  24689373.822
        40.750
 112530316.099 7  87686017.89946  21413794.733    21413794.304    21413796.317
        47.750          40.000
 124602609.704 7                  23350475.975
        44.250
 128902937.763 7                  24529388.764
        47.000
 110710395.993 8                  20725214.523
        50.500
 113438837.669 7  88393916.59346  21586684.848    21586684.652    21586683.427
        46.750          38.000
 21 10 21  0  8  0.0000000  0 27G31G16G32G04S25G29E30R13E02E05R03E03
                                S23R23G27S48G25R22E11R21S36E08G26R02
                                E25R12G18
 106883650.898 8  83285973.01949  20339274.363    20339274.073    20339272.213
        51.000          56.250
 124112264.645 6  96710851.29644  23617774.013    23617773.173    23617771.961
        39.750          24.000
 123756211.721 7  96433440.50944  23550021.084    23550020.968    23550023.212
        42.000          29.750
 132990084.327 5 103628636.22943  25307172.419    25307172.205    25307171.704
        35.750          19.750
 183477417.952 7                  34914340.137
        44.750
 118241013.703 7  92135909.80747  22500492.757    22500492.261    22500490.643
        45.500          46.000
 143268038.080 6                  27263000.459
        36.500
 130034791.381 5                  24351339.731
        32.000
 128797967.993 7                  24509422.825
        46.250
 151119339.052 5                  28757052.310
        30.500
 129966672.142 6                  24278865.271
        38.750
 139568801.715 6                  26559054.147
        40.250
 204016532.637 7                  38823048.543
        43.500
 122550571.675 7                  22909532.864
        44.500
 126519452.451 6  98586608.63844  24075845.121    24075844.531    24075847.559
        39.750          27.000
  30860135.893 7                   5872332.428
        43.250
 124854297.623 6  97289133.27446  23758962.721    23758961.908    23758963.724
        39.250          37.250
 102598745.267 7                  19220194.944
        42.250
 123134256.434 7                  23431642.618
        42.250
 111437180.765 8                  20824686.010
        51.000
 195146127.245 7                  37135072.677
        47.250
 129768665.571 6                  24694156.093
        40.500
 112493393.629 7  87657247.14446  21406768.360    21406767.931    21406770.177
        47.500          39.750
 124669548.196 7                  23363020.249
        44.000
 128914828.710 7                  24531651.325
        47.000
 110644279.960 8                  20712837.220
        50.000
 113387804.052 7  88354150.15646  21576973.523    21576973.340    21576972.180
        47.000          38.000
 21 10 21  0  8 30.0000000  0 27G31G16G32G04S25G29E30R13E02E05R03E03
                                S23R23G27S48G25R22E11R21S36E08G26R02
                                E25R12G18
 106876270.204 8  83280221.82049  20337869.755    20337869.465    20337867.873
        51.000          56.500
 124049231.478 6  96661734.56044  23605779.527    23605778.687    23605777.267
        40.500          24.500
 123849812.542 7  96506376.12244  23567832.863    23567832.747    23567835.442
        42.000          28.750
 132928748.472 5 103580842.06543  25295500.085    25295499.907    25295500.094
        34.500          19.250
 183472793.547 7                  34913675.806
        46.500
 118327640.006 7  92203410.82047  22516977.060    22516976.564    22516975.413
        45.750          46.500
 143216904.156 6                  27253270.306
        36.000
 129942630.591 5                  24334079.165
        30.250
 128766291.616 7                  24503395.047
        46.500
 151188232.335 5                  28770162.768
        34.250
 129966707.166 6                  24278871.985
        39.000
 139639604.921 6                  26572527.505
        40.500
 204016440.179 7                  38823029.780
        43.500
 122419611.600 7                  22885051.655
        45.750
 126423486.979 6  98511830.41544  24057583.688    24057583.125    24057586.164
        40.500          27.250
  30860836.866 7                   5872361.798
        43.500
 124919081.576 6  97339614.25046  23771290.430    23771289.608    23771292.225
        40.250          38.500
 102570376.620 7                  19214880.569
        42.750
 123160797.257 7                  23436692.958
        42.500
 111522810.854 8                  20840687.949
        50.500
 195146138.444 7                  37135074.045
        47.250
 129794120.625 6                  24699000.090
        40.500
 112456565.172 7  87628549.64546  21399760.280    21399759.860    21399761.508
        47.750          39.500
 124736815.239 7                  23375626.584
        44.750
 128926776.869 7                  24533924.904
        47.000
 110578261.102 8                  20700478.613
        50.250
 113337212.401 7  88314728.11546  21567346.088    21567345.905    21567344.916
        47.250          38.250
 21 10 21  0  9  0.0000000  0 27G31G16G32G04S25G29E30R13E02E05R03E03
                                S23R23G27S48G25R22E11R21S36E08G26R02
                                E25R12G18
 106869363.249 8  83274839.77249  20336555.469    20336555.174    20336553.386
        51.250          56.500
 123986261.322 6  96612666.92844  23593796.407    23593795.549    23593794.258
        40.250          24.750
 123943430.519 6  96579325.11044  23585647.660    23585647.549    23585650.105
        41.000          28.250
 132867826.952 5 103533370.80043  25283908.000    25283907.817    25283907.251
        35.000          18.250
 183469766.597 7                  34913008.206
        46.500
 118414431.836 7  92271040.80647  22533493.197    22533492.710    22533491.633
        45.000          46.750
 143165705.228 6                  27243527.471
        37.500
 129850300.927 5                  24316792.683
        31.250
 128734615.638 7                  24497367.392
        46.750
 151256904.707 4                  28783230.446
        29.750
 129967364.959 6                  24278995.264
        37.750
 139710464.342 6                  26586011.960
        40.250
 204016350.437 7                  38823014.648
        43.500
 122288844.872 7                  22860607.015
        46.750
 126327747.447 6  98437228.22644  24039365.123    24039364.538    24039367.030
        41.250          27.250
  30859941.566 7                   5872393.895
        43.750
 124983918.805 6  97390136.73846  23783628.508    23783627.686    23783630.066
        40.000          38.750
 102542832.219 7                  19209720.883
        42.500
 123187753.811 7                  23441822.856
        42.250
 111609005.440 8                  20856795.543
        50.750
 195146153.989 7                  37135074.636
        47.250
 129819910.638 6                  24703907.542
        40.750
 112419841.936 7  87599934.14546  21392772.344    21392771.915    21392773.314
        47.750          40.000
 124804416.680 7                  23388295.292
        44.250
 128938793.893 7                  24536211.798
        47.000
 110512352.696 8                  20688140.148
        50.750
 113287076.053 7  88275660.85346  21557805.339    21557805.156    21557804.070
        47.500          38.500
 21 10 21  0  9 30.0000000  0 27G31G16G32G04S25G29E30R13E02E05R03E03
                                S23R23G27S48G25R22E11R21S36E08G26R02
                                E25R12G18
 106862929.439 8  83269826.41049  20335331.198    20335330.908    20335328.877
        51.000          56.500
 123923352.434 6  96563647.03144  23581825.179    23581824.357    23581823.174
        40.500          24.750
 124037061.244 6  96652284.02144  23603465.250    23603465.143    23603467.893
        41.500          28.500
 132807320.128 5 103486222.65543  25272393.218    25272393.026    25272393.440
        35.000          19.500
 183466731.242 7                  34912341.420
        46.250
 118501385.159 7  92338796.63047  22550039.543    22550039.061    22550038.000
        45.250          46.000
 143114439.420 6                  27233772.017
        36.250
 129757801.921 4                  24299467.422
        29.000
 128702938.905 7                  24491339.365
        46.750
 151325353.902 5                  28796256.763
        31.250
 129968642.913 6                  24279232.995
        38.250
 139781376.501 6                  26599505.804
        40.250
 204016260.219 7                  38822997.719
        43.500
 122158273.587 7                  22836197.586
        46.750
 126232233.732 6  98362802.01044  24021189.676    24021189.073    24021191.646
        40.500          27.750
  30860644.569 7                   5872424.517
        43.500
 125048808.119 6  97440699.83146  23795977.036    23795976.218    23795978.179
        40.000          38.750
 102516111.374 7                  19204714.364
        42.250
 123215123.860 6                  23447030.997
        41.750
 111695758.963 8                  20873007.681
        50.750
 195146161.397 7                  37135077.082
        47.000
 129846032.849 6                  24708878.245
        40.750
 112383222.713 7  87571399.68846  21385803.548    21385803.119    21385805.091
        47.750          40.250
 124872347.797 7                  23401023.847
        44.000
 128950879.037 7                  24538511.715
        46.750
 110446555.498 8                  20675822.863
        50.500
 113237395.895 7  88236949.06446  21548351.527    21548351.340    21548350.447
        47.500          38.750
 21 10 21  0 10  0.0000000  0 27G31G16G32G04S25G29E30R13E02E05R03E03
                                S23R23G27S48G25R22E11R21S36E08G26R02
                                E25R12G18
 106856965.485 8  83265179.17749  20334196.349    20334196.054    20334194.006
        51.250          56.500
 123860500.274 6  96514671.34644  23569864.792    23569863.970    23569862.491
        39.500          24.000
 124130697.339 6  96725247.12044  23621283.233    23621283.135    23621285.981
        41.000          27.250
 132747225.052 5 103439395.32143  25260957.956    25260957.720    25260956.984
        34.750          18.250
 183462084.526 7                  34911669.599
        46.750
 118588493.058 7  92406672.91747  22566615.794    22566615.303    22566613.670
        44.750          45.750
 143063102.083 6                  27224002.391
        37.250
 129665129.647 5                  24282113.270
        30.000
 128671257.330 7                  24485310.491
        46.750
 151393574.062 5                  28809238.163
        32.000
 129970535.642 6                  24279587.986
        38.250
 139852334.861 6                  26613008.844
        40.750
 204016167.179 7                  38822981.125
        43.750
 122027897.034 7                  22811824.318
        45.250
 126136942.717 6  98288549.32244  24003056.491    24003055.892    24003057.879
        40.250          27.750
  30861340.745 7                   5872453.645
        43.750
 125113745.424 6  97491300.31946  23808334.260    23808333.447    23808335.459
        39.250          38.250
 102490210.298 7                  19199863.408
        42.750
 123242902.174 7                  23452316.970
        42.000
 111783063.068 8                  20889322.054
        50.250
 195146169.899 7                  37135078.875
        47.500
 129872481.497 6                  24713911.662
        41.000
 112346703.296 7  87542943.00746  21378854.312    21378853.883    21378855.599
        47.500          40.000
 124940599.356 7                  23413815.244
        43.500
 128963028.560 7                  24540823.612
        47.000
 110380867.470 8                  20663525.888
        50.750
 113188169.840 7  88198591.12046  21538984.114    21538983.931    21538983.113
        47.250          38.750
 21 10 21  0 10 30.0000000  0 28G31G16E07G32G04S25G29E30R13E02E05R03
                                E03S23R23G27S48G25R22E11R21S36E08G26
                                R02E25R12G18
 106851480.952 8  83260905.51549  20333152.616    20333152.326    20333150.495
        51.000          57.000
 123797713.113 6  96465746.29444  23557916.958    23557916.113    23557913.989
        39.000          24.000


 124224344.480 7  96798218.83444  23639104.181    23639104.092    23639106.850
        42.000          29.000
 132687551.864 5 103392896.74843  25249601.485    25249601.226    25249601.312
        34.250          18.500
 183459034.441 7                  34910998.042
        46.500
 118675761.839 7  92474674.56347  22583222.410    22583221.914    22583220.168
        44.750          45.750
 143011701.530 6                  27214221.458
        37.500
 129572293.680 4                  24264726.845
        26.750
 128639579.828 7                  24479282.500
        46.750
 151461572.364 6                  28822177.974
        37.000
 129973050.648 6                  24280058.198
        39.000
 139923345.983 6                  26626521.952
        40.750
 204016080.838 7                  38822963.350
        43.500
 121897727.825 7                  22787491.128
        45.750
 126041884.359 6  98214477.92944  23984966.914    23984966.342    23984968.444
        40.250          27.500
  30860442.804 7                   5872485.845
        43.500
 125178739.551 6  97541945.08246  23820701.863    23820701.054    23820703.108
        39.250          37.250
 102465138.470 7                  19195166.058
        42.750
 123271096.516 7                  23457682.095
        42.250
 111870922.440 8                  20905740.878
        50.500
 195146181.382 7                  37135081.052
        47.250
 129899263.921 6                  24719008.142
        41.000
 112310292.578 7  87514571.02146  21371925.221    21371924.792    21371926.713
        47.250          40.250
 125009176.026 7                  23426666.315
        43.250
 128975251.757 7                  24543149.542
        46.750
 110315299.507 8                  20651251.542
        50.500
 113139408.781 7  88160595.51046  21529705.379    21529705.210    21529704.134
        47.000          39.000
 21 10 21  0 11  0.0000000  0 28G31G16E07G32G04S25G29E30R13E02E05R03
                                E03S23R23G27S48G25R22E11R21S36E08G26
                                R02E25R12G18
 106846472.682 8  83257002.96349  20332199.522    20332199.227    20332197.543
        51.250          56.500
 123734986.796 6  96416868.65944  23545980.634    23545979.785    23545978.187
        39.750          24.250


 124317995.744 6  96871193.74844  23656925.319    23656925.230    23656927.647
        41.750          27.500
 132628298.148 5 103346725.03443  25238325.685    25238325.426    25238325.722
        34.000          18.250
 183455244.23417                  34910323.869
        46.750
 118763185.074 7  92542796.55947  22599858.580    22599858.084    22599856.701
        44.750          46.250
 142960233.507 6                  27204427.520
        36.250
 129479291.029 4                  24247313.838
        28.500
 128607902.774 7                  24473254.537
        46.500
 151529343.577 5                  28835074.554
        34.500
 129976183.005 6                  24280643.303
        38.750
 139994403.795 6                  26640044.033
        40.500
 204015995.461 7                  38822946.179
        43.500
 121767765.635 7                  22763195.776
        46.500
 125947055.945 6  98140585.70044  23966921.867    23966921.273    23966922.961
        40.750          27.500
  30861147.973 7                   5872513.896
        43.500
 125243786.859 6  97592631.29946  23833079.956    23833079.152    23833080.904
        39.000          37.250
 102440892.334 7                  19190623.954
        42.750
 123299702.094 7                  23463125.467
        42.250
 111959328.879 8                  20922261.788
        50.250
 195146191.875 7                  37135085.063
        47.250
 129926374.778 6                  24724167.093
        40.750
 112273986.807 7  87486280.81146  21365016.620    21365016.200    21365018.481
        47.250          40.250
 125078070.701 7                  23439577.444
        43.500
 128987545.375 7                  24545489.040
        47.000
 110249850.112 8                  20638999.127
        50.500
 113091111.083 7  88122960.95946  21520514.402    21520514.233    21520513.287
        47.250          38.500
 21 10 21  0 11 30.0000000  0 28G31G16E07G32G04S25G29E30R13E02E05R03
                                E03S23R23G27S48G25R22E11R21S36E08G26
                                R02E25R12G18
 106841934.395 8  83253466.62949  20331335.978    20331335.683    20331333.863
        51.250          56.500
 123672313.458 6  96368032.30644  23534054.055    23534053.206    23534052.048
        39.750          24.000


 124411640.908 7  96944163.91844  23674745.739    23674745.646    23674747.989
        42.000          28.750
 132569458.165 6 103300875.72743  25227128.596    25227128.351    25227128.735
        36.250          19.250
 183452172.385 7                  34909648.345
        46.000
 118850752.733 7  92611031.08547  22616522.251    22616521.764    22616520.573
        44.500          46.000
 142908690.378 6                  27194619.201
        36.750
 129386114.633 4                  24229864.571
        28.750
 128576219.232 7                  24467225.467
        46.500
 151596878.711 4                  28847925.347
        28.250
 129979923.805 6                  24281343.159
        40.500
 140065498.994 6                  26653572.760
        40.250
 204015902.090 7                  38822929.352
        43.750
 121638006.659 7                  22738938.509
        45.500
 125852451.534 6  98066868.01544  23948918.771    23948918.181    23948920.701
        40.500          27.750
  30861843.935 7                   5872545.054
        43.500
 125308880.376 6  97643353.50546  23845467.135    23845466.335    23845468.148
        40.000          38.250
 102417465.153 7                  19186234.959
        42.500
 123328710.759 7                  23468645.936
        42.000
 112048271.084 8                  20938882.744
        50.500
 195146208.022 7                  37135086.790
        47.250
 129953805.510 6                  24729387.307
        41.250
 112237779.003 7  87458066.94046  21358126.858    21358126.429    21358128.542
        47.250          40.250
 125147270.658 7                  23452545.829
        44.000
 128999902.865 7                  24547840.331
        47.000
 110184513.916 8                  20626768.197
        51.000
 113043271.785 7  88085683.60446  21511410.805    21511410.640    21511409.627
        47.500          38.500
 21 10 21  0 12  0.0000000  0 28G31G16E07G32G04S25G29E30R13E02E05R03
                                E03S23R23G27S48G25R22E11R21S36E08G26
                                R02E25R12G18
 106837876.512 8  83250304.63949  20330563.899    20330563.604    20330561.663
        51.500          56.750
 123609702.515 6  96319244.56243  23522140.084    23522139.239    23522137.186
        40.250          23.750


 124505286.474 7  97017134.39144  23692566.291    23692566.193    23692568.187
        42.000          28.000
 132511043.107 5 103255357.50343  25216013.194    25216012.953    25216013.010
        34.500          18.500
 183449099.857 7                  34908972.473
        46.750
 118938472.345 7  92679384.02447  22633214.614    22633214.127    22633212.725
        45.250          45.250
 142857081.367 6                  27184798.080
        36.750
 129292774.625 5                  24212384.904
        30.000
 128544538.950 7                  24461196.767
        47.000
 151664186.905 5                  28860733.615
        31.250
 129984281.535 6                  24282156.513
        39.000
 140136638.900 6                  26667110.638
        40.750
 204015812.090 7                  38822911.130
        44.000
 121508464.182 7                  22714721.279
        44.500
 125758081.877 6  97993333.26144  23930961.152    23930960.594    23930962.374
        39.000          27.000
  30860941.088 7                   5872575.515
        44.000
 125374029.770 6  97694119.25446  23857864.451    23857863.651    23857865.784
        40.000          38.250
 102394867.238 7                  19182001.735
        42.750
 123358131.043 7                  23474244.251
        42.250
 112137754.258 8                  20955604.755
        50.000
 195146222.106 7                  37135088.721
        47.500
 129981564.106 7                  24734669.520
        42.000
 112201678.844 7  87429936.95846  21351257.024    21351256.591    21351258.802
        47.750          40.250
 125216782.290 7                  23465570.961
        43.250
 129012334.335 7                  24550206.159
        47.500
 110119303.149 8                  20614560.590
        51.000
 112995902.538 7  88048772.52346  21502396.684    21502396.524    21502395.596
        47.250          38.500
 21 10 21  0 12 30.0000000  0 28G31G16E07G32G04S25G29E30R13E02E05R03
                                E03S23R23G27S48G25R22E11R21S36E08G26
                                R02E25R12G18
 106834294.888 8  83247513.75649  20329882.204    20329881.905    20329880.112
        51.500          56.750
 123547148.605 6  96270501.26544  23510236.029    23510235.175    23510234.129
        39.750          24.250


 124598924.519 6  97090099.01444  23710385.059    23710384.970    23710387.067
        41.750          29.000
 132453049.430 5 103210167.67342  25204977.252    25204977.007    25204977.815
        35.000          17.500
 183444419.944 7                  34908295.460
        46.000
 119026336.390 7  92747849.51247  22649934.432    22649933.941    22649932.501
        45.000          45.000
 142805401.249 6                  27174963.740
        36.750
 129199267.441 5                  24194873.862
        32.250
 128512857.360 7                  24455167.952
        46.500
 151731261.365 5                  28873498.354
        33.250
 129989249.872 6                  24283083.536
        37.750
 140207816.511 6                  26680655.208
        40.500
 204015721.582 7                  38822894.755
        43.500
 121379137.049 7                  22690545.471
        45.500
 125663943.305 6  97919978.59644  23913046.846    23913046.288    23913048.728
        39.500          27.500
  30861635.052 7                   5872605.559
        43.750
 125439230.423 6  97744924.95846  23870271.467    23870270.658    23870272.905
        39.250          38.250
 102373093.938 7                  19177922.752
        42.750
 123387957.129 7                  23479919.980
        42.250
 112227769.457 8                  20972426.142
        50.000
 195146230.477 7                  37135091.780
        47.250
 130009644.299 6                  24740012.940
        41.000
 112165681.651 7  87401887.20546  21344406.929    21344406.500    21344408.612
        47.750          40.250
 125286595.259 7                  23478656.047
        45.750
 129024835.546 7                  24552584.983
        47.250
 110054214.855 8                  20602375.921
        51.000
 112949000.632 7  88012225.60046  21493471.672    21493471.512    21493470.479
        47.750          38.500
 21 10 21  0 13  0.0000000  0 28G31G16E07G32G04S25G29E30R13E02E05R03
                                E03S23R23G27S48G25R22E11R21S36E08G26
                                R02E25R12G18
 106831196.120 8  83245099.12949  20329292.583    20329292.284    20329290.381
        51.000          56.750
 123484656.976 6  96221806.50043  23498344.318    23498343.473    23498341.733
        40.250          23.750


 124692557.657 6  97163059.78544  23728202.636    23728202.543    23728205.490
        41.750          28.750
 132395484.095 5 103165311.58543  25194022.237    25194021.974    25194023.104
        34.250          18.750
 183441340.046 7                  34907618.255
        46.250
 119114348.120 7  92816430.08047  22666682.607    22666682.116    22666680.709
        44.250          45.000
 142753655.184 6                  27165116.714
        36.000
 129105598.742 5                  24177332.079
        30.750
 128481180.240 7                  24449140.134
        46.750
 151798107.313 5                  28886217.799
        31.000
 129994833.221 6                  24284127.330
        39.250
 140279035.223 6                  26694207.614
        40.000
 204015634.074 7                  38822876.225
        43.750
 121250034.499 7                  22666410.697
        46.250
 125570042.565 6  97846809.26344  23895177.551    23895177.019    23895180.008
        39.250          27.750
  30862333.856 7                   5872636.119
        43.500
 125504488.044 6  97795775.03046  23882689.776    23882688.985    23882691.124
        39.500          38.000
 102352150.691 7                  19173999.814
        42.750
 123418193.513 7                  23485673.847
        42.250
 112318318.150 8                  20989347.432
        49.750
 195146247.131 7                  37135092.911
        47.250
 130038050.154 6                  24745418.388
        40.750
 112129793.188 7  87373922.17846  21337577.451    21337577.022    21337578.924
        47.500          40.250
 125356711.731 7                  23491794.456
        42.750
 129037412.689 7                  24554978.429
        47.000
 109989257.136 8                  20590215.692
        50.750
 112902573.782 7  87976048.85446  21484637.135    21484636.970    21484635.697
        47.250          38.750
 21 10 21  0 13 30.0000000  0 28G31G16E07G32G04S25G29E30R13E02E05R03
                                E03S23R23G27S48G25R22E11R21S36E08G26
                                R02E25R12G18
 106828567.011 8  83243050.46749  20328792.415    20328792.120    20328790.096
        51.500          57.000
 123422213.703 6  96173149.41044  23486461.386    23486460.564    23486458.999
        39.250          24.000


 124786169.098 7  97236003.68044  23746016.347    23746016.280    23746018.722
        42.500          29.250
 132338334.744 5 103120779.67042  25183147.723    25183147.415    25183148.462
        33.250          17.000
 183438237.224 7                  34906934.889
        45.500
 119202491.049 7  92885112.87847  22683455.835    22683455.357    22683453.787
        44.250          45.000
 142701829.061 6                  27155254.532
        36.500
 129011756.411 5                  24159759.601
        32.000
 128449494.172 7                  24443110.474
        46.750
 151864708.933 5                  28898892.207
        31.500
 130001016.154 6                  24285281.125
        38.250
 140350279.158 6                  26707765.041
        40.250
 204015535.574 7                  38822858.660
        43.750
 121121146.115 7                  22642317.170
        46.500
 125476367.108 6  97773815.47444  23877351.735    23877351.203    23877353.965
        39.250          28.000
  30861422.060 7                   5872664.446
        43.500
 125569789.135 6  97846658.99746  23895115.988    23895115.197    23895117.602
        39.750          38.750
 102332024.178 7                  19170229.258
        42.500
 123448825.486 6                  23491502.974
        41.750
 112409381.962 8                  21006364.770
        50.000
 195146251.304 7                  37135094.946
        47.250
 130066766.434 6                  24750882.649
        40.500
 112093999.899 7  87346031.30646  21330766.442    21330766.009    21330767.538
        47.500          40.250
 125427112.802 7                  23504988.140
        44.000
 129050052.629 7                  24557383.708
        47.250
 109924418.300 8                  20578077.519
        51.000
 112856610.348 7  87940233.20846  21475890.437    21475890.272    21475889.105
        47.500          39.000
 21 10 21  0 14  0.0000000  0 27G31G16E07G32G04S25G29E30R13E02R03E03
                                S23R23G27S48G25R22E11R21S36E08G26R02
                                E25R12G18
 106826424.589 8  83241381.03849  20328384.576    20328384.277    20328382.449
        51.500          56.500
 123359834.373 6  96124542.15544  23474590.307    23474589.462    23474589.095
        40.750          24.250


 124879771.942 7  97308940.85244  23763828.391    23763828.342    23763830.674
        42.750          28.750
 132281618.834 5 103076585.44242  25172355.291    25172354.947    25172355.106
        35.000          17.000
 183435141.386 7                  34906252.336
        45.750
 119290778.461 7  92953908.25947  22700256.230    22700255.765    22700254.398
        44.750          44.750
 142649938.629 6                  27145380.221
        36.750
 128917756.378 5                  24142156.038
        31.500
 128417815.480 7                  24437082.070
        47.250
 130007813.682 6                  24286552.270
        38.000
 140421562.219 6                  26721329.615
        40.250
 204015442.531 7                  38822840.890
        43.500
 120992492.020 7                  22618265.505
        46.250
 125382934.158 6  97701010.66644  23859572.506    23859571.948    23859573.541
        40.000          27.500
  30862115.619 7                   5872694.724
        43.250
 125635149.952 6  97897589.48846  23907553.825    23907553.034    23907555.125
        39.250          37.250
 102312731.138 7                  19166614.750
        42.500
 123479868.129 7                  23497410.004
        42.250
 112500973.183 8                  21023481.036
        50.500
 195146256.183 7                  37135096.837
        47.250
 130095807.754 6                  24756409.200
        40.500
 112058318.098 8  87318227.31246  21323976.363    21323975.930    21323977.732
        48.000          40.000
 125497810.790 7                  23518236.695
        44.000
 129062772.097 7                  24559804.158
        47.750
 109859716.895 8                  20565965.389
        51.000
 112811128.564 7  87904792.87646  21467235.660    21467235.495    21467234.347
        47.750          38.750
 21 10 21  0 14 30.0000000  0 27G31G16E07G32G04S25G29E30R13E02R03E03
                                S23R23G27S48G25R22E11R21S36E08G26R02
                                E25R12G18
 106824762.321 8  83240085.76049  20328068.197    20328067.898    20328066.297
        51.250          56.500
 123297511.411 6  96075978.81544  23462731.980    23462731.126    23462729.552
        39.750          24.750


 124973355.875 6  97381863.30844  23781636.895    23781636.842    23781639.041
        41.500          28.000
 132225330.432 5 103032724.37143  25161643.210    25161642.906    25161644.805
        35.250          18.750
 183430427.957 7                  34905569.380
        45.750
 119379201.775 7  93022809.53547  22717082.660    22717082.182    22717081.118
        44.250          45.000
 142597976.214 5                  27135491.858
        35.750
 128823592.272 5                  24124520.735
        30.500
 128386137.181 7                  24431053.971
        46.250
 130015216.498 6                  24287935.700
        40.250
 140492874.960 6                  26734899.962
        39.500
 204015349.636 7                  38822821.452
        43.500
 120864068.420 7                  22594258.267
        47.000
 125289737.550 6  97628390.00644  23841837.995    23841837.423    23841838.702
        40.000          27.500
  30862806.877 7                   5872724.701
        43.750
 125700563.435 6  97948561.01046  23920001.501    23920000.710    23920002.396
        38.750          36.000
 102294263.957 7                  19163155.421
        42.250
 123511313.071 6                  23503394.183
        41.500
 112593080.326 8                  21040693.187
        49.750
 195146269.112 7                  37135098.496
        47.250
 130125165.310 6                  24761995.571
        40.000
 112022740.648 8  87290504.62946  21317206.063    21317205.630    21317207.620
        48.000          40.000
 125568793.992 7                  23531538.338
        43.000
 129075564.391 7                  24562238.371
        46.750
 109795147.795 8                  20553877.972
        51.000
 112766123.169 7  87869723.75546  21458671.330    21458671.156    21458670.063
        47.500          38.750
 21 10 21  0 15  0.0000000  0 27G31G16E07G32G04S25G29E30R13E02R03E03
                                S23R23G27S48G25R22E11R21S36E08G26R02
                                E25R12G18
 106823585.963 8  83239169.11249  20327844.401    20327844.102    20327842.358
        51.250          56.500
 123235249.549 6  96027463.10044  23450883.492    23450882.643    23450881.679
        40.750          25.250


 125066923.070 7  97454772.70644  23799442.444    23799442.386    23799444.519
        42.500          29.000
 132169476.091 6 102989201.52943  25151015.253    25151014.936    25151015.200
        37.000          18.750
 183427315.306 7                  34904883.460
        45.750
 119467762.986 7  93091818.25847  22733935.572    22733935.085    22733933.935
        44.250          45.000
 142545946.603 6                  27125590.594
        36.500
 128729270.679 5                  24106858.351
        31.500
 128354464.682 7                  24425027.039
        46.750
 130023228.806 6                  24289431.028
        38.250
 140564220.369 6                  26748476.915
        39.750
 204015259.768 7                  38822806.749
        43.500
 120735884.071 7                  22570295.421
        47.500
 125196783.588 6  97555958.42044  23824149.358    23824148.791    23824150.528
        40.250          28.500
  30861899.236 7                   5872754.684
        44.000
 125766034.901 6  97999577.74046  23932460.812    23932460.021    23932461.436
        39.750          37.500
 102276628.317 7                  19159851.506
        42.500
 123543164.444 7                  23509454.939
        42.250
 112685704.026 8                  21058002.338
        50.000
 195146282.071 7                  37135099.869
        47.500
 130154842.745 6                  24767643.029
        41.000
 111987272.991 8  87262867.50146  21310456.556    21310456.132    21310458.260
        48.000          40.250
 125640063.656 7                  23544894.486
        43.750
 129088435.297 7                  24564687.578
        47.500
 109730718.646 8                  20541816.801
        51.000
 112721601.373 7  87835031.46546  21450198.755    21450198.577    21450197.756
        47.750          39.000
 21 10 21  0 15 30.0000000  0 27G31G16E07G32G04S25G29E30R13E02R03E03
                                S23R23G27S48G25R22E11R21S36E08G26R02
                                E25R12G18
 106822892.980 8  83238629.12049  20327712.523    20327712.219    20327710.315
        51.500          56.750
 123173045.493 6  95978992.43644  23439046.687    23439045.856    23439043.805
        41.250          26.250


 125160467.279 6  97527664.18644  23817243.485    23817243.436    23817245.914
        41.250          28.250
 132114053.728 6 102946015.29143  25140468.645    25140468.337    25140468.480
        36.500          19.000
 183424187.045 7                  34904197.795
        45.500
 119556456.090 7  93160929.76347  22750813.081    22750812.599    22750811.403
        44.750          44.750
 142493846.252 6                  27115676.854
        36.250
 128634788.649 5                  24089162.682
        31.500
 128322795.006 7                  24419000.391
        46.750
 130031845.689 6                  24291041.532
        37.750
 140635593.058 6                  26762058.377
        39.500
 204015168.297 7                  38822789.350
        43.250
 120607939.413 7                  22546377.279
        47.250
 125104070.148 6  97483714.23644  23806506.429    23806505.879    23806507.469
        40.500          29.000
  30862589.803 7                   5872784.491
        43.750
 125831561.260 6  98050637.24446  23944929.659    23944928.872    23944931.039
        40.000          37.500
 102259820.776 7                  19156702.942
        42.500
 123575417.925 7                  23515592.500
        42.250
 112778836.817 8                  21075406.168
        49.750
 195146291.775 7                  37135102.874
        47.000
 130184835.166 6                  24773350.810
        40.500
 111951912.029 8  87235313.51546  21303727.790    21303727.370    21303729.367
        48.000          40.250
 125711611.567 7                  23558302.206
        42.000
 129101382.196 7                  24567151.149
        47.000
 109666428.367 8                  20529781.207
        51.250
 112677561.964 7  87800715.05846  21441818.625    21441818.447    21441817.332
        47.750          39.000
 21 10 21  0 16  0.0000000  0 27G31G16E07G32G04S25G29E30R13E02R03E03
                                S23R23G27S48G25R22E11R21S36E08G26R02
                                E25R12G18
 106822681.176 8  83238464.06949  20327672.343    20327672.044    20327670.066
        51.500          56.750
 123110896.216 6  95930564.44644  23427219.385    23427218.549    23427217.848
        41.250          26.500


 125253982.950 7  97600533.41944  23835038.932    23835038.888    23835041.693
        42.000          29.500
 132059062.319 6 102903164.82343  25130004.017    25130003.704    25130003.810
        36.500          19.250
 183419449.646 7                  34903510.068
        45.750
 119645275.957 7  93230140.04847  22767714.664    22767714.177    22767712.885
        44.500          44.750
 142441672.163 6                  27105748.001
        36.250
 128540144.786 5                  24071441.629
        31.500
 128291125.893 7                  24412973.926
        46.750
 130041062.975 6                  24292762.239
        38.750
 140706988.294 6                  26775644.376
        38.500
 204015073.332 7                  38822768.155
        43.500
 120480235.466 7                  22522504.352
        47.250
 125011595.783 6  97411656.34144  23788908.972    23788908.445    23788909.818
        41.000          29.000
  30863277.527 7                   5872814.469
        43.500
 125897140.184 6  98101737.69846  23957408.928    23957408.141    23957410.121
        38.750          37.000
 102243839.023 7                  19153708.864
        42.500
 123608069.849 7                  23521805.960
        42.000
 112872471.798 8                  21092903.864
        49.750
 195146301.826 7                  37135104.202
        47.250
 130215138.595 6                  24779116.980
        40.500
 111916655.416 7  87207840.84046  21297018.596    21297018.172    21297020.314
        47.500          40.500
 125783431.733 7                  23571760.371
        42.250
 129114403.134 7                  24569629.189
        47.000
 109602276.813 8                  20517772.026
        51.000
 112634004.382 7  87766774.10246  21433529.880    21433529.702    21433528.616
        47.750          39.250
 21 10 21  0 16 30.0000000  0 27G31G16E07G32G04S25G29E30R13E02R03E03
                                S23R23G27S48G25R22E11R21S36E08G26R02
                                E25R12G18
 106822956.246 8  83238678.39849  20327724.717    20327724.413    20327722.411
        51.500          56.500
 123048805.995 6  95882182.47344  23415404.414    23415403.583    23415402.712
        41.500          27.250


 125347471.836 6  97673381.78544  23852829.830    23852829.799    23852831.842
        40.500          28.000
 132004507.744 6 102860654.81543  25119622.908    25119622.622    25119623.059
        37.250          19.500
 183416314.679 7                  34902820.392
        46.000
 119734225.569 7  93299451.43147  22784641.315    22784640.833    22784639.340
        44.250          44.500
 142389428.800 5                  27095806.742
        35.750
 128445343.911 5                  24053685.552
        30.500
 128259462.335 7                  24406948.645
        46.750
 130050883.804 6                  24294596.963
        38.500
 140778408.610 6                  26789235.465
        38.750
 204014982.034 7                  38822753.939
        43.750
 120352780.454 7                  22498677.704
        46.000
 124919366.278 6  97339789.25844  23771358.402    23771357.902    23771359.541
        41.500          29.000
  30862366.409 7                   5872844.711
        43.750
 125962776.535 6  98152882.88346  23969899.211    23969898.429    23969899.958
        38.250          36.500
 102228687.718 7                  19150870.892
        42.250
 123641123.808 7                  23528095.888
        42.000
 112966609.602 8                  21110496.060
        49.500
 195146315.563 7                  37135107.346
        47.500
 130245756.157 6                  24784943.575
        40.250
 111881508.132 7  87180453.35246  21290330.527    21290330.103    21290331.930
        47.750          40.500
 125855523.845 7                  23585272.531
        42.500
 129127503.445 7                  24572122.306
        46.750
 109538270.906 8                  20505789.845
        51.250
 112590935.349 7  87733213.83346  21425334.027    21425333.849    21425332.735
        47.750          39.000
 21 10 21  0 17  0.0000000  0 27G31G16E07G32G04S25G29E30R13E02R03E03
                                S23R23G27S48G25R22E11R21S36E08G26R02
                                E25R12G18
 106823717.040 8  83239271.21549  20327869.383    20327869.084    20327867.198
        51.250          56.750
 122986772.550 6  95833844.75044  23403599.873    23403599.042    23403597.879
        40.750          27.000
 151549426.68815                  28838898.049
        30.750
 125440928.993 6  97746205.40744  23870613.753    23870613.727    23870616.424
        40.500          28.500
 131950389.365 6 102818484.61743  25109323.649    25109323.363    25109323.280
        36.000          18.750
 183413172.551 7                  34902129.513
        45.250
 119823300.290 7  93368860.29947  22801591.813    22801591.335    22801589.942
        44.250          44.500
 142337113.742 6                  27085851.616
        36.750
 128350384.630 5                  24035903.574
        31.000
 128227802.702 7                  24400923.933
        47.500
 130061304.314 6                  24296543.378
        40.000
 140849849.886 6                  26802830.138
        39.250
 204014891.401 7                  38822733.191
        43.500
 120225575.923 7                  22474897.869
        45.750
 124827380.822 6  97268112.33244  23753854.263    23753853.763    23753855.432
        41.250          29.000
  30863053.372 7                   5872872.949
        43.500
 126028468.580 6  98204071.47346  23982400.232    23982399.454    23982401.040
        38.500          36.250
 102214364.446 7                  19148187.127
        42.500
 123674576.686 7                  23534461.983
        42.250
 113061243.780 8                  21128181.259
        49.750
 195146327.960 7                  37135109.729
        47.250
 130276684.309 6                  24790828.830
        41.000
 111846468.433 7  87153149.69746  21283662.583    21283662.159    21283664.293
        47.500          40.250
 125927881.592 7                  23598832.326
        43.500
 129140681.778 7                  24574629.815
        47.500
 109474411.186 8                  20493835.306
        51.000
 112548354.853 7  87700034.23746  21417230.974    21417230.805    21417229.793
        47.750          39.000
 21 10 21  0 17 30.0000000  0 27G31G16E07G32G04S25G29E30R13E02R03E03
                                S23R23G27S48G25R22E11R21S36E08G26R02
                                E25R12G18
 106824966.026 8  83240244.44349  20328107.027    20328106.728    20328104.883
        51.500          56.750
 122924797.638 6  95785552.63644  23391806.363    23391805.550    23391804.744
        40.750          26.750
 151523449.530 5                  28833955.024
        30.750
 125534353.428 6  97819003.56144  23888391.580    23888391.567    23888394.281
        40.250          27.000
 131896710.389 6 102776656.89343  25099108.642    25099108.352    25099109.446
        36.500          19.500
 183408421.505 7                  34901437.011
        45.500
 119912498.999 7  93438365.77947  22818565.820    22818565.347    22818564.096
        44.500          44.500
 142284728.726 6                  27075882.737
        36.750
 128255270.674 5                  24018092.489
        31.750
 128196149.269 7                  24394900.432
        47.000
 130072325.018 6                  24298601.948
        40.000
 140921311.975 6                  26816428.902
        39.500
 204014799.763 7                  38822717.008
        43.500
 120098627.748 7                  22451166.530
        46.000
 124735642.466 6  97196627.96144  23736397.141    23736396.636    23736398.008
        41.500          28.500
  30863739.717 7                   5872901.635
        43.750
 126094218.422 6  98255305.14146  23994911.662    23994910.875    23994913.298
        38.250          36.750
 102200871.377 7                  19145659.747
        42.250
 123708429.426 7                  23540904.052
        42.250
 113156372.115 8                  21145957.783
        50.000
 195146336.211 7                  37135112.349
        47.250
 130307923.475 6                  24796773.494
        40.750
 111811538.568 7  87125931.62846  21277015.686    21277015.266    21277017.079
        47.750          40.250
 126000502.652 7                  23612441.278
        43.000
 129153940.766 7                  24577152.982
        47.250
 109410702.060 8                  20481908.941
        51.250
 112506266.858 8  87667238.40946  21409222.050    21409221.885    21409220.675
        48.000          39.000
 21 10 21  0 18  0.0000000  0 27G31G16E07G32G04S25G29E30R13E02R03E03
                                S23R23G27S48G25R22E11R21S36E08G26R02
                                E25R12G18
 106826699.498 8  83241595.18749  20328436.995    20328436.696    20328434.759
        51.500          56.750
 122862876.531 6  95737302.43944  23380023.183    23380022.343    23380021.254
        40.750          26.500
 151497824.528 5                  28829078.656
        32.000
 125627737.959 6  97891770.58144  23906162.181    23906162.159    23906165.318
        41.000          28.250
 131843467.813 6 102735169.16142  25088977.106    25088976.838    25088976.870
        36.250          17.500
 183405264.540 7                  34900743.650
        45.500
 120001815.840 7  93507963.31247  22835562.087    22835561.609    22835560.434
        44.000          44.500
 142232269.173 6                  27065900.234
        37.000
 128159998.656 5                  24000251.940
        31.000
 128164498.108 7                  24388877.519
        47.000
 130083940.086 6                  24300772.567
        40.000
 140992788.461 6                  26830030.929
        40.000
 204014705.866 7                  38822698.643
        43.500
 119971934.995 7                  22427483.275
        47.000
 124644148.057 6  97125333.66644  23718985.952    23718985.443    23718987.289
        41.750          28.500
  30862825.188 7                   5872932.699
        43.500
 126160022.091 6  98306580.71245  24007433.668    24007432.868    24007434.838
        36.750          34.000
 102188204.100 7                  19143286.690
        42.500
 123742676.683 7                  23547420.710
        42.500
 113251985.981 8                  21163825.849
        49.500
 195146350.773 7                  37135114.236
        47.250
 130339467.827 6                  24802776.377
        41.000
 111776714.494 7  87098795.99646  21270388.983    21270388.554    21270390.112
        47.500          40.500
 126073378.529 6                  23626096.014
        39.000
 129167276.815 7                  24579690.861
        47.250
 109347141.538 8                  20470010.391
        51.000
 112464669.058 7  87634824.55146  21401306.293    21401306.119    21401305.013
        47.750          39.500
 21 10 21  0 18 30.0000000  0 27G31G16E07G32G04S25G29E30R13E02R03E03
                                S23R23G27S48G25R22E11R21S36E08G26R02
                                E25R12G18
 106828920.514 8  83243325.83949  20328859.669    20328859.370    20328857.242
        51.500          57.000
 122801011.478 6  95689095.93144  23368250.383    23368249.552    23368248.607
        40.500          26.500
 151472554.329 5                  28824270.359
        32.250
 125721082.074 6  97964506.14644  23923925.109    23923925.087    23923927.430
        40.250          26.000
 131790665.177 5 102694024.24642  25078929.431    25078929.163    25078929.031
        34.500          17.500
 183402095.636 7                  34900048.281
        45.000
 120091251.097 7  93577653.10747  22852581.105    22852580.627    22852579.510
        44.250          44.500
 142179737.052 6                  27055903.967
        36.500
 128064571.413 5                  23982381.522
        30.500
 128132851.891 7                  24382855.417
        46.750
 130096149.811 6                  24303054.286
        40.250
 141064279.527 6                  26843635.105
        40.000
 204014613.140 7                  38822678.105
        43.250
 119845503.964 7                  22403847.518
        47.750
 124552901.014 6  97054232.13144  23701622.179    23701621.679    23701623.482
        41.500          28.500
  30863508.878 7                   5872960.839
        43.500
 126225882.104 6  98357900.18846  24019967.099    24019966.290    24019967.754
        37.750          36.000
 102176364.695 7                  19141068.311
        42.500
 123777319.595 6                  23554013.046
        41.750
 113348083.583 8                  21181783.800
        49.250
 195146362.436 7                  37135115.435
        47.250
 130371318.163 6                  24808837.409
        40.250
 111741998.878 7  87071744.87246  21263782.852    21263782.423    21263783.920
        47.750          40.500
 126146507.213 7                  23639801.996
        42.000
 129180692.904 7                  24582243.911
        47.000
 109283734.521 8                  20458140.269
        51.250
 112423565.775 8  87602796.03346  21393484.558    21393484.380    21393483.354
        48.000          39.500
 21 10 21  0 19  0.0000000  0 27G31G16E07G32G04S25G29E30R13E02R03E03
                                S23R23G27S48G25R22E11R21S36E08G26R02
                                E25R12G18
 106831627.430 8  83245435.11549  20329374.756    20329374.457    20329372.387
        51.500          56.750
 122739199.903 6  95640931.07944  23356488.249    23356487.409    23356486.706
        39.500          25.000
 151447637.105 5                  28819528.523
        34.000
 125814380.718 6  98037206.29644  23941679.568    23941679.551    23941681.913
        40.750          27.500
 131738301.684 5 102653221.54542  25068964.512    25068964.280    25068964.343
        34.750          17.250
 183397319.813 7                  34899349.622
        46.500
 120180800.002 7  93647431.45547  22869622.161    22869621.679    22869620.067
        44.000          44.250
 142127130.089 6                  27045893.238
        38.000
 127968987.685 4                  23964481.229
        28.250
 128101208.952 7                  24376833.820
        47.000
 130108950.731 6                  24305444.582
        40.750
 141135781.003 6                  26857241.673
        40.750
 204014516.699 7                  38822658.663
        43.500
 119719335.781 7                  22380261.702
        47.500
 124461900.354 6  96983322.58044  23684305.157    23684304.670    23684306.480
        41.000          28.500
  30864187.897 7                   5872990.924
        43.750
 126291796.653 6  98409262.14645  24032509.394    24032508.585    24032511.143
        37.250          35.000
 102165350.717 7                  19139005.548
        42.250
 123812354.959 7                  23560680.117
        42.000
 113444658.404 8                  21199831.415
        49.750
 195146372.852 7                  37135117.049
        47.500
 130403470.865 6                  24814955.754
        41.000
 111707389.939 8  87044776.88146  21257196.900    21257196.462    21257198.172
        48.000          40.500
 126219881.992 7                  23653552.665
        42.500
 129194187.644 7                  24584811.828
        47.250
 109220481.123 8                  20446298.977
        51.250
 112382956.832 8  87571152.71946  21385756.783    21385756.605    21385755.827
        48.000          39.750
 21 10 21  0 19 30.0000000  0 27G31G16E07G32G04S25G29E30R13E02R03E03
                                S23R23G27S48G25R22E11R21S36E08G26R02
                                E25R12G18
 106834829.112 8  83247929.93049  20329984.036    20329983.737    20329981.771
        51.500          56.500
 122677449.853 6  95592814.15444  23344736.877    23344736.014    23344736.574
        39.750          24.000
 151423081.255 5                  28814855.875
        33.750
 125907639.141 6  98109875.07444  23959425.823    23959425.819    23959428.724
        40.750          26.250
 131686386.648 5 102612768.29142  25059086.559    25059086.314    25059086.233
        33.500          17.000
 183394137.775 7                  34898648.976
        46.250
 120270467.537 7  93717302.26247  22886684.809    22886684.318    22886682.983
        43.750          43.750
 142074456.151 6                  27035869.542
        37.750
 127873256.967 5                  23946552.860
        30.750
 128069577.757 7                  24370814.646
        47.000
 130122349.152 6                  24307948.987
        39.250
 141207298.945 6                  26870851.215
        40.500
 204014424.046 7                  38822643.159
        43.500
 119593442.576 8                  22356727.240
        48.250
 124371155.285 6  96912612.19744  23667036.612    23667036.121    23667038.250
        41.500          28.500
  30863271.861 7                   5873020.150
        43.500
 126357774.074 6  98460673.11645  24045064.560    24045063.756    24045066.064
        37.500          35.500
 102155170.424 7                  19137098.190
        42.250
 123847789.783 6                  23567423.139
        41.750
 113541714.247 8                  21217968.159
        49.750
 195146383.916 7                  37135119.736
        47.250
 130435932.400 6                  24821132.789
        40.750
 111672896.108 7  87017898.57846  21250633.023    21250632.581    21250634.313
        47.750          40.500
 126293507.275 7                  23667349.229
        42.500
 129207769.839 7                  24587396.091
        47.000
 109157392.150 8                  20434488.825
        51.250
 112342852.286 7  87539902.44046  21378125.425    21378125.247    21378124.207
        47.750          39.750
 21 10 21  0 20  0.0000000  0 27G31G16E07G32G04S25G29E30R13E02R03E03
                                S23R23G27S48G25R22E11R21S36E08G26R02
                                E25R12G18
 106838517.179 8  83250803.74449  20330685.788    20330685.489    20330683.637
        51.500          56.500
 122615751.997 6  95544737.92343  23332996.915    23332996.070    23332993.995
        38.750          23.500
 151398878.136 5                  28810249.838
        33.000
 126000845.572 6  98182503.35344  23977163.029    23977163.029    23977165.231
        41.000          27.250
 131634912.471 5 102572658.55942  25049291.369    25049291.119    25049290.831
        34.750          17.750
 183390943.129 7                  34897949.758
        46.500
 120360243.302 7  93787257.40047  22903768.758    22903768.271    22903766.571
        44.750          43.500
 142021706.008 6                  27025831.405
        37.500
 127777371.653 5                  23928597.597
        31.000
 128037949.852 7                  24364796.052
        47.000
 130136334.288 6                  24310562.431
        40.500
 141278822.434 6                  26884461.995
        41.000
 204014328.806 7                  38822622.885
        43.500
 119467818.853 7                  22333243.149
        47.750
 124280658.030 6  96842094.90744  23649815.538    23649815.047    23649817.021
        40.750          28.250
  30863951.260 7                   5873049.399
        43.500
 126423805.773 6  98512126.37945  24057630.475    24057629.680    24057631.288
        38.250          35.750
 102145814.424 7                  19135345.172
        42.500
 123883614.127 7                  23574240.273
        42.250
 113639238.006 8                  21236192.828
        49.500
 195146388.250 7                  37135121.878
        47.250
 130468692.359 6                  24827366.903
        41.250
 111638508.847 8  86991103.31646  21244089.191    21244088.749    21244090.577
        48.000          40.500
 126367369.702 7                  23681192.403
        43.000
 129221431.280 7                  24589995.866
        47.250
 109094461.061 8                  20422708.057
        51.250
 112303245.139 8  87509039.74246  21370588.373    21370588.195    21370586.934
        48.000          39.250
 21 10 21  0 20 30.0000000  0 27G31G16E07G32G04S25G29E30R13E02R03E03
                                S23R23G27S48G25R22E11R21S36E08G26R02
                                E25R12G18
 106842698.933 8  83254062.25049  20331481.496    20331481.192    20331479.335
        51.750          56.750
 122554112.487 6  95496707.15643  23321267.163    23321266.323    23321264.433
        39.500          23.500
 151375034.419 5                  28805712.857
        34.500
 126094003.292 6  98255093.59644  23994890.474    23994890.487    23994893.091
        41.250          27.500
 131583886.686 5 102532898.25143  25039580.496    25039580.210    25039581.490
        35.750          18.000
 183387754.033 7                  34897246.591
        47.000
 120450130.808 7  93857299.61347  22920873.853    22920873.375    22920871.583
        43.500          43.500
 141968885.715 6                  27015780.020
        37.500
 127681338.646 5                  23910611.034
        32.000
 128006331.859 7                  24358779.359
        46.750
 130150910.864 6                  24313283.702
        39.000
 141350355.578 6                  26898074.215
        40.500
 204014236.722 7                  38822605.401
        43.750
 119342474.698 8                  22309811.698
        48.250
 124190415.927 6  96771776.44244  23632643.345    23632642.858    23632644.345
        40.500          28.000
  30864632.734 7                   5873079.882
        43.750
 126489898.170 6  98563626.92446  24070207.015    24070206.220    24070208.491
        39.000          36.500
 102137288.304 7                  19133748.774
        42.500
 123919832.994 6                  23581132.739
        41.750
 113737231.717 8                  21254505.660
        49.500
 195146397.438 7                  37135125.304
        47.500
 130501755.430 6                  24833658.517
        40.250
 111604234.745 7  86964396.22846  21237567.134    21237566.692    21237568.505
        47.750          40.500
 126441471.499 6                  23695077.795
        40.750
 129235178.933 7                  24592612.108
        46.750
 109031696.726 8                  20410958.293
        51.000
 112264143.563 7  87478570.99046  21363147.604    21363147.430    21363146.060
        47.750          39.250
 21 10 21  0 21  0.0000000  0 27G31G16E07G32G04S25G29E30R13E02R03E03
                                S23R23G27S48G25R22E11R21S36E08G26R02
                                E25R12G18
 106847367.477 8  83257700.07249  20332369.926    20332369.627    20332367.802
        51.500          57.000
 122492524.201 6  95448716.29244  23309547.113    23309546.277    23309545.187
        41.000          24.750
 151351543.189 5                  28801242.435
        34.250
 126187102.747 6  98327638.56544  24012606.207    24012606.190    24012609.266
        41.500          27.250
 131533303.275 5 102493482.59843  25029954.743    25029954.457    25029954.404
        35.500          19.000
 183382908.79317                  34896542.060
        46.500
 120540120.979 7  93927421.81447  22937998.313    22937997.835    22937996.238
        43.500          43.250
 141915987.911 6                  27005713.938
        37.000
 127585151.236 4                  23892600.263
        29.500
 127974717.120 7                  24352763.272
        46.750
 130166069.447 6                  24316114.980
        38.750
 141421889.188 6                  26911686.526
        40.750
 204014138.655 7                  38822585.315
        43.250
 119217406.417 7                  22286430.699
        47.250
 124100422.973 6  96701652.11944  23615518.626    23615518.135    23615518.943
        40.500          28.250
  30863708.041 7                   5873107.463
        43.250
 126556044.504 6  98615169.51845  24082794.357    24082793.566    24082795.974
        38.000          35.750
 102129585.062 7                  19132305.521
        42.500
 123956438.203 6                  23588098.430
        41.500
 113835684.011 8                  21272903.459
        49.500
 195146409.184 7                  37135126.623
        47.250
 130535112.940 6                  24840006.191
        40.250
 111570067.084 7  86937772.08646  21231065.167    21231064.725    21231066.842
        47.500          40.750
 126515800.270 6                  23709007.112
        40.750
 129249006.424 7                  24595243.318
        46.750
 108969094.559 8                  20399239.444
        51.500
 112225542.345 7  87448492.13346  21355802.094    21355801.920    21355800.664
        47.750          39.500
 21 10 21  0 21 30.0000000  0 27G31G16E07G32G04S25G29E30R13E02R03E03
                                S23R23G27S48G25R22E11R21S36E08G26R02
                                E25R12G18
 106852528.774 8  83261721.85649  20333352.057    20333351.758    20333349.936
        51.250          56.750
 122430992.437 7  95400769.45144  23297838.303    23297837.481    23297835.331
        42.000          26.250
 151328410.344 5                  28796840.045
        33.750
 126280146.562 7  98400140.17044  24030312.288    24030312.266    24030315.174
        42.000          28.000
 131483169.142 5 102454417.08543  25020415.120    25020414.897    25020415.686
        35.250          19.750
 183379701.960 7                  34895837.381
        46.000
 120630217.163 7  93997626.62647  22955142.935    22955142.457    22955141.132
        44.000          43.500
 141863018.099 6                  26995634.146
        37.000
 127488817.347 5                  23874562.214
        32.000
 127943111.816 7                  24346748.895
        47.500
 130181814.424 6                  24319056.877
        38.500
 141493427.100 6                  26925299.862
        40.250
 204014041.728 7                  38822570.241
        43.500
 119092623.662 7                  22263103.414
        47.250
 124010686.052 6  96631727.30444  23598441.968    23598441.450    23598442.746
        40.500          29.250
  30864385.929 7                   5873134.244
        43.750
 126622250.783 6  98666758.82645  24095392.939    24095392.139    24095394.663
        37.250          35.250
 102122709.966 7                  19131017.370
        42.250
 123993434.317 7                  23595138.624
        42.250
 113934596.297 8                  21291387.670
        49.000
 195146420.332 7                  37135127.508
        47.250
 130568769.026 6                  24846410.887
        40.500
 111536011.961 7  86911235.63646  21224584.891    21224584.449    21224586.213
        47.750          40.750
 126590358.607 6                  23722980.139
        41.750
 129262920.190 7                  24597891.104
        47.000
 108906662.740 8                  20387551.950
        51.500
 112187449.106 8  87418809.09946  21348552.982    21348552.808    21348551.708
        48.000          39.500
 21 10 21  0 22  0.0000000  0 27G31G16E07G32G04S25G29E30R13E02R03E03
                                S23R23G27S48G25R22E11R21S36E08G26R02
                                E25R12G18
 106858186.264 8  83266130.28549  20334428.665    20334428.366    20334426.461
        51.250          57.000
 122369519.677 7  95352868.59044  23286140.910    23286140.092    23286138.402
        43.000          27.750
 151305638.880 5                  28792507.247
        34.000
 126373134.418 7  98472598.11444  24048007.483    24048007.457    24048010.288
        42.250          28.000
 131433488.081 5 102415704.53543  25010961.039    25010960.798    25010960.230
        35.750          19.750
 183376495.137 7                  34895131.571
        46.250
 120720418.899 7  94067913.69447  22972308.023    22972307.532    22972306.072
        44.500          44.000
 141809978.650 6                  26985541.383
        37.250
 127392340.110 4                  23856493.993
        29.500
 127911518.932 7                  24340737.059
        47.750
 130198146.253 6                  24322107.440
        39.250
 141564969.681 6                  26938914.055
        40.500
 204013948.860 7                  38822550.749
        43.750
 118968132.645 7                  22239831.302
        47.250
 123921208.653 6  96562004.71444  23581414.422    23581413.872    23581415.724
        41.000          29.750
  30865063.346 7                   5873163.457
        43.500
 126688519.732 6  98718396.95445  24108004.440    24108003.631    24108005.176
        37.000          35.250
 102116664.876 7                  19129885.103
        42.250
 124030822.748 7                  23602253.213
        42.000
 114033966.954 8                  21309957.227
        49.000
 195146435.257 7                  37135129.985
        47.500
 130602724.687 6                  24852872.505
        40.500
 111502072.338 7  86884789.19046  21218126.137    21218125.695    21218127.312
        47.750          40.500
 126665143.948 7                  23736994.111
        42.750
 129276923.515 7                  24600555.814
        47.000
 108844406.445 8                  20375897.011
        51.250
 112149868.217 7  87389525.30246  21341401.511    21341401.324    21341400.202
        47.750          39.750
 21 10 21  0 22 30.0000000  0 27G31G16E07G32G04S25G29E30R13E02R03E03
                                S23R23G27S48G25R22E11R21S36E08G26R02
                                E25R12G18
 106864337.087 8  83270923.12849  20335599.245    20335598.946    20335596.904
        51.250          56.750
 122308102.105 7  95305010.74744  23274453.252    23274452.439    23274450.627
        42.500          28.250
 151283225.559 5                  28788241.363
        32.000
 126466060.188 6  98545007.70644  24065690.275    24065690.231    24065693.127
        41.250          26.500
 131384257.758 6 102377343.27543  25001592.878    25001592.673    25001592.557
        36.500          20.500
 183371680.861 7                  34894423.772
        45.750
 120810721.901 7  94138279.66747  22989491.840    22989491.358    22989490.406
        44.000          44.250
 141756865.890 6                  26975433.779
        37.250
 127295717.278 5                  23838401.477
        32.000
 127879935.492 7                  24334726.861
        47.250
 130215059.959 6                  24325267.179
        36.750
 141636511.432 6                  26952528.030
        40.000
 204013855.098 7                  38822534.038
        43.250
 118843933.434 7                  22216613.591
        47.000
 123831988.486 6  96492482.57145  23564437.023    23564436.491    23564438.149
        40.500          30.250
  30864140.682 7                   5873192.424
        43.500
 126754848.303 6  98770081.53945  24120625.590    24120624.790    24120626.751
        36.750          35.000
 102111445.791 7                  19128907.197
        42.500
 124068598.924 7                  23609441.674
        42.000
 114133788.186 8                  21328611.992
        49.500
 195146448.075 7                  37135131.931
        47.250
 130636974.875 6                  24859390.234
        40.250
 111468245.154 7  86858430.34946  21211689.101    21211688.659    21211689.920
        47.500          40.500
 126740149.533 7                  23751051.119
        42.000
 129291013.679 7                  24603237.204
        47.000
 108782324.713 8                  20364274.963
        51.250
 112112798.126 7  87360639.52546  21334347.357    21334347.156    21334346.110
        47.750          39.500
 21 10 21  0 23  0.0000000  0 27G31G16E07G32G04S25G29E30R13E02R03E03
                                S23R23G27S48G25R22E11R21S36E08G26R02
                                E25R12G18
 106870979.729 8  83276099.20649  20336863.138    20336862.839    20336861.014
        51.250          56.500
 122246737.575 7  95257194.23744  23262776.602    23262775.775    23262773.490
        42.500          28.500
 151261168.722 5                  28784044.942
        33.250
 126558919.451 6  98617365.57544  24083360.836    24083360.787    24083363.633
        41.500          27.000
 131335477.485 6 102339332.68043  24992311.188    24992310.947    24992309.965
        36.000          20.500
 183368459.782 7                  34893714.434
        46.000
 120901121.494 7  94208720.89247  23006694.370    23006693.892    23006692.948
        43.500          43.750
 141703677.749 6                  26965312.515
        38.000
 127198947.765 5                  23820276.297
        31.750
 127848360.056 7                  24328718.373
        47.500
 130232551.232 6                  24328534.965
        38.750
 141708048.505 6                  26966141.404
        40.000
 204013758.859 7                  38822515.803
        43.500
 118720027.879 7                  22193451.211
        47.250
 123743024.687 6  96423160.18345  23547507.727    23547507.222    23547508.609
        41.250          30.500
  30864815.901 7                   5873221.007
        43.500
 126821234.858 6  98821811.31345  24133259.096    24133258.305    24133259.527
        36.750          34.750
 102107050.580 6                  19128083.884
        41.750
 124106759.753 7                  23616703.679
        42.500
 114234053.749 8                  21347347.696
        48.750
 195146458.913 7                  37135134.962
        47.250
 130671516.148 6                  24865963.094
        40.500
 111434528.933 8  86832157.97446  21205272.916    21205272.478    21205274.340
        48.000          40.750
 126815368.893 6                  23765147.174
        40.000
 129305189.545 7                  24605934.515
        47.500
 108720418.617 8                  20352686.519
        51.250
 112076238.746 7  87332151.70946  21327390.288    21327390.078    21327389.223
        47.750          39.500
 21 10 21  0 23 30.0000000  0 27G31G16E07G32G04S25G29E30R13E02R03E03
                                S23R23G27S48G25R22E11R21S36E08G26R02
                                E25R12G18
 106878112.035 8  83281656.84449  20338220.486    20338220.187    20338218.281
        51.000          56.750
 122185423.444 6  95209417.00644  23251108.257    23251107.417    23251105.873
        41.500          28.250
 151239465.810 5                  28779914.644
        33.750
 126651706.275 6  98689666.97944  24101017.542    24101017.462    24101020.881
        41.500          27.500
 131287145.511 6 102301671.42643  24983112.965    24983112.688    24983112.924
        36.500          21.250
 183365222.889 7                  34893003.915
        46.250
 120991612.386 7  94279233.25947  23023913.909    23023913.436    23023912.465
        43.250          43.250
 141650411.166 6                  26955176.212
        37.750
 127102030.158 5                  23802129.172
        32.500
 127816790.292 7                  24322711.001
        47.250
 130250615.302 6                  24331910.072
        39.750
 141779575.936 6                  26979752.156
        39.500
 204013659.290 7                  38822496.678
        43.500
 118596416.539 8                  22170342.815
        48.250
 123654315.558 6  96354036.24745  23530626.738    23530626.233    23530627.719
        41.250          31.000
  30865485.514 7                   5873248.476
        43.750
 126887676.811 6  98873584.26645  24145901.839    24145901.048    24145903.581
        37.000          35.250
 102103475.405 7                  19127414.252
        42.250
 124145301.210 7                  23624037.742
        42.250
 114334756.485 8                  21366167.391
        49.000
 195146462.928 7                  37135136.161
        47.250
 130706344.070 6                  24872590.509
        40.000
 111400921.273 7  86805970.19346  21198877.547    21198877.109    21198879.343
        47.750          41.250
 126890794.525 6                  23779281.913
        39.500
 129319449.058 7                  24608648.045
        47.000
 108658687.406 8                  20341130.141
        51.250
 112040189.051 7  87304061.05246  21320530.357    21320530.152    21320529.208
        47.500          39.750
 21 10 21  0 24  0.0000000  0 27G31G16E07G32G04S25G29E30R13E02R03E03
                                S23R23G27S48G25R22E11R21S36E08G26R02
                                E25R12G18
 106885744.030 8  83287603.84949  20339672.884    20339672.580    20339670.579
        51.250          57.250
 122124168.695 6  95161686.05544  23239451.444    23239450.608    23239449.641
        40.750          28.000
 151218126.494 5                  28775854.230
        33.000
 126744427.269 6  98761916.96044  24118662.351    24118662.240    24118665.001
        40.500          26.500
 131239272.523 5 102264367.80443  24974003.080    24974002.839    24974003.080
        35.500          21.500
 183360379.888 7                  34892292.927
        46.500
 121082201.665 7  94349822.29847  23041152.548    23041152.088    23041150.704
        43.000          42.500
 141597075.536 6                  26945026.706
        37.500
 127004975.087 5                  23783952.547
        31.500
 127785236.182 7                  24316706.251
        47.500
 130269259.871 6                  24335391.263
        39.500
 141851101.344 6                  26993363.217
        38.000
 204013564.297 7                  38822478.751
        43.500
 118473112.748 8                  22147292.679
        48.250
 123565871.608 6  96285118.94045  23513796.299    23513795.817    23513797.610
        41.500          31.500
  30864560.217 7                   5873277.488
        43.500
 126954183.989 5  98925408.03145  24158557.842    24158557.042    24158559.283
        35.500          34.250
 102100729.554 7                  19126899.608
        42.000
 124184231.682 6                  23631446.144
        41.750
 114435901.886 8                  21385068.674
        48.750
 195146473.391 7                  37135137.471
        47.250
 130741466.553 6                  24879274.117
        40.250
 111367432.105 7  86779874.74346  21192504.991    21192504.549    21192506.771
        47.750          41.500
 126966431.887 6                  23793454.873
        37.750
 129333802.443 7                  24611379.579
        46.750
 108597143.565 8                  20329608.637
        51.500
 112004660.340 7  87276376.35246  21313769.499    21313769.298    21313768.352
        47.500          40.000
 21 10 21  0 24 30.0000000  0 27G31G16E07G32G04S25G29E30R13E02R03E03
                                S23R23G27S48G25R22E11R21S36E08G26R02
                                E25R12G18
 106893872.565 8  83293937.76949  20341219.738    20341219.434    20341217.412
        51.500          56.750
 122062970.250 6  95113998.98244  23227805.331    23227804.491    23227803.967
        40.250          26.750
 151197147.701 5                  28771861.822
        34.250
 126837076.867 6  98834111.47344  24136292.197    24136292.072    24136295.227
        40.250          25.000
 131191856.288 6 102227420.10943  24964980.563    24964980.327    24964979.895
        37.750          22.000
 183357136.227 7                  34891580.039
        46.500
 121172884.239 7  94420484.04647  23058409.194    23058408.734    23058406.812
        42.750          42.250
 141543667.272 6                  26934863.261
        37.000
 126907780.101 5                  23765749.503
        31.250
 127753694.879 7                  24310704.094
        47.750
 130288479.718 6                  24338983.021
        40.500
 141922619.128 6                  27006972.354
        38.750
 204013468.729 7                  38822457.896
        43.250
 118350116.950 8                  22124300.081
        48.750
 123477690.543 7  96216406.48145  23497015.713    23497015.226    23497017.341
        42.250          31.500
  30865234.330 7                   5873306.124
        43.750
 127020753.332 5  98977280.25945  24171225.861    24171225.057    24171226.746
        35.750          33.250
 102098808.733 7                  19126539.701
        42.500
 124223546.576 7                  23638927.437
        42.250
 114537482.212 8                  21404051.425
        48.750
 195146486.029 7                  37135140.248
        47.250
 130776878.617 6                  24886012.821
        40.250
 111334058.515 8  86753869.35946  21186154.373    21186153.935    21186155.690
        48.000          41.000
 127042273.276 7                  23807668.964
        43.250
 129348247.104 7                  24614128.163
        47.250
 108535786.300 8                  20318122.627
        51.500
 111969651.018 8  87249096.37446  21307107.421    21307107.216    21307106.403
        48.000          40.000
 21 10 21  0 25  0.0000000  0 27G31G16E07G32G04S25G29E30R13E02R03E03
                                S23R23G27S48G25R22E11R21S36E08G26R02
                                E25R12G18
 106902490.634 8  83300653.14149  20342859.548    20342859.240    20342857.353
        51.250          56.750
 122001820.026 6  95066349.48144  23216169.129    23216168.289    23216167.700
        39.250          26.250
 151176522.279 6                  28767937.186
        36.500
 126929644.733 6  98906242.34244  24153907.711    24153907.586    24153910.857
        41.750          27.000
 131144890.506 6 102190823.39743  24956043.375    24956043.156    24956042.133
        36.000          20.750
 183353876.326 7                  34890864.964
        46.500
 121263650.485 7  94491210.99347  23075681.835    23075681.397    23075678.914
        43.000          42.000
 141490178.990 6                  26924684.941
        37.250
 126810439.158 5                  23747522.306
        31.500
 127722159.561 7                  24304703.262
        47.500
 130308265.198 6                  24342679.251
        40.500
 141994120.115 6                  27020578.593
        38.750
 204013368.753 7                  38822436.857
        43.250
 118227425.063 8                  22101363.932
        49.000
 123389766.070 6  96147893.96245  23480284.338    23480283.851    23480285.902
        41.750          31.000
  30865900.210 7                   5873333.298
        43.500
 127087377.773 6  99029195.40645  24183904.104    24183903.295    24183904.977
        37.250          33.750
 102097704.719 7                  19126332.529
        42.250
 124263237.349 7                  23646480.188
        42.000
 114639485.781 8                  21423113.585
        49.250
 195146493.726 7                  37135140.977
        47.000
 130812571.305 6                  24892805.110
        40.250
 111300793.652 7  86727948.69646  21179824.184    21179823.742    21179825.124
        47.500          40.750
 127118306.695 6                  23821916.175
        41.500
 129362776.452 7                  24616893.083
        47.000
 108474610.679 8                  20306670.524
        51.500
 111935155.516 7  87222216.77346  21300542.861    21300542.656    21300542.048
        47.500          39.500
 21 10 21  0 25 30.0000000  0 27G31G16E07G32G04S25G29E30R13E02R03E03
                                S23R23G27S48G25R22E11R21S36E08G26R02
                                E25R12G18
 106911609.737 8  83307758.93349  20344594.901    20344594.593    20344592.620
        51.250          56.500
 121940728.735 6  95018745.89844  23204544.009    23204543.169    23204542.282
        39.250          25.500
 151156261.187 5                  28764081.757
        35.250
 127022138.633 6  98978315.55544  24171508.145    24171508.020    24171511.812
        39.750          27.250
 131098386.933 6 102154586.86043  24947193.503    24947193.262    24947193.333
        36.250          21.500
 183349015.588 7                  34890148.140
        46.250
 121354508.460 7  94562009.41747  23092971.194    23092970.756    23092968.948
        42.750          42.750
 141436621.156 6                  26914493.439
        37.000
 126712964.180 5                  23729268.464
        31.500
 127690641.390 7                  24298705.408
        47.750
 130328624.969 6                  24346481.311
        40.500
 142065612.835 6                  27034183.512
        39.000
 204013273.898 7                  38822419.958
        43.500
 118105051.699 8                  22078487.369
        48.750
 123302109.904 6  96079590.51245  23463603.626    23463603.139    23463605.449
        41.750          30.750
  30864970.012 7                   5873362.346
        43.750
 127154068.355 6  99081162.05246  24196594.859    24196594.055    24196595.875
        38.250          36.000
 102097427.671 7                  19126281.323
        42.500
 124303313.529 7                  23654106.674
        42.000
 114741919.090 8                  21442254.951
        49.000
 195146502.805 7                  37135143.400
        47.500
 130848553.733 6                  24899652.354
        40.500
 111267648.654 8  86702121.42446  21173516.734    21173516.287    21173517.668
        48.000          40.750
 127194539.061 6                  23836201.276
        40.250
 129377401.939 7                  24619676.374
        47.250
 108413630.420 8                  20295254.973
        51.500
 111901186.238 7  87195747.21546  21294078.948    21294078.738    21294077.513
        47.750          39.750
 21 10 21  0 26  0.0000000  0 27G31G16E07G32G04S25G29E30R13E02R03E03
                                S23R23G27S48G25R22E11R21S36E08G26R02
                                E25R12G18
 106921225.947 8  83315252.08049  20346424.721    20346424.417    20346422.524
        51.500          56.750
 121879692.311 6  94971185.05844  23192928.943    23192928.103    23192926.759
        39.750          25.750
 151136360.206 5                  28760294.650
        34.500
 127114551.940 6  99050326.04444  24189094.445    24189094.334    24189097.630
        40.750          27.750
 131052342.366 6 102118707.98943  24938431.342    24938431.097    24938430.987
        37.000          21.000
 183345753.061 7                  34889429.479
        46.250
 121445452.398 7  94632874.81347  23110276.921    23110276.488    23110275.599
        43.750          43.750
 141382989.367 6                  26904287.360
        37.250
 126615352.853 5                  23710988.208
        30.750
 127659136.678 7                  24292710.355
        47.250
 130349552.944 6                  24350391.586
        38.750
 142137091.186 6                  27047785.520
        39.750
 204013176.285 7                  38822401.070
        43.250
 117982996.145 8                  22055670.523
        48.750
 123214718.778 6  96011493.58045  23446973.998    23446973.502    23446975.091
        41.250          30.500
  30865639.236 7                   5873390.352
        43.750
 127220821.104 6  99133177.14546  24209297.701    24209296.897    24209298.029
        38.500          36.750
 102097972.314 7                  19126382.966
        42.500
 124343769.618 7                  23661805.069
        42.250
 114844773.608 8                  21461475.717
        48.500
 195146511.314 7                  37135146.097
        47.500
 130884820.032 6                  24906553.488
        40.000
 111234619.677 8  86676384.56146  21167231.535    21167231.088    21167232.802
        48.250          41.250
 127270961.456 7                  23850526.550
        46.000
 129392120.090 7                  24622477.007
        47.000
 108352843.557 8                  20283875.549
        51.500
 111867740.657 8  87169685.73246  21287714.448    21287714.234    21287712.860
        48.000          39.500
 21 10 21  0 26 30.0000000  0 27G31G16E07G32G04S25G29E30R13E02R03E03
                                S23R23G27S48G25R22E11R21S36E08G26R02
                                E25R12G18
 106931339.999 8  83323133.15449  20348349.457    20348349.149    20348347.182
        51.000          56.750
 121818710.760 6  94923666.98544  23181324.511    23181323.653    23181322.653
        40.250          25.750
 151116819.902 6                  28756576.345
        36.000
 127206881.970 6  99122271.63044  24206663.920    24206663.800    24206667.695
        39.750          28.250
 131006758.139 6 102083187.79643  24929757.199    24929756.967    24929756.124
        37.000          21.500
 183342476.552 7                  34888710.701
        46.500
 121536480.010 7  94703805.40147  23127598.731    23127598.298    23127597.793
        43.250          43.500
 141329283.693 6                  26894067.229
        36.250
 126517605.939 5                  23692683.449
        31.000
 127627646.195 7                  24286717.844
        47.250
 130371047.264 6                  24354407.503
        39.500
 142208553.401 6                  27061384.412
        40.000
 204013079.254 7                  38822382.513
        43.250
 117861262.161 8                  22032913.036
        48.000
 123127593.999 6  95943604.19545  23430394.379    23430393.914    23430395.880
        41.250          30.250
  30866308.889 7                   5873419.395
        43.500
 127287636.507 6  99185241.10245  24222011.999    24222011.195    24222013.204
        36.750          34.750
 102099338.447 7                  19126639.187
        42.500
 124384604.631 7                  23669575.638
        42.250
 114948045.145 8                  21480774.782
        48.500
 195146529.018 7                  37135147.876
        47.500
 130921368.765 6                  24913508.590
        40.500
 111201707.560 7  86650738.76146  21160968.659    21160968.212    21160970.027
        47.750          41.250
 127347570.764 7                  23864881.243
        43.250
 129406931.927 7                  24625295.579
        47.000
 108292253.142 8                  20272533.074
        51.750
 111834820.707 7  87144033.83346  21281449.930    21281449.711    21281448.426
        47.750          39.750
 21 10 21  0 27  0.0000000  0 27G31G16E07G32G04S25G29E30R13E02R03E03
                                S23R23G27S48G25R22E11R21S36E08G26R02
                                E25R12G18
 106941949.150 8  83331400.02449  20350368.215    20350367.907    20350366.218
        51.500          56.750
 121757781.044 7  94876189.28544  23169730.684    23169729.835    23169727.557
        42.250          26.750
 151097637.369 5                  28752925.600
        35.250
 127299122.979 6  99194147.83644  24224216.649    24224216.556    24224220.227
        40.750          27.250
 130961632.236 6 102048024.76543  24921169.384    24921169.156    24921170.005
        38.250          21.500
 183339191.847 7                  34887989.719
        46.750
 121627586.327 7  94774797.32847  23144936.222    23144935.793    23144934.582
        43.500          43.250
 141275501.064 6                  26883832.957
        37.250
 126419721.831 5                  23674353.045
        31.250
 127596167.498 7                  24280727.661
        47.500
 130393102.481 6                  24358527.228
        37.500
 142279994.371 6                  27074979.126
        40.500
 204012981.130 7                  38822364.278
        43.500
 117739850.601 7                  22010216.564
        47.500
 123040733.577 6  95875920.79245  23413865.414    23413864.949    23413866.733
        40.750          30.000
  30865375.115 7                   5873447.857
        43.750
 127354511.951 6  99237351.82745  24234738.227    24234737.418    24234739.124
        37.250          34.000
 102101522.073 7                  19127048.467
        42.500
 124425814.356 6                  23677417.834
        41.750
 115051726.472 8                  21500150.090
        48.500
 195146540.032 7                  37135150.139
        47.500
 130958195.370 6                  24920516.799
        40.750
 111168909.731 8  86625182.01646  21154727.518    21154727.071    21154728.974
        48.000          41.250
 127424358.373 7                  23879270.138
        42.000
 129421835.222 7                  24628131.617
        47.250
 108231858.916 8                  20261226.873
        51.250
 111802425.085 7  87118790.50446  21275285.037    21275284.814    21275283.999
        47.750          39.750
 21 10 21  0 27 30.0000000  0 27G31G16E07G32G04S25G29E30R13E02R03E03
                                S23R23G27S48G25R22E11R21S36E08G26R02
                                E25R12G18
 106953056.656 8  83340055.21849  20352482.021    20352481.713    20352479.923
        51.500          57.000
 121696905.602 6  94828753.86944  23158146.053    23158145.208    23158143.559
        41.750          27.250
 151078815.669 5                  28749344.363
        35.500
 127391275.248 6  99265954.88644  24241752.829    24241752.745    24241755.717
        40.500          27.250
 130916968.514 6 102013221.83643  24912670.666    24912670.438    24912670.073
        36.500          21.500
 183334297.084 7                  34887268.411
        46.000
 121718771.787 7  94845850.92347  23162287.819    23162287.395    23162286.302
        43.000          42.750
 141221644.198 5                  26873584.071
        35.750
 126321704.373 5                  23655997.388
        31.500
 127564703.985 7                  24274740.309
        47.000
 130415719.609 6                  24362752.368
        37.750
 142351415.017 6                  27088570.407
        40.500
 204012883.428 7                  38822344.249
        43.750
 117618767.852 7                  21987581.421
        47.750
 122954141.403 6  95808446.42045  23397387.222    23397386.766    23397388.616
        40.500          30.000
  30866040.160 7                   5873474.029
        44.000
 127421450.561 5  99289511.76245  24247476.113    24247475.309    24247477.234
        35.250          31.250
 102104524.585 7                  19127610.394
        42.250
 124467400.445 6                  23685331.322
        41.750
 115155816.194 8                  21519601.657
        48.000
 195146549.761 7                  37135152.616
        47.750
 130995301.045 6                  24927577.241
        40.500
 111136229.616 7  86599716.99446  21148508.525    21148508.078    21148510.020
        47.750          41.500
 127501323.509 6                  23893694.554
        41.500
 129436833.655 7                  24630985.935
        46.750
 108171666.454 8                  20249958.851
        52.000
 111770558.326 7  87093959.26846  21269221.018    21269220.799    21269219.916
        47.750          40.000
 21 10 21  0 28  0.0000000  0 27G31G16E07G32G04S25G29E30R13E02R03E03
                                S23R23G27S48G25R22E11R21S36E08G26R02
                                E25R12G18
 106964665.303 8  83349100.91549  20354690.995    20354690.687    20354688.967
        51.000          57.000
 121636086.732 6  94781362.53244  23146572.957    23146572.126    23146569.887
        41.500          27.000
 151060357.332 5                  28745831.822
        35.500
 127483338.199 6  99337692.19844  24259271.846    24259271.775    24259274.783
        40.250          27.000
 130872770.492 6 101978781.82043  24904259.520    24904259.306    24904259.559
        36.500          21.500
 183331003.120 7                  34886545.636
        46.750
 121810036.818 7  94916966.52347  23179655.722    23179655.289    23179653.489
        42.750          42.500
 141167715.442 6                  26863322.201
        37.250
 126223557.834 5                  23637619.327
        32.000
 127533258.672 7                  24268756.521
        47.250
 130438898.691 6                  24367081.486
        38.000
 142422815.938 6                  27102157.665
        41.000
 204012788.826 7                  38822326.640
        43.500
 117498019.918 8                  21965009.497
        48.250
 122867820.883 6  95741183.72745  23380961.178    23380960.713    23380962.240
        40.750          30.000
  30866709.689 7                   5873503.036
        43.500
 127488455.102 5  99341723.10744  24260225.722    24260224.927    24260227.619
        33.000          28.500
 102108347.758 7                  19128326.439
        42.000
 124509364.050 6                  23693316.858
        41.750
 115260312.757 8                  21539129.812
        48.500
 195146563.671 7                  37135153.752
        47.250
 131032686.643 6                  24934692.150
        40.750
 111103670.096 7  86574345.94446  21142312.803    21142312.361    21142313.787
        47.750          41.250
 127578464.685 7                  23908151.814
        43.750
 129451930.427 7                  24633858.424
        46.750
 108111681.060 8                  20238729.191
        51.750
 111739224.500 7  87069543.30546  21263258.468    21263258.249    21263257.244
        47.750          40.000
 21 10 21  0 28 30.0000000  0 27G31G16E07G32G04S25G29E30R13E02R03E03
                                S23R23G27S48G25R22E11R21S36E08G26R02
                                E25R12G18
 106976767.366 8  83358531.09149  20356993.995    20356993.687    20356991.942
        51.250          56.750
 121575316.585 7  94734009.16744  23135008.392    23135007.543    23135005.949
        42.250          27.250
 151042254.392 5                  28742386.776
        35.250
 127575301.349 6  99409351.73444  24276771.818    24276771.742    24276774.938
        40.750          26.250
 130829030.821 6 101944698.96543  24895936.307    24895936.079    24895936.859
        36.750          21.500
 183327692.962 7                  34885820.584
        45.500
 121901371.414 7  94988136.33447  23197035.983    23197035.550    23197033.716
        42.750          42.250
 141113706.522 6                  26853044.721
        37.500
 126125275.181 5                  23619212.896
        30.750
 127501823.966 7                  24262774.776
        47.500
 130462629.163 6                  24371514.611
        39.500
 142494186.864 6                  27115739.535
        41.750
 204012688.155 7                  38822305.834
        43.250
 117377602.228 8                  21942497.944
        48.250
 122781764.809 6  95674127.09045  23364585.023    23364584.541    23364586.429
        41.750          30.750
  30865770.506 7                   5873530.112
        43.750
 127555517.791 5  99393979.71344  24272986.756    24272985.943    24272989.240
        31.500          25.000
 102112982.648 7                  19129194.777
        42.250
 124551695.741 6                  23701371.999
        41.750
 115365203.503 8                  21558730.597
        48.000
 195146567.487 7                  37135155.751
        47.250
 131070342.241 6                  24941857.407
        40.750
 111071223.598 8  86549062.96046  21136138.327    21136137.880    21136139.245
        48.250          41.000
 127655770.078 6                  23922635.235
        38.000
 129467118.136 7                  24636748.343
        47.250
 108051896.986 8                  20227537.837
        51.500
 111708417.013 8  87045537.48346  21257396.026    21257395.798    21257395.050
        48.250          40.250
 21 10 21  0 29  0.0000000  0 27G31G16E07G32G04S25G29E30R13E02R03E03
                                S23R23G27S48G25R22E11R21S36E08G26R02
                                E25R12G18
 106989372.459 8  83368353.23549  20359392.552    20359392.244    20359390.552
        51.250          56.500
 121514603.927 7  94686700.60944  23123455.538    23123454.707    23123452.998
        42.500          27.250
 151024516.159 5                  28739011.212
        35.750
 127667171.166 6  99480938.59244  24294254.616    24294254.532    24294257.162
        40.500          27.250
 130785759.715 6 101910981.20743  24887701.962    24887701.766    24887701.798
        36.750          20.750
 183322774.591 7                  34885094.648
        46.750
 121992782.388 7  95059365.66146  23214430.907    23214430.465    23214428.292
        42.500          41.250
 141059626.567 6                  26842754.008
        36.500
 126026866.519 5                  23600785.343
        32.750
 127470409.601 7                  24256796.748
        47.500
 130486918.446 6                  24376052.490
        39.500
 142565535.198 6                  27129316.152
        41.000
 204012589.940 7                  38822287.352
        43.500
 117257527.653 8                  21920052.024
        49.000
 122695983.353 6  95607284.43445  23348261.516    23348261.025    23348262.646
        41.500          30.750
  30866432.589 7                   5873558.757
        43.750
 127622647.914 5  99446288.90744  24285762.724    24285761.937    24285764.089
        33.000          25.750
 102118437.071 7                  19130216.830
        42.250
 124594403.434 6                  23709499.143
        41.500
 115470493.372 8                  21578406.670
        48.250
 195146576.146 7                  37135157.911
        47.500
 131108275.406 6                  24949075.611
        40.500
 111038899.792 8  86523875.58346  21129987.349    21129986.907    21129988.292
        48.000          41.000
 127733243.744 6                  23937156.059
        41.750
 129482406.773 7                  24639658.085
        46.750
 107992326.344 8                  20216385.668
        51.250
 111678146.660 8  87021950.20446  21251635.655    21251635.423    21251634.741
        48.000          40.000
 21 10 21  0 29 30.0000000  0 27G31G16E07G32G04S25G29E30R13E02R03E03
                                S23R23G27S48G25R22E11R21S36E08G26R02
                                E25R12G18
 107002474.379 8  83378562.51949  20361885.887    20361885.579    20361883.705
        51.500          56.750
 121453942.669 6  94639432.09744  23111911.812    23111910.967    23111909.652
        41.750          27.500
 151007136.684 5                  28735703.778
        35.000
 127758938.863 6  99552445.80344  24311717.083    24311716.990    24311719.779
        41.500          26.500
 130742952.016 6 101877624.57543  24879556.677    24879556.481    24879556.196
        36.750          21.750
 183319451.122 7                  34884367.379
        46.750
 122084261.701 7  95130648.24546  23231838.651    23231838.209    23231836.171
        42.500          41.500
 141005469.260 6                  26832447.919
        38.750
 125928327.527 5                  23582330.496
        33.250
 127439010.077 7                  24250821.601
        47.250
 130511757.864 6                  24380692.355
        39.000
 142636852.721 6                  27142887.832
        40.500
 204012489.128 7                  38822270.007
        43.250
 117137793.680 8                  21897668.350
        49.000
 122610471.416 7  95540651.81445  23331989.232    23331988.745    23331990.398
        42.500          31.250
  30867091.035 7                   5873585.493
        43.500
 127689839.885 5  99498646.28444  24298548.189    24298547.407    24298550.099
        33.500          25.000
 102124703.747 7                  19131391.171
        42.250
 124637479.782 6                  23717696.066
        41.000
 115576171.919 8                  21598154.938
        48.000
 195146584.624 7                  37135158.997
        47.250
 131146478.404 6                  24956345.791
        40.250
 111006693.121 8  86498779.47346  21123858.753    21123858.306    21123859.691
        48.250          41.250
 127810875.019 7                  23951704.790
        42.000
 129497791.018 7                  24642585.402
        47.000
 107932965.686 8                  20205273.701
        51.750
 111648408.913 8  86998777.94746  21245976.917    21245976.707    21245975.644
        48.250          40.000
 21 10 21  0 30  0.0000000  0 27G31G16E07G32G04S25G29E30R13E02R03E03
                                S23R23G27S48G25R22E11R21S36E08G26R02
                                E25R12G18
 107016078.163 8  83389162.86349  20364474.634    20364474.326    20364472.408
        51.750          56.500
 121393337.272 7  94592207.12344  23100378.852    23100378.012    23100376.952
        42.500          28.250
 150990120.670 5                  28732465.722
        35.000
 127850606.575 7  99623875.12544  24329160.519    24329160.421    24329163.449
        42.000          27.250
 130700613.299 6 101844633.35443  24871499.951    24871499.759    24871499.442
        37.000          21.750
 183316128.044 7                  34883639.729
        46.250
 122175811.909 7  95201986.06646  23249260.015    23249259.577    23249257.746
        42.500          41.000
 140951239.192 6                  26822128.464
        37.000
 125829664.737 5                  23563854.046
        32.750
 127407630.618 7                  24244850.296
        47.250
 130537149.837 6                  24385435.791
        38.250
 142708141.989 6                  27156453.287
        40.000
 204012391.601 7                  38822253.484
        43.500
 117018408.337 8                  21875351.163
        48.750
 122525234.547 7  95474233.52345  23315769.061    23315768.556    23315770.495
        43.000          31.750
  30866151.287 7                   5873613.316
        43.500
 127757098.535 5  99551055.64943  24311347.055    24311346.268    24311348.961
        30.500          20.500
 102131786.449 7                  19132717.463
        42.500
 124680928.088 6                  23725964.395
        41.500
 115682239.666 8                  21617976.244
        48.250
 195146595.038 7                  37135161.591
        47.500
 131184954.172 6                  24963667.375
        39.750
 110974608.769 8  86473778.67646  21117753.187    21117752.740    21117754.500
        48.500          41.500
 127888663.936 7                  23966284.931
        44.250
 129513276.336 7                  24645532.497
        47.000
 107873822.483 8                  20194201.618
        51.750
 111619209.972 8  86976025.53046  21240420.533    21240420.332    21240419.322
        48.750          40.000
 21 10 21  0 30 30.0000000  0 27G31G16E07G32G04S25G29E30R13E02R03E03
                                S23R23G27S48G25R22E11R21S36E08G26R02
                                E25R12G18
 107030178.532 8  83400150.16249  20367157.874    20367157.566    20367155.677
        51.000          56.500
 121332782.232 6  94545021.39844  23088855.487    23088854.656    23088853.988
        41.750          28.250
 150973462.723 5                  28729295.778
        34.750
 127942166.186 6  99695220.23044  24346584.131    24346584.047    24346586.343
        41.250          26.250
 130658738.889 5 101812003.94743  24863531.478    24863531.255    24863530.272
        35.500          20.500
 183311189.088 7                  34882908.606
        46.500
 122267425.351 7  95273373.15546  23266693.405    23266692.954    23266691.413
        42.250          41.500
 140896930.823 6                  26811793.693
        38.500
 125730873.923 5                  23545355.330
        32.250
 127376266.337 7                  24238881.936
        47.500
 130563086.608 6                  24390281.224
        38.500
 142779395.767 6                  27170012.525
        40.250
 204012290.727 7                  38822232.942
        43.250
 116899369.909 8                  21853097.939
        48.750
 122440268.208 7  95408026.02745  23299600.487    23299599.973    23299601.958
        42.000          31.500
  30866808.406 7                   5873641.397
        43.500
 127824418.770 4  99603512.95242  24324158.819    24324158.019    24324159.475
        26.750          12.250
 102139677.930 7                  19134196.058
        42.250
 124724741.633 6                  23734301.567
        41.500
 115788686.764 8                  21637868.578
        48.500
 195146610.038 7                  37135163.241
        47.250
 131223695.577 6                  24971039.315
        39.750
 110942641.832 8  86448869.37946  21111670.108    21111669.666    21111671.452
        48.000          41.250
 127966602.163 6                  23980887.106
        39.250
 129528858.024 7                  24648497.316
        47.000
 107814893.998 8                  20183170.274
        51.500
 111590545.865 8  86953689.87146  21234965.690    21234965.498    21234964.680
        48.000          40.000
 21 10 21  0 31  0.0000000  0 27G31G16E07G32G04S25G29E30R13E02R03E03
                                S23R23G27S48G25R22E11R21S36E08G26R02
                                E25R12G18
 107044781.580 8  83411529.15249  20369936.786    20369936.478    20369934.486
        51.000          56.500
 121272283.374 7  94497879.43244  23077343.270    23077342.434    23077340.736
        42.000          28.000
 150957168.603 5                  28726195.352
        35.250
 128033620.765 6  99766483.53344  24363987.412    24363987.328    24363990.077
        41.250          26.250
 130617335.404 6 101779741.48743  24855652.103    24855651.862    24855652.141
        36.000          21.000
 183307845.068 7                  34882177.603
        46.250
 122359105.570 7  95344812.26847  23284139.839    23284139.374    23284138.026
        42.500          42.250
 140842549.737 6                  26801445.201
        38.000
 125631961.270 5                  23526831.198
        33.250
 127344923.480 7                  24232917.555
        47.500
 130589571.456 6                  24395229.582
        40.000
 142850617.733 6                  27183565.614
        39.250
 204012191.586 7                  38822213.374
        43.250
 116780687.567 8                  21830910.819
        48.250
 122355579.001 7  95342034.48045  23283484.675    23283484.157    23283486.132
        42.250          32.000
  30867469.148 7                   5873668.276
        43.750
                                  24336980.789
        22.000
 102148383.016 7                  19135826.460
        42.250
 124768924.707 6                  23742709.542
        41.250
 115895514.564 8                  21657832.045
        48.500
 195146620.270 7                  37135164.842
        47.250
 131262706.535 6                  24978462.973
        40.250
 110910798.471 8  86424056.37046  21105610.436    21105609.989    21105611.590
        48.250          41.250
 128044690.815 6                  23995523.498
        40.250
 129544542.494 7                  24651481.970
        47.000
 107756188.433 8                  20172180.520
        51.500
 111562423.750 8  86931776.54046  21229614.488    21229614.305    21229613.060
        48.000          40.000
 21 10 21  0 31 30.0000000  0 27G31G16E07G32G04S25G29E30R13E02R03E03
                                S23R23G27S48G25R22E11R21S36E08G26R02
                                E25R12G18
 107059884.313 8  83423297.51449  20372810.571    20372810.263    20372808.496
        51.250          56.500
 121211837.229 6  94450778.55144  23065840.259    23065839.432    23065838.256
        41.750          28.000
 150941235.109 5                  28723163.623
        34.250
 128124964.573 6  99837660.55144  24381369.541    24381369.452    24381372.495
        41.250          26.250
 130576400.475 6 101747844.14343  24847863.181    24847862.913    24847861.349
        36.750          20.250
 183304495.572 7                  34881446.184
        46.000
 122450847.465 7  95416299.45047  23301597.938    23301597.465    23301596.027
        42.750          42.500
 140788092.652 6                  26791082.733
        38.250
 125532925.588 5                  23508283.943
        33.750
 127313599.463 7                  24226956.659
        47.750
 130616598.767 6                  24400279.435
        39.500
 142921802.646 6                  27197111.754
        38.750
 204012091.714 7                  38822194.276
        43.250
 116662361.689 8                  21808791.278
        48.000
 122271164.654 7  95276257.10245  23267421.253    23267420.726    23267422.521
        42.250          31.500
  30866526.583 7                   5873697.083
        43.750


 102157897.237 7                  19137609.023
        42.000
 124813472.848 6                  23751186.642
        41.250
 116002715.637 7                  21677864.851
        47.750
 195146623.115 7                  37135167.610
        47.250
 131301982.199 6                  24985936.827
        40.000
 110879076.108 8  86399337.64346  21099573.779    21099573.332    21099574.864
        48.500          41.500
 128122922.042 7                  24010184.621
        43.500
 129560327.382 7                  24654485.876
        47.000
 107697705.713 8                  20161232.385
        51.500
 111534841.892 8  86910284.18846  21224365.913    21224365.721    21224364.342
        48.250          40.000
 21 10 21  0 32  0.0000000  0 26G31G16E07G32G04S25G29E30R13E02R03E03
                                S23R23G27S48R22E11R21S36E08G26R02E25
                                R12G18
 107075488.655 8  83435456.73749  20375780.021    20375779.713    20375777.909
        51.250          56.750
 121151445.425 6  94403720.00744  23054349.054    23054348.209    23054346.186
        41.500          27.500
 150925664.044 5                  28720199.982
        33.000
 128216196.527 6  99908750.42144  24398730.396    24398730.285    24398733.149
        40.500          25.000
 130535936.586 6 101716313.81743  24840162.478    24840162.192    24840161.801
        36.500          20.750
 183299540.824 7                  34880711.510
        45.750
 122542650.458 7  95487834.22747  23319067.440    23319066.971    23319065.395
        42.750          42.000
 140733561.179 6                  26780705.290
        37.750
 125433770.171 5                  23489715.190
        31.250
 127282296.570 7                  24220999.929
        47.500
 130644167.844 6                  24405428.152
        36.500
 142992950.268 6                  27210650.588
        38.250
 204011991.343 7                  38822174.524
        43.250
 116544397.310 8                  21786739.050
        48.000
 122187027.742 6  95210695.91245  23251410.423    23251409.878    23251411.702
        41.500          31.500
  30867183.554 7                   5873720.997
        43.250
 102168220.776 7                  19139542.799
        42.250
 124858386.312 6                  23759733.076
        41.250
 116110287.361 8                  21697967.668
        48.250
 195146637.378 7                  37135168.933
        47.250
 131341522.525 6                  24993461.286
        40.250
 110847476.961 8  86374714.93446  21093560.710    21093560.268    21093561.913
        48.250          41.500
 128201293.568 6                  24024870.265
        41.250
 129576215.113 7                  24657508.988
        47.000
 107639450.225 8                  20150326.721
        51.500
 111507803.439 8  86889215.26946  21219220.749    21219220.562    21219219.297
        48.250          40.000
 21 10 21  0 32 30.0000000  0 26G31G16E07G32G04S25G29E30R13E02R03E03
                                S23R23G27S48R22E11R21S36E08G26R02E25
                                R12G18
 107091591.099 8  83448004.09149  20378844.104    20378843.791    20378842.294
        51.250          56.500
 121091104.230 6  94356700.90844  23042865.500    23042864.646    23042864.052
        41.250          27.250
 150910451.893 5                  28717305.392
        34.500
 128307310.570 6  99979748.42744  24416068.855    24416068.708    24416070.985
        40.000          25.000
 130495941.093 6 101685148.48543  24832551.423    24832551.160    24832550.478
        36.750          21.000
 183296181.177 7                  34879975.941
        45.750
 122634508.946 7  95559412.26746  23336547.444    23336546.971    23336545.084
        42.750          41.750
 140678951.699 6                  26770313.771
        37.250
 125334492.383 5                  23471125.331
        32.000
 127251011.850 7                  24215046.823
        47.250
 130672272.529 5                  24410677.637
        35.750
 143064055.015 6                  27224180.779
        38.250
 204011889.133 7                  38822156.508
        43.250
 116426794.650 8                  21764753.942
        48.000
 122103165.574 6  95145348.80545  23235452.072    23235451.527    23235452.982
        41.500          31.250
  30867836.107 7                   5873750.675
        43.500
 102179348.653 7                  19141627.552
        42.250
 124903660.224 6                  23768348.825
        41.500
 116218221.972 7                  21718137.909
        47.750
 195146648.362 7                  37135171.044
        47.000
 131381322.248 6                  25001034.984
        39.750
 110815998.061 8  86350185.92246  21087570.578    21087570.136    21087571.835
        48.500          41.750
 128279796.648 6                  24039578.177
        40.000
 129592202.951 7                  24660551.767
        47.000
 107581421.111 8                  20139463.315
        51.750
 111481306.234 8  86868568.10246  21214178.372    21214178.189    21214176.966
        48.250          40.000
 21 10 21  0 33  0.0000000  0 27G31G16E07G32G04S25G29E30R13E02R03E03
                                S23R23G27S48G25R22E11R21S36E08G26R02
                                E25R12G18
 107108196.015 8  83460942.97849  20382004.155    20382003.847    20382002.103
        51.000          56.750
 121030817.835 6  94309724.50444  23031393.756    23031392.938    23031391.474
        41.500          26.750
 150895602.691 5                  28714479.237
        35.000
 128398308.165 6 100050655.70744  24433384.764    24433384.608    24433387.271
        40.000          25.000
 130456418.676 6 101654351.79343  24825030.842    24825030.614    24825030.251
        37.750          22.500
 183292813.625 7                  34879239.903
        46.000
 122726425.224 7  95631035.33747  23354037.979    23354037.488    23354036.216
        42.500          42.000
 140624268.129 6                  26759907.677
        38.250
 125235097.913 5                  23452511.039
        32.000
 127219749.970 7                  24209097.738
        47.500
 130700914.606 6                  24416029.997
        38.000
 143135119.114 6                  27237704.075
        38.000
 204011788.246 7                  38822137.365
        43.250
 116309561.242 8                  21742838.864
        48.000
 122019583.112 6  95080219.66045  23219546.748    23219546.194    23219547.528
        41.750          31.500
  30868489.943 7                   5873778.126
        43.500


 102191283.591 7                  19143863.178
        42.000
 124949297.298 6                  23777032.975
        41.250
 116326519.356 7                  21738376.133
        47.750
 195146659.294 7                  37135172.412
        47.250
 131421383.678 6                  25008658.755
        40.000
 110784644.035 8  86325754.21447  21081603.985    21081603.547    21081605.456
        48.750          42.250
 128358433.068 6                  24054316.595
        41.000
 129608295.726 7                  24663613.875
        46.750
 107523625.158 8                  20128644.183
        52.000
 111455355.737 8  86848346.94346  21209240.360    21209240.173    21209239.087
        48.000          40.250
 21 10 21  0 33 30.0000000  0 26G31G16E07G32G04S25G29E30R13E02R03E03
                                S23R23G27S48R22E11R21S36E08G26R02E25
                                R12G18
 107125305.378 8  83474274.94449  20385259.760    20385259.447    20385257.771
        50.750          56.250
 120970587.769 6  94262791.99244  23019932.190    23019931.372    23019929.171
        40.500          26.250
 150881118.078 5                  28711722.513
        33.000
 128489188.272 6 100121471.39044  24450679.428    24450679.290    24450681.267
        39.000          24.500
 130417371.771 6 101623925.62343  24817600.738    24817600.510    24817600.047
        38.000          23.000
 183287835.547 7                  34878501.415
        46.000
 122818398.665 7  95702702.94446  23371540.403    23371539.898    23371538.379
        42.250          41.750
 140569512.174 6                  26749487.970
        36.750
 125135590.109 5                  23433874.855
        31.750
 127188513.265 7                  24203153.634
        47.250
 130730093.348 5                  24421479.435
        35.250
 143206142.162 6                  27251219.095
        38.000
 204011689.547 7                  38822118.491
        43.500
 116192702.229 8                  21720993.451
        48.250
 121936282.902 6  95015310.44245  23203695.072    23203694.514    23203695.912
        41.750          31.000
  30867545.262 7                   5873804.835
        43.750
 102204025.606 7                  19146249.789
        42.500
 124995297.888 6                  23785786.689
        41.000
 116435176.725 7                  21758681.154
        47.500
 195146664.452 7                  37135175.153
        47.250
 131461706.751 6                  25016331.836
        40.250
 110753417.160 8  86301421.58047  21075661.716    21075661.283    21075663.381
        48.250          42.000
 128437199.280 6                  24069075.647
        40.250
 129624495.931 7                  24666696.677
        47.000
 107466067.013 8                  20117868.834
        52.000
 111429955.021 7  86828554.18946  21204406.275    21204406.092    21204405.425
        47.500          39.750
 21 10 21  0 34  0.0000000  0 26G31G16E07G32G04S25G29E30R13E02R03E03
                                S23R23G27S48R22E11R21S36E08G26R02E25
                                R12G18
 107142911.402 8  83487993.91949  20388610.140    20388609.832    20388608.143
        51.250          56.500
 120910406.803 6  94215897.73744  23008480.108    23008479.286    23008477.574
        41.250          26.750
 150866990.970 5                  28709035.112
        34.750
 128579941.325 6 100192188.05543  24467948.997    24467948.841    24467950.897
        40.000          23.500
 130378794.094 6 101593865.08043  24810259.684    24810259.439    24810259.579
        37.750          22.500
 183284456.109 7                  34877760.592
        46.500
 122910420.528 7  95774408.28346  23389051.180    23389050.648    23389049.468
        42.000          40.750
 140514676.568 6                  26739053.044
        37.750
 125035963.121 5                  23415220.956
        31.750
 127157295.166 7                  24197213.127
        47.500
 130759798.825 6                  24427029.646
        36.750
 143277115.080 6                  27264724.895
        37.750
 204011586.797 7                  38822098.887
        43.500
 116076213.987 8                  21699216.710
        48.750
 121853258.693 7  94950616.29745  23187895.919    23187895.361    23187896.941
        42.500          31.000
  30868195.855 7                   5873830.882
        43.750
 102217566.138 7                  19148787.251
        42.500
 125041653.432 6                  23794607.829
        41.000
 116544182.582 7                  21779051.727
        47.500
 195146669.231 7                  37135176.450
        47.750
 131502282.630 6                  25024053.089
        40.750
 110722310.772 8  86277182.83646  21069742.405    21069741.972    21069743.883
        48.500          41.750
 128516083.833 5                  24083857.841
        35.250
 129640797.190 7                  24669798.646
        47.250
 107408742.387 8                  20107137.721
        52.000
 111405098.278 7  86809185.31046  21199676.598    21199676.415    21199674.953
        47.750          39.500
 21 10 21  0 34 30.0000000  0 26G31G16E07G32G04S25G29E30R13E02R03E03
                                S23R23G27S48R22E11R21S36E08G26R02E25
                                R12G18
 107161019.800 8  83502104.35249  20392056.138    20392055.825    20392054.141
        51.000          56.000
 120850280.126 7  94169045.79544  22997038.317    22997037.490    22997036.078
        42.250          27.250
 150853226.552 5                  28706415.152
        33.500
 128670569.823 6 100262807.67443  24485194.881    24485194.721    24485197.096
        40.000          23.750
 130340691.542 6 101564174.76643  24803008.487    24803008.237    24803009.138
        38.250          23.250
 183281071.488 7                  34877018.549
        46.250
 123002493.750 6  95846153.64146  23406572.134    23406571.616    23406570.162
        41.500          40.500
 140459766.509 6                  26728603.935
        38.000
 124936224.469 5                  23396542.777
        32.750
 127126101.585 7                  24191277.191
        47.750
 130790033.780 6                  24432677.185
        37.500
 143348041.210 6                  27278221.594
        38.500
 204011484.553 7                  38822079.028
        43.500
 115960105.159 8                  21677511.710
        49.250
 121770516.486 7  94886141.88645  23172150.761    23172150.211    23172151.575
        42.500          31.000
  30868845.805 7                   5873857.918
        44.000
 102231908.728 7                  19151474.030
        42.250
 125088367.774 6                  23803497.443
        41.250
 116653538.187 7                  21799486.627
        47.250
 195146678.802 7                  37135179.115
        47.500
 131543114.772 6                  25031823.180
        39.500
 110691330.887 8  86253042.66746  21063847.082    21063846.644    21063848.549
        48.500          41.250
 128595087.544 6                  24098665.738
        38.250
 129657205.518 7                  24672921.442
        47.000
 107351658.848 8                  20096451.546
        52.000
 111380792.062 8  86790245.41146  21195050.867    21195050.680    21195049.686
        48.000          39.250
 21 10 21  0 35  0.0000000  0 26G31G16E07G32G04S25G29E30R13E02R03E03
                                S23R23G27S48R22E11R21S36E08G26R02E25
                                R12G18
 107179631.242 8  83516606.76649  20395597.621    20395597.308    20395595.738
        51.000          56.250
 120790208.163 7  94122236.48644  22985607.479    22985606.643    22985604.970
        42.500          28.250
 150839825.244 5                  28703865.518
        34.000
 128761072.133 6 100333329.04343  24502415.979    24502415.814    24502419.170
        40.000          23.750
 130303065.272 6 101534855.59943  24795849.092    24795848.860    24795849.471
        38.500          23.000
 183276090.269 7                  34876275.539
        46.500
 123094616.801 7  95917937.81546  23424102.624    23424102.124    23424100.653
        42.250          41.250
 140404782.524 6                  26718140.901
        36.750
 124836375.191 5                  23377842.981
        32.250
 127094933.648 8                  24185346.129
        48.000
 130820796.256 5                  24438423.552
        33.000
 143418919.238 6                  27291709.407
        39.500
 204011382.794 7                  38822059.273
        43.250
 115844379.782 8                  21655877.911
        49.500
 121688057.654 7  94821888.29345  23156459.425    23156458.880    23156460.186
        42.500          31.250
  30867897.582 7                   5873885.696
        43.750
 102247052.271 7                  19154311.068
        42.000
 125135440.003 7                  23812454.978
        42.000
 116763239.627 7                  21819987.596
        47.750
 195146694.601 7                  37135179.218
        47.250
 131584201.921 6                  25039641.873
        41.000
 110660478.508 8  86229001.85046  21057976.245    21057975.812    21057977.336
        48.750          41.500
 128674207.716 7                  24113494.949
        42.750
 129673722.218 7                  24676064.419
        47.250
 107294820.309 8                  20085811.231
        51.750
 111357038.191 8  86771735.90146  21190530.946    21190530.754    21190529.443
        48.000          39.500
 21 10 21  0 35 30.0000000  0 26G31G16E07G32G04S25G29E30R13E02R03E03
                                S23R23G27S48R22E11R21S36E08G26R02E25
                                R12G18
 107198748.206 8  83531503.09949  20399235.621    20399235.313    20399233.457
        51.000          56.250
 120730193.420 7  94075471.76344  22974187.323    22974186.474    22974184.848
        42.500          28.500
 150826789.465 5                  28701385.213
        34.250
 128851447.684 6 100403751.58244  24519614.072    24519613.925    24519616.762
        41.250          25.000
 130265918.351 6 101505909.93143  24788780.539    24788780.285    24788780.211
        37.750          23.000
 183272701.106 7                  34875530.755
        45.750
 123186790.065 7  95989761.13146  23441643.075    23441642.584    23441640.601
        42.250          41.500
 140349726.874 6                  26707663.829
        38.250
 124736419.540 5                  23359124.283
        31.250
 127063794.375 7                  24179420.451
        47.750
 130852086.213 5                  24444268.398
        34.750
 143489749.436 6                  27305187.656
        39.500
 204011285.687 7                  38822038.815
        43.250
 115729043.710 8                  21634317.228
        49.500
 121605885.391 7  94757858.00245  23140822.282    23140821.737    23140823.405
        42.500          31.500
  30868552.454 7                   5873913.227
        43.250
 102262997.707 7                  19157297.726
        42.500
 125182871.131 6                  23821480.710
        41.000
 116873285.073 7                  21840552.056
        47.500
 195146709.702 7                  37135182.205
        47.250
 131625544.693 6                  25047509.123
        40.000
 110629756.656 8  86205062.74246  21052129.848    21052129.415    21052131.002
        48.750          41.500
 128753431.36716                  24128341.426
        40.250
 129690350.446 7                  24679228.711
        47.250
 107238231.775 8                  20075217.703
        51.500
 111333840.303 8  86753659.62646  21186116.350    21186116.158    21186115.250
        48.000          39.250
 21 10 21  0 36  0.0000000  0 26G31G16E07G32G04S25G29E30R13E02R03E03
                                S23R23G27S48R22E11R21S36E08G26R02E25
                                R12G18
 107218362.458 8  83546786.92949  20402968.134    20402967.821    20402965.916
        51.250          56.500
 120670227.534 7  94028745.10444  22962775.855    22962775.019    22962773.607
        43.500          29.000
 150814110.928 5                  28698972.398
        32.500
 128941685.915 6 100474067.16944  24536785.790    24536785.634    24536788.620
        39.000          24.250
 130229243.355 6 101477332.00743  24781800.927    24781800.659    24781800.876
        38.000          23.250
 183269297.440 7                  34874785.563
        46.250
 123279002.858 7  96061615.24946  23459190.359    23459189.863    23459188.111
        42.750          41.500
 140294591.309 6                  26697172.306
        37.500
 124636351.174 5                  23340384.653
        32.250
 127032676.212 7                  24173498.867
        47.250
 130883892.486 6                  24450211.038
        36.500
 143560521.525 6                  27318655.682
        39.250
 204011183.283 7                  38822020.549
        43.000
 115614092.290 8                  21612828.093
        49.000
 121523992.337 7  94694045.26745  23125239.112    23125238.567    23125239.532
        42.500          31.500
  30869200.957 7                   5873938.613
        43.500
 102279734.797 7                  19160432.548
        42.250
 125230651.507 6                  23830573.090
        41.000
 116983661.999 8                  21861178.805
        48.000
 195146714.112 7                  37135183.573
        47.250
 131667133.090 6                  25055423.344
        40.000
 110599157.712 8  86181219.41047  21046307.019    21046306.590    21046308.458
        48.750          42.000
 128832766.158 6                  24143206.654
        38.250
 129707082.804 7                  24682412.564
        47.000
 107181887.552 8                  20064669.891
        51.750
 111311191.443 8  86736011.16946  21181806.552    21181806.356    21181805.143
        48.250          39.250
 21 10 21  0 36 30.0000000  0 26G31G16E07G32G04S25G29E30R13E02R03E03
                                S23R23G27S48R22E11R21S36E08G26R02E25
                                R12G18
 107238476.771 8  83562460.41749  20406795.522    20406795.214    20406793.660
        51.250          56.500
 120610313.183 7  93982058.60544  22951374.335    22951373.490    22951372.526
        42.750          29.000
 150801792.245 5                  28696628.333
        34.250
 129031787.024 6 100544275.92244  24553932.044    24553931.879    24553934.135
        40.750          24.500
 130193043.437 6 101449124.29343  24774912.488    24774912.211    24774912.449
        37.250          21.750
 183265886.430 7                  34874040.376
        46.500
 123371256.866 7  96133501.47647  23476746.043    23476745.547    23476743.679
        42.750          42.000
 140239378.502 6                  26686665.211
        37.250
 124536173.958 5                  23321625.759
        32.750
 127001582.520 7                  24167581.939
        47.250
 130916215.038 5                  24456249.456
        34.500
 143631236.597 6                  27332112.235
        39.500
 204011079.691 7                  38822001.432
        43.500
 115499531.441 8                  21591411.539
        49.000
 121442381.928 7  94630452.77645  23109709.103    23109708.562    23109709.592
        42.750          31.750
  30868247.621 7                   5873966.274
        43.500
 102297264.466 7                  19163717.163
        42.000
 125278782.385 6                  23839731.996
        41.000
 117094368.859 7                  21881867.069
        47.500
 195146722.851 7                  37135185.505
        47.500
 131708968.037 6                  25063384.198
        39.750
 110568685.047 8  86157474.47447  21040508.311    21040507.887    21040509.935
        48.750          42.000
 128912201.509 6                  24158096.310
        40.250
 129723922.763 7                  24685616.982
        47.000
 107125793.530 8                  20054169.411
        52.000
 111289095.509 8  86718793.56346  21177601.693    21177601.506    21177600.476
        48.000          39.500
 21 10 21  0 37  0.0000000  0 26G31G16E07G32G04S25G29E30R13E02R03E03
                                S23R23G27S48R22E11R21S36E08G26R02E25
                                R12G18
 107259095.394 8  83578526.87049  20410719.272    20410718.959    20410717.375
        51.250          56.500
 120550454.893 7  93935415.78244  22939983.463    22939982.614    22939981.881
        42.250          28.250
 150789837.783 5                  28694353.122
        33.250
 129121752.712 6 100614379.06644  24571051.724    24571051.550    24571054.265
        40.500          26.000
 130157323.754 6 101421290.77343  24768115.070    24768114.784    24768115.042
        36.000          20.500
 183260871.876 7                  34873292.462
        46.250
 123463554.217 7  96205421.48546  23494309.656    23494309.165    23494307.448
        42.250          41.750
 140184092.878 6                  26676144.905
        36.500
 124435894.897 5                  23302846.272
        33.750
 126970518.368 7                  24161670.504
        47.750
 130949055.792 6                  24462383.689
        38.000
 143701896.969 6                  27345558.126
        39.750
 204010979.345 7                  38821982.924
        43.500
 115385369.072 8                  21570070.425
        49.000
 121361059.398 7  94567084.61345  23094233.672    23094233.118    23094234.531
        42.500          31.750
  30868895.713 7                   5873992.178
        43.500
 102315589.681 7                  19167150.137
        42.250
 125327266.767 6                  23848958.057
        41.250
 117205405.836 7                  21902616.839
        47.250
 195146731.281 7                  37135188.157
        47.500
 131751052.168 6                  25071392.324
        39.500
 110538343.769 8  86133831.91847  21034734.653    21034734.229    21034736.221
        48.500          42.000
 128991735.891 7                  24173000.600
        42.500
 129740875.503 7                  24688843.052
        47.250
 107069956.949 8                  20043716.891
        52.250
 111267558.153 7  86702011.20846  21173503.338    21173503.146    21173502.198
        47.750          39.750
 21 10 21  0 37 30.0000000  0 26G31G16E07G32G04S25G29E30R13E02R03E03
                                S23R23G27S48R22E11R21S36E08G26R02E25
                                R12G18
 107280211.921 8  83594981.30149  20414737.622    20414737.309    20414735.700
        51.250          56.500
 120490646.198 6  93888811.59944  22928602.219    22928601.365    22928600.551
        41.250          27.500
 150778240.854 5                  28692146.950
        34.750
 129211574.176 6 100684369.90844  24588143.923    24588143.731    24588146.488
        38.500          24.500
 130122078.297 6 101393826.77743  24761407.637    24761407.369    24761407.993
        37.500          21.500
 183257447.559 7                  34872544.659
        46.500
 123555886.339 6  96277368.57546  23511879.723    23511879.236    23511877.646
        41.750          41.750
 140128727.889 6                  26665609.525
        38.250
 124335507.315 5                  23284046.456
        32.750
 126939477.878 8                  24155763.785
        48.000
 130982405.481 6                  24468613.370
        37.250
 143772494.133 6                  27358992.381
        40.000
 204010873.070 7                  38821963.763
        43.750
 115271602.011 8                  21548802.732
        49.000
 121280018.974 7  94503936.26445  23078812.196    23078811.638    23078813.171
        43.000          32.000
  30869537.207 7                   5874017.872
        44.000
 102334701.973 7                  19170730.491
        42.250
 125376096.726 6                  23858250.452
        41.500
 117316762.067 7                  21923426.210
        47.500
 195146741.668 7                  37135188.622
        47.500
 131793377.182 6                  25079446.448
        39.500
 110508127.781 8  86110286.99247  21028984.563    21028984.134    21028986.470
        48.750          42.000
 129071360.376 6                  24187921.770
        37.250
 129757935.319 7                  24692089.491
        47.500
 107014373.969 8                  20033311.111
        52.000
 111246573.999 8  86685659.92746  21169510.013    21169509.821    21169509.088
        48.000          40.000
 21 10 21  0 38  0.0000000  0 26G31G16E07G32G04S25G29E30R13E02R03E03
                                S23R23G27S48R22E11R21S36E08G26R02E25
                                R12G18
 107301834.609 8  83611830.14749  20418852.338    20418852.025    20418850.367
        51.000          56.500
 120430895.085 6  93842252.29944  22917232.228    22917231.365    22917229.783
        40.250          26.250
 150767009.641 5                  28690009.087
        33.250
 129301257.209 6 100754252.90544  24605209.825    24605209.620    24605212.628
        40.000          25.000
 130087316.028 6 101366739.27343  24754792.711    24754792.457    24754792.960
        37.250          21.750
 183254017.441 7                  34871797.813
        46.500
 123648259.525 6  96349347.68446  23529457.734    23529457.252    23529455.563
        41.750          41.500
 140073291.748 6                  26655059.902
        37.000
 124235022.071 5                  23265228.621
        32.000
 126908470.020 8                  24149863.084
        48.000
 131016269.865 6                  24474938.676
        38.750
 143843034.485 6                  27372415.472
        39.500
 204010771.281 7                  38821943.905
        43.500
 115158242.158 8                  21527611.716
        49.250
 121199269.725 7  94441014.80445  23063446.224    23063445.679    23063446.860
        42.750          31.750
  30868583.413 7                   5874046.061
        43.500
 102354607.682 7                  19174458.730
        42.000
 125425279.022 6                  23867609.492
        41.750
 117428441.871 7                  21944296.250
        46.750
 195146749.897 7                  37135191.099
        47.500
 131835949.516 6                  25087547.804
        40.000
 110478046.135 8  86086846.75047  21023260.417    21023259.988    21023261.908
        48.250          42.000
 129151078.325 7                  24202860.161
        42.250
 129775111.280 7                  24695358.086
        47.250
 106959055.982 8                  20022955.581
        52.000
 111226152.479 7  86669747.06346  21165623.966    21165623.765    21165623.266
        47.750          40.000
 21 10 21  0 38 30.0000000  0 26G31G16E07G32G04S25G29E30R13E02R03E03
                                S23R23G27S48R22E11R21S36E08G26R02E25
                                R12G18
 107323955.166 8  83629066.94449  20423061.679    20423061.366    20423059.841
        51.000          56.750
 120371193.672 6  93795731.71544  22905871.215    22905870.335    22905869.022
        40.750          26.250
 150756135.939 5                  28687940.797
        34.250
 129390791.170 6 100824019.77744  24622247.908    24622247.712    24622250.798
        39.250          24.750
 130053029.254 6 101340022.31443  24748268.237    24748267.956    24748268.684
        37.250          21.500
 183248982.694 7                  34871045.829
        46.500
 123740663.746 6  96421350.94346  23547041.764    23547041.282    23547039.973
        41.250          41.500
 140017776.338 6                  26644496.029
        37.250
 124134433.063 5                  23246392.903
        32.250
 126877487.331 8                  24143967.308
        48.000
 131050637.798 6                  24481360.075
        39.750
 143913508.058 6                  27385826.466
        39.750
 204010665.080 7                  38821922.821
        43.500
 115045284.607 8                  21506495.397
        49.500
 121118804.237 7  94378314.45745  23048134.130    23048133.594    23048134.705
        43.000          32.000
  30869223.400 7                   5874072.082
        43.250
 102375296.211 7                  19178335.093
        42.250
 125474804.022 6                  23877033.781
        41.750
 117540432.548 7                  21965224.601
        46.750
 195146756.049 7                  37135193.304
        47.500
 131878759.271 6                  25095694.302
        40.250
 110448091.337 8  86063505.34847  21017560.425    21017560.005    21017561.443
        49.000          42.250
 129230897.84517                  24217815.749
        42.250
 129792396.014 7                  24698646.946
        47.250
 106903997.569 8                  20012648.445
        51.500
 111206286.607 8  86654267.17146  21161843.621    21161843.438    21161842.666
        48.000          40.000
 21 10 21  0 39  0.0000000  0 26G31G16E07G32G04S25G29E30R13E02R03E03
                                S23R23G27S48R22E11R21S36E08G26R02E25
                                R12G18
 107346583.950 8  83646699.76449  20427367.771    20427367.458    20427365.928
        50.750          56.500
 120311552.502 6  93749258.08144  22894522.073    22894521.170    22894519.937
        41.500          27.250
 150745630.317 5                  28685941.148
        35.750
 129480184.299 6 100893676.96144  24639258.445    24639258.231    24639261.664
        39.250          25.250
 130019229.224 6 101313684.62443  24741837.237    24741836.983    24741835.817
        36.250          21.000
 183245543.306 7                  34870293.644
        46.750
 123833107.983 6  96493385.39046  23564632.955    23564632.482    23564631.922
        40.250          41.000
 139962192.336 6                  26633918.952
        38.500
 124033752.229 5                  23227536.901
        32.000
 126846541.180 8                  24138078.667
        48.000
 131085517.291 6                  24487876.639
        41.250
 143983923.452 6                  27399226.002
        39.750
 204010565.912 7                  38821903.575
        43.250
 114932743.592 8                  21485456.534
        49.000
 121038633.952 7  94315844.13945  23032877.847    23032877.311    23032878.602
        42.250          31.750
  30869868.869 7                   5874098.209
        43.750
 102396777.204 7                  19182359.185
        42.000
 125524680.986 6                  23886525.131
        41.250
 117652740.872 7                  21986211.835
        47.000
 195146773.848 7                  37135194.524
        47.250
 131921815.288 6                  25103887.640
        39.750
 110418274.702 8  86040271.60847  21011886.166    21011885.746    21011887.683
        48.750          42.250
 129310785.821 7                  24232786.518
        42.250
 129809800.992 7                  24701959.235
        47.000
 106849212.179 8                  20002392.535
        51.750
 111186988.114 7  86639229.39146  21158171.319    21158171.141    21158170.208
        47.750          39.750
 21 10 21  0 39 30.0000000  0 26G31G16E07G32G04S25G29E30R13E02R03E03
                                S23R23G27S48R22E11R21S36E08G26R02E25
                                R12G18
 107369702.868 8  83664714.50749  20431767.171    20431766.858    20431765.325
        50.750          56.500
 120251953.429 7  93702817.23544  22883180.852    22883179.958    22883178.069
        42.750          28.500
 150735474.328 5                  28684008.464
        34.000
 129569415.876 6 100963208.32643  24656238.522    24656238.348    24656241.009
        37.250          23.000
 129985898.218 6 101287712.38543  24735494.271    24735493.994    24735493.268
        36.500          21.250
 183242091.934 7                  34869537.707
        46.250
 123925571.619 6  96565434.95446  23582228.254    23582227.776    23582227.010
        40.500          41.000
 139906521.539 6                  26623325.068
        38.000
 123932962.835 5                  23208662.948
        32.500
 126815614.075 7                  24132193.219
        47.750
 131120887.113 6                  24494483.027
        41.000
 144054260.782 6                  27412610.794
        39.250
 204010455.067 7                  38821883.668
        43.250
 114820604.038 8                  21464493.301
        50.000
 120958741.402 7  94253590.23145  23017674.461    23017673.911    23017675.198
        42.250          31.500
  30868902.795 7                   5874124.033
        43.500
 102419029.548 7                  19186528.295
        42.250
 125574890.239 6                  23896079.600
        40.500
 117765344.148 7                  22007254.508
        46.500
 195146775.851 7                  37135194.614
        47.000
 131965097.575 6                  25112123.946
        40.000
 110388578.732 8  86017131.89547  21006235.250    21006234.835    21006236.871
        48.500          42.000
 129390738.386 6                  24247769.182
        40.500
 129827308.829 7                  24705290.830
        46.750
 106794684.377 8                  19992185.005
        52.000
 111168239.924 8  86624620.41146  21154603.855    21154603.677    21154602.327
        48.000          39.750
 21 10 21  0 40  0.0000000  0 26G31G16E07G32G04S25G29E30R13E02R03E03
                                S23R23G27S48R22E11R21S36E08G26R02E25
                                R12G18
 107393339.147 8  83683132.38949  20436264.950    20436264.633    20436263.205
        50.750          56.250
 120192423.469 7  93656430.26544  22871852.940    22871852.055    22871849.593
        42.500          29.250
 150725694.945 6                  28682147.396
        36.250
 129658510.247 6 101032632.61944  24673192.227    24673192.044    24673194.710
        37.750          24.250
 129953063.806 6 101262127.14843  24729245.270    24729244.980    24729245.423
        37.500          21.500
 183237049.706 7                  34868784.324
        46.000
 124018080.058 6  96637519.43446  23599832.156    23599831.669    23599830.505
        40.500          40.750
 139850791.051 6                  26612719.878
        38.250
 123832093.971 5                  23189774.925
        33.500
 126784733.772 8                  24126316.964
        48.000
 131156772.152 6                  24501186.961
        40.500
 144124545.122 6                  27425985.351
        38.500
 204010358.475 7                  38821864.672
        43.500
 114708896.865 8                  21443611.638
        50.250
 120879154.397 7  94191574.42045  23002530.000    23002529.450    23002530.447
        42.250          31.500
  30869552.531 7                   5874151.489
        43.750
 102442079.221 7                  19190845.471
        42.500
 125625457.390 6                  23905702.199
        40.500
 117878265.312 7                  22028356.749
        47.000
 195146788.700 7                  37135198.066
        47.250
 132008631.372 6                  25120408.322
        40.000
 110359031.174 8  85994107.82747  21000612.491    21000612.071    21000613.980
        48.750          42.000
 129470779.915 7                  24262769.886
        44.500
 129844947.418 7                  24708647.191
        46.750
 106740444.656 8                  19982030.972
        51.750
 111150070.176 8  86610462.16946  21151146.046    21151145.863    21151144.958
        48.250          39.750
 21 10 21  0 40 30.0000000  0 26G31G16E07G32G04S25G29E30R13E02R03E03
                                S23R23G27S48R22E11R21S36E08G26R02E25
                                R12G18
 107417464.906 8  83701931.67949  20440856.002    20440855.689    20440854.175
        50.500          56.500
 120132935.512 7  93610076.02145  22860532.472    22860531.583    22860530.382
        42.500          30.000
 150716264.633 5                  28680352.953
        33.750
 129747437.796 6 101101926.86544  24690114.770    24690114.623    24690117.610
        38.750          25.250
 129920699.142 6 101236907.89843  24723086.914    24723086.628    24723085.852
        36.000          20.750
 183233588.604 7                  34868026.943
        46.500
 124110604.345 6  96709616.26446  23617439.218    23617438.727    23617437.322
        41.500          41.750
 139794973.561 6                  26602098.239
        39.250
 123731120.035 5                  23170863.943
        33.250
 126753873.645 7                  24120444.558
        47.750
 131193141.626 6                  24507981.176
        41.500
 144194747.127 6                  27439344.490
        38.750
 204010251.735 7                  38821843.866
        43.500
 114597597.614 8                  21422805.058
        49.250
 120799846.332 7  94129775.95745  22987438.304    22987437.741    22987438.716
        42.500          31.750
  30870186.263 7                   5874176.628
        43.750
 102465896.043 7                  19195307.543
        42.250
 125676353.563 6                  23915387.391
        40.500
 117991472.839 7                  22049512.430
        47.500
 195146788.605 7                  37135199.528
        47.500
 132052387.545 6                  25128734.466
        39.750
 110329605.369 8  85971178.62647  20995012.997    20995012.577    20995014.212
        48.250          42.000
 129550877.967 5                  24277776.410
        34.500
 129862690.184 7                  24712023.757
        46.750
 106686468.161 8                  19971926.703
        51.750
 111132452.562 7  86596734.16546  21147793.459    21147793.263    21147792.305
        47.500          39.750
 21 10 21  0 41  0.0000000  0 26G31G16E07G32G04S25G29E30R13E02R03E03
                                S23R23G27S48R22E11R21S36E08G26R02E25
                                R12G18
 107442095.878 8  83721124.64449  20445543.184    20445542.871    20445541.160
        50.750          56.250
 120073505.195 7  93563766.69944  22849223.005    22849222.120    22849221.497
        42.500          29.750
 150707199.033 5                  28678627.623
        33.500
 129836212.299 6 101171102.02744  24707007.602    24707007.464    24707010.578
        39.500          24.250
 129888820.425 6 101212067.35243  24717021.015    24717020.711    24717020.968
        36.000          21.250
 183230118.223 7                  34867269.830
        46.250
 124203158.372 6  96781736.27646  23635051.505    23635051.014    23635049.764
        41.750          41.750
 139739084.833 6                  26591462.974
        38.750
 123630058.393 5                  23151938.827
        34.000
 126723050.189 7                  24114579.049
        47.750
 131230008.709 6                  24514869.208
        41.250
 144264880.812 6                  27452690.271
        37.500
 204010148.353 7                  38821826.793
        43.500
 114486725.410 8                  21402078.174
        49.750
 120720833.645 7  94068207.66145  22972402.523    22972401.982    22972403.190
        42.750          32.000
  30869222.959 7                   5874202.921
        43.750
 102490494.152 7                  19199915.368
        42.250
 125727593.123 6                  23925137.858
        40.750
 118104978.324 7                  22070722.806
        46.750
 195146801.153 7                  37135201.929
        47.250
 132096380.003 6                  25137105.888
        39.500
 110300317.778 8  85948357.12947  20989439.831    20989439.407    20989441.153
        48.500          42.000
 129631044.180 7                  24292802.866
        43.000
 129880553.681 7                  24715423.186
        47.000
 106632773.706 8                  19961874.901
        52.000
 111115403.798 8  86583449.41746  21144549.362    21144549.175    21144548.094
        48.000          40.000
 21 10 21  0 41 30.0000000  0 26G31G16E07G32G04S25G29E30R13E02R03E03
                                S23R23G27S48R22E11R21S36E08G26R02E25
                                R12G18
 107467226.683 8  83740707.09649  20450325.355    20450325.042    20450323.328
        51.000          56.250
 120014127.519 7  93517498.39744  22837923.848    22837922.963    22837922.069
        42.500          29.500
 150698492.745 5                  28676971.211
        35.250
 129924825.560 6 101240151.44844  24723870.450    24723870.303    24723872.400
        39.500          24.750
 129857423.022 6 101187601.82043  24711046.229    24711045.925    24711046.067
        37.250          21.500
 183225045.001 7                  34866512.091
        46.250
 124295734.923 7  96853873.82546  23652668.291    23652667.795    23652666.446
        42.000          41.000
 139683119.734 6                  26580813.256
        39.250
 123528905.812 5                  23132995.253
        33.250
 126692259.005 7                  24108719.585
        47.750
 131267365.377 6                  24521846.730
        40.250
 144334939.086 6                  27466022.174
        38.500
 204010042.195 7                  38821803.831
        42.750
 114376278.635 8                  21381431.652
        49.750
 120642111.897 7  94006866.07445  22957421.921    22957421.385    22957422.856
        43.000          32.000
  30869859.471 7                   5874227.475
        43.000
 102515866.069 6                  19204668.050
        41.750
 125779169.310 6                  23934952.486
        40.500
 118218772.417 7                  22091988.084
        46.500
 195146814.279 7                  37135202.824
        46.750
 132140601.809 6                  25145521.393
        39.500
 110271163.983 8  85925639.89147  20983892.077    20983891.653    20983893.591
        48.500          42.000
 129711270.326 7                  24307838.029
        42.250
 129898533.593 7                  24718844.387
        47.000
 106579358.934 8                  19951875.415
        52.000
 111098919.788 8  86570604.73946  21141412.415    21141412.223    21141411.390
        48.000          40.000
 21 10 21  0 42  0.0000000  0 26G31G16E07G32G04S25G29E30R13E02R03E03
                                S23R23G27S48R22E11R21S36E08G26R02E25
                                R12G18
 107492861.083 8  83760681.95049  20455203.529    20455203.212    20455201.430
        50.750          56.250
 119954806.188 7  93471273.99744  22826635.197    22826634.321    22826633.225
        42.750          29.500
 150690149.367 5                  28675383.098
        33.000
 130013279.045 6 101309076.22044  24740702.397    24740702.237    24740704.276
        39.500          24.250
 129826511.008 6 101163514.52843  24705163.833    24705163.552    24705163.558
        37.750          22.250
 183221570.593 7                  34865754.147
        46.000
 124388335.847 7  96926030.37646  23670289.883    23670289.378    23670287.711
        42.000          41.500
 139627082.215 6                  26570149.496
        38.500
 123427667.591 5                  23114038.104
        33.500
 126661504.583 7                  24102867.345
        47.750
 131305212.264 6                  24528916.979
        39.000
 144404923.958 6                  27479339.632
        37.500
 204009938.565 7                  38821784.523
        43.500
 114266264.328 8                  21360865.032
        49.500
 120563685.548 7  93945754.66445  22942498.446    22942497.919    22942498.753
        42.500          32.250
  30870494.905 7                   5874254.493
        43.750
 102542013.486 7                  19209566.563
        42.250
 125831084.438 6                  23944831.548
        40.250
 118332854.586 7                  22113308.035
        47.000
 195146822.544 7                  37135204.134
        47.250
 132185054.809 6                  25153980.144
        39.500
 110242148.445 8  85903030.38347  20978370.557    20978370.128    20978372.192
        48.500          42.500
 129791555.460 6                  24322882.170
        38.500
 129916634.496 7                  24722288.941
        47.000
 106526230.599 8                  19941929.708
        52.000
 111083005.247 7  86558203.80546  21138383.940    21138383.753    21138382.943
        47.750          40.250
 21 10 21  0 42 30.0000000  0 26G31G16E07G32G04S25G29E30R13E02R03E03
                                S23R23G27S48R22E11R21S36E08G26R02E25
                                R12G18
 107518994.609 8  83781045.74349  20460176.455    20460176.138    20460174.420
        50.500          56.000
 119895537.371 7  93425090.51044  22815357.074    22815356.211    22815354.751
        43.000          29.000
 150682164.679 5                  28673863.447
        33.750
 130101566.533 6 101377871.66144  24757502.837    24757502.668    24757504.725
        39.500          25.750
 129796080.882 6 101139802.71943  24699372.962    24699372.694    24699372.691
        37.750          23.250
 183218087.549 7                  34864991.892
        46.000
 124480955.666 7  96998201.64746  23687914.523    23687914.009    23687912.620
        42.250          41.750
 139570968.228 6                  26559471.267
        38.500
 123326341.571 5                  23095063.211
        33.000
 126630783.605 8                  24097021.275
        48.000
 131343542.854 6                  24536077.773
        38.750
 144474829.407 6                  27492642.894
        37.250
 204009832.825 7                  38821764.843
        43.250
 114156681.686 8                  21340379.773
        49.500
 120485551.245 7  93884870.83045  22927629.706    22927629.161    22927630.398
        42.250          32.000
  30871127.122 7                   5874279.154
        43.750
 102568930.016 7                  19214608.644
        42.500
 125883332.929 6                  23954774.125
        40.500
 118447216.824 7                  22134679.222
        47.000
 195146832.532 7                  37135206.007
        47.250
 132229733.213 6                  25162482.478
        39.750
 110213267.875 8  85880526.04247  20972874.904    20972874.475    20972876.099
        48.250          42.250
 129871892.232 7                  24337939.176
        43.000
 129934853.152 7                  24725755.833
        47.000
 106473387.690 8                  19932037.482
        51.750
 111067657.081 7  86546244.20046  21135463.727    21135463.544    21135462.218
        47.750          40.250
 21 10 21  0 43  0.0000000  0 26G31G16E07G32G04S25G29E30R13E02R03E03
                                S23R23G27S48R22E11R21S36E08G26R02E25
                                R12G18
 107545626.895 8  83801798.17649  20465244.398    20465244.081    20465242.258
        51.000          56.000
 119836321.148 7  93378947.99144  22804088.559    22804087.705    22804086.115
        43.500          28.250
 150674538.324 5                  28672413.170
        32.750
 130189685.615 6 101446535.87844  24774271.015    24774270.828    24774274.056
        39.500          24.000
 129766132.779 6 101116466.53543  24693674.191    24693673.937    24693673.639
        38.000          23.250
 183213001.919 7                  34864228.443
        46.250
 124573592.052 7  97070385.84046  23705542.811    23705542.302    23705540.445
        42.500          41.750
 139514777.638 6                  26548778.800
        38.000
 123224930.239 5                  23076071.921
        32.500
 126600096.713 7                  24091181.826
        47.750
 131382353.624 6                  24543327.124
        39.500
 144544653.605 6                  27505929.924
        36.750
 204009726.404 7                  38821745.092
        43.250
 114047533.882 8                  21319976.107
        50.250
 120407709.533 7  93824214.97945  22912816.797    22912816.261    22912817.608
        43.000          32.250
  30870158.735 7                   5874305.854
        43.500
 102596613.157 7                  19219794.987
        42.500
 125935913.130 6                  23964780.173
        40.250
 118561854.680 7                  22156101.090
        46.000
 195146841.694 7                  37135207.872
        47.250
 132274635.035 6                  25171027.326
        39.250
 110184522.834 8  85858127.31147  20967404.967    20967404.543    20967406.142
        48.750          42.250
 129952275.039 6                  24353000.174
        39.500
 129953190.247 7                  24729245.333
        46.750
 106420832.919 8                  19922199.178
        52.250
 111052876.071 8  86534726.53946  21132650.779    21132650.605    21132649.281
        48.250          40.250
 21 10 21  0 43 30.0000000  0 26G31G16E07G32G04S25G29E30R13E02R03E03
                                S23R23G27S48R22E11R21S36E08G26R02E25
                                R12G18
 107572761.519 8  83822942.04149  20470407.884    20470407.571    20470405.712
        50.500          56.000
 119777161.141 7  93332849.26444  22792830.501    22792829.652    22792827.039
        42.250          27.250
 150667273.783 5                  28671030.047
        34.250
 130277637.134 6 101515069.36943  24791008.249    24791008.039    24791010.298
        39.000          22.000
 129736670.775 6 101093509.11243  24688067.706    24688067.501    24688066.631
        38.000          23.000
 183209504.170 7                  34863464.622
        45.750
 124666246.708 7  97142584.27046  23723174.124    23723173.624    23723172.298
        42.000          41.250
 139458514.189 6                  26538071.869
        37.250
 123123437.888 5                  23057065.337
        33.250
 126569448.331 8                  24085349.520
        48.000
 131421645.799 6                  24550667.429
        37.500
 144614398.446 6                  27519202.147
        38.000
 204009621.529 7                  38821723.847
        43.250
 113938827.818 8                  21299654.371
        50.000
 120330164.737 7  93763790.49345  22898060.341    22898059.791    22898061.222
        42.750          32.250
  30870791.810 7                   5874332.648
        43.500
 102625064.378 7                  19225124.899
        42.250
 125988827.249 6                  23974849.140
        41.000
 118676767.741 7                  22177575.937
        45.500
 195146847.021 7                  37135209.451
        47.250
 132319762.124 6                  25179614.688
        40.000
 110155917.751 8  85835837.63747  20961961.469    20961961.045    20961962.970
        48.750          42.500
 130032704.171 6                  24368072.984
        38.750
 129971650.230 7                  24732758.089
        46.750
 106368572.811 8                  19912415.625
        51.750
 111038666.783 8  86523654.37046  21129946.664    21129946.499    21129945.559
        48.000          40.250
 21 10 21  0 44  0.0000000  0 26G31G16E07G32G04S25G29E30R13E02R03E03
                                S23R23G27S48R22E11R21S36E08G26R02E25
                                R12G18
 107600392.726 8  83844472.85349  20475666.042    20475665.725    20475663.799
        50.750          56.000
 119718051.965 7  93286790.15644  22781582.361    22781581.516    22781579.026
        42.750          27.500
 150660365.393 5                  28669715.842
        32.000
 130365414.051 6 101583466.88343  24807711.360    24807711.168    24807714.165
        36.000          22.000
 129707689.860 6 101070926.56643  24682552.495    24682552.281    24682551.855
        36.750          22.500
 183206003.453 7                  34862698.785
        46.000
 124758913.181 6  97214791.89046  23740808.418    23740807.900    23740806.527
        41.500          41.250
 139402172.770 6                  26527350.560
        37.500
 123021861.419 5                  23038044.596
        34.000
 126538833.912 8                  24079523.843
        48.000
 131461410.810 6                  24558094.809
        38.500
 144684056.704 6                  27532457.558
        38.250
 204009513.423 7                  38821705.442
        43.500
 113830561.550 8                  21279415.398
        50.500
 120252912.173 7  93703593.71845  22883359.968    22883359.427    22883360.570
        43.250          32.500
  30871421.099 7                   5874356.718
        43.500
 102654276.145 7                  19230597.087
        42.250
 126042068.419 6                  23984980.475
        40.750
 118791946.569 7                  22199100.028
        46.500
 195146850.803 7                  37135211.472
        47.250
 132365107.295 6                  25188243.370
        40.250
 110127448.088 8  85813653.48647  20956543.766    20956543.342    20956545.286
        48.750          42.500
 130113170.500 6                  24383153.486
        40.750
 129990228.635 7                  24736293.487
        47.250
 106316605.001 8                  19902687.566
        52.250
 111025024.758 8  86513024.22446  21127350.589    21127350.420    21127349.496
        48.000          40.000
 21 10 21  0 44 30.0000000  0 26G31G16E07G32G04S25G29E30R13E02R03E03
                                S23R23G27S48R22E11R21S36E08G26R02E25
                                R12G18
 107628526.835 8  83866395.54449  20481019.690    20481019.373    20481017.570
        50.750          56.000
 119659000.273 6  93240775.85644  22770345.056    22770344.202    22770343.287
        41.750          28.000
 150653819.519 5                  28668469.664
        34.750
 130453020.582 6 101651731.78344  24824383.014    24824382.854    24824385.536
        39.000          24.750
 129679196.896 6 101048724.29343  24677130.177    24677129.954    24677130.460
        37.750          23.500
 183200900.048 7                  34861932.600
        46.000
 124851595.614 6  97287011.95346  23758444.889    23758444.362    23758443.505
        40.750          41.000
 139345759.819 6                  26516615.215
        37.500
 122920209.131 5                  23019007.229
        35.000
 126508260.762 8                  24073705.874
        48.000
 131501652.221 6                  24565613.155
        37.500
 144753632.999 6                  27545697.254
        38.000
 204009408.229 7                  38821684.081
        43.250
 113722744.982 8                  21259260.644
        50.500
 120175959.026 7  93643630.25445  22868715.962    22868715.430    22868716.816
        43.500          33.000
  30870453.175 7                   5874382.654
        43.750
 102684252.548 7                  19236212.818
        42.250
 126095641.603 6                  23995175.166
        41.250
 118907393.622 7                  22220673.791
        46.250
 195146860.496 7                  37135213.171
        47.250
 132410675.199 6                  25196914.787
        39.500
 110099121.049 8  85791580.47247  20951153.400    20951152.976    20951154.638
        48.750          42.500
 130193675.882 6                  24398241.322
        39.250
 130008932.816 7                  24739852.696
        46.750
 106264939.131 8                  19893015.565
        52.250
 111011957.382 7  86502841.86346  21124864.113    21124863.948    21124862.832
        47.750          40.250
 21 10 21  0 45  0.0000000  0 26G31G16E07G32G04S25G29E30R13E02R03E03
                                S23R23G27S48R22E11R21S36E08G26R02E25
                                R12G18
 107657162.836 8  83888709.31249  20486468.850    20486468.533    20486466.824
        50.500          56.000
 119600005.820 6  93194806.16144  22759118.821    22759117.972    22759117.690
        41.500          28.750
 150647635.105 5                  28667292.275
        34.250
 130540453.263 5 101719861.15343  24841020.242    24841020.064    24841022.624
        35.000          22.250
 129651191.347 6 101026901.75443  24671802.038    24671801.828    24671800.429
        37.500          22.250
 183197398.853 7                  34861165.166
        46.500
 124944291.856 6  97359242.77946  23776085.034    23776084.511    23776082.795
        41.250          41.000
 139289274.766 6                  26505866.256
        36.000
 122818482.835 5                  22999956.841
        34.250
 126477728.869 7                  24067895.920
        47.750
 131542366.623 6                  24573217.995
        37.250
 144823124.703 6                  27558921.312
        38.750
 204009303.944 7                  38821664.782
        43.500
 113615380.543 8                  21239189.510
        50.250
 120099305.151 7  93583899.99645  22854129.094    22854128.558    22854129.981
        43.000          33.000
  30871086.180 7                   5874408.996
        43.500
 102714990.220 7                  19241970.791
        42.250
 126149544.479 6                  24005432.618
        41.000
 119023103.817 7                  22242296.448
        45.000
 195146873.023 7                  37135214.879
        47.500
 132456463.247 6                  25205628.058
        40.000
 110070936.714 8  85769618.65647  20945789.903    20945789.479    20945791.297
        48.750          42.500
 130274216.722 6                  24413333.486
        41.000
 130027762.762 7                  24743436.118
        46.500
 106213577.283 8                  19883400.189
        52.250
 110999464.713 7  86493107.31846  21122487.034    21122486.865    21122485.440
        47.500          40.250
 21 10 21  0 45 30.0000000  0 26G31G16E07G32G04S25G29E30R13E02R03E03
                                S23R23G27S48R22E11R21S36E08G26R02E25
                                R12G18
 107686295.514 8  83911410.10349  20492012.739    20492012.422    20492010.634
        51.000          56.000
 119541063.587 7  93148877.17144  22747902.665    22747901.825    22747900.790
        42.750          29.250
 150641807.108 5                  28666183.679
        32.750
 130627705.337 6 101787849.89843  24857623.843    24857623.647    24857626.094
        38.250          21.000
 129623668.814 6 101005455.61143  24666563.589    24666563.361    24666563.690
        37.750          22.250
 183193885.311 7                  34860397.528
        46.250
 125036995.243 6  97431479.15746  23793725.595    23793725.068    23793723.833
        41.000          41.000
 139232712.926 6                  26495103.053
        36.500
 122716678.805 5                  22980891.478
        34.000
 126447234.251 7                  24062092.982
        47.750
 131583545.806 6                  24580911.643
        38.000
 144892525.189 6                  27572127.561
        37.750
 204009197.860 7                  38821645.393
        43.500
 113508466.547 8                  21219202.687
        50.250
 120022946.391 7  93524399.69645  22839598.695    22839598.159    22839599.408
        43.500          33.000
  30871714.103 7                   5874432.924
        44.000
 102746482.103 7                  19247870.531
        42.250
 126203770.734 6                  24015751.612
        40.500
 119139068.422 7                  22263968.626
        46.000
 195146882.122 7                  37135217.061
        47.500
 132502464.774 6                  25214381.891
        39.250
 110042891.037 8  85747764.87647  20940453.192    20940452.768    20940454.523
        49.250          42.500
 130354783.275 6                  24428431.772
        41.750
 130046714.527 7                  24747042.290
        46.750
 106162517.602 8                  19873841.788
        52.500
 110987542.745 8  86483817.47546  21120218.098    21120217.938    21120216.990
        48.000          40.250
 21 10 21  0 46  0.0000000  0 26G31G16E07G32G04S25G29E30R13E02R03E03
                                S23R23G27S48R22E11R21S36E08G26R02E25
                                R12G18
 107715926.618 8  83934499.28249  20497651.277    20497650.964    20497649.261
        50.750          56.250
 119482175.589 7  93102990.42345  22736696.829    22736695.989    22736694.680
        43.000          30.500
 150636337.040 5                  28665142.722
        34.500
 130714775.866 6 101855697.10543  24874192.907    24874192.724    24874195.114
        38.500          22.750
 129596631.336 6 100984387.45443  24661419.153    24661418.925    24661418.614
        37.750          22.500
 183188763.555 7                  34859628.547
        46.250
 125129705.676 6  97503721.03046  23811367.963    23811367.431    23811366.003
        41.500          41.500
 139176076.220 6                  26484324.984
        36.750
 122614800.887 5                  22961814.032
        34.500
 126416779.595 7                  24056297.613
        47.750
 131625188.908 6                  24588690.849
        36.000
 144961834.477 6                  27585316.551
        38.500
 204009091.018 7                  38821624.497
        43.250
 113402007.943 8                  21199301.995
        50.500
 119946885.221 7  93465131.28645  22825124.863    22825124.309    22825125.508
        43.250          33.250
  30870740.002 7                   5874458.345
        43.750
 102778727.586 7                  19253910.977
        42.250
 126258320.681 6                  24026132.059
        40.750
 119255284.994 7                  22285686.417
        47.000
 195146889.785 7                  37135218.358
        47.500
 132548679.754 6                  25223176.263
        40.000
 110014986.674 8  85726021.21747  20935143.139    20935142.710    20935144.525
        48.750          42.750
 130435374.348 7                  24443534.164
        43.250
 130065790.798 7                  24750672.373
        46.500
 106111764.858 8                  19864340.905
        52.250
 110976194.112 7  86474974.39046  21118058.588    21118058.432    21118057.429
        47.750          40.750
 21 10 21  0 46 30.0000000  0 26G31G16E07G32G04S25G08G29E30R13E02R03
                                E03S23R23G27S48R22E11R21S36E08G26E25
                                R12G18
 107746059.893 8  83957979.76149  20503385.520    20503385.203    20503383.428
        50.750          56.000
 119423346.814 7  93057149.82445  22725502.455    22725501.601    22725500.009
        44.000          30.750
 150631229.066 5                  28664171.185
        33.750
 130801667.382 6 101923404.84143  24890727.493    24890727.283    24890729.520
        38.500          21.250
 129570083.600 6 100963700.90443  24656367.611    24656367.383    24656366.817
        37.000          22.250
 183185241.172 7                  34858858.560
        45.750
 134202077.30116                  25537805.546    25537805.774    25537809.624
        39.000          18.000
 125222426.244 6  97575970.80146  23829011.842    23829011.319    23829010.122
        40.500          40.500
 139119369.208 6                  26473534.633
        37.500
 122512856.649 5                  22942723.269
        33.750
 126386370.089 7                  24050510.975
        47.500
 131667297.277 5                  24596559.140
        34.500
 145031055.164 6                  27598488.944
        39.000
 204008987.963 7                  38821605.139
        43.500
 113296012.726 8                  21179486.992
        50.750
 119871126.649 7  93406098.66045  22810708.174    22810707.602    22810709.251
        43.000          33.250
  30871369.469 7                   5874483.748
        43.500
 102811728.633 7                  19260092.973
        42.250
 126313197.153 6                  24036574.731
        40.250
 119371754.068 7                  22307451.164
        46.750
 195146904.293 7                  37135220.768
        47.250
 132595110.754 6                  25232011.807
        39.250
 109987228.814 8  85704391.71347  20929860.961    20929860.528    20929862.372
        48.750          42.500
 130084996.808 7                  24754327.315
        46.500
 106061326.594 8                  19854898.735
        52.250
 110965423.991 7  86466582.09346  21116009.021    21116008.861    21116007.919
        47.750          40.500
 21 10 21  0 47  0.0000000  0 26G31G16E07G32G04S25G08G29E30R13E02R03
                                E03S23R23G27S48R22E11R21S36E08G26E25
                                R12G18
 107776684.404 8  83981843.02449  20509213.180    20509212.863    20509211.093
        50.500          56.000
 119364566.126 7  93011346.68345  22714316.548    22714315.685    22714314.183
        44.250          31.000
 150626472.549 5                  28663266.062
        34.500
 130888366.926 6 101990962.91644  24907226.488    24907226.301    24907228.515
        39.500          25.250
 129544015.440 6 100943388.04743  24651406.597    24651406.334    24651405.569
        37.000          22.000
 183181708.021 7                  34858085.412
        45.500
                                  25520726.385
        27.500
 125315144.493 6  97648218.76346  23846655.641    23846655.132    23846653.906
        41.000          40.750
 139062581.647 6                  26462728.361
        38.000
 122410836.937 5                  22923617.592
        33.750
 126355996.184 7                  24044730.900
        47.500
 131709856.906 5                  24604507.444
        35.250
 145100175.114 6                  27611642.214
        38.250
 204008877.674 7                  38821584.337
        43.500
 113190473.383 8                  21159757.658
        50.750
 119795660.890 7  93347294.19245  22796347.674    22796347.111    22796348.636
        43.250          33.750
  30871993.021 7                   5874509.397
        43.500
 102845472.024 7                  19266414.546
        42.000
 126368388.236 6                  24047077.392
        40.250
 119488460.878 7                  22329260.502
        46.250
 195146913.024 7                  37135221.175
        47.250
 132641745.522 6                  25240886.362
        39.750
 109959607.873 8  85682868.89647  20924604.977    20924604.548    20924606.297
        48.750          42.500
 130104322.991 7                  24758004.738
        46.500
 106011195.185 8                  19845514.129
        52.500
 110955222.708 7  86458633.04446  21114067.938    21114067.769    21114066.596
        47.750          40.500
 21 10 21  0 47 30.0000000  0 26G31G16E07G32G04S25G08G29E30R13E02R03
                                E03S23R23G27S48R22E11R21S36E08G26E25
                                R12G18
 107807809.639 8  84006096.45949  20515136.122    20515135.805    20515134.115
        50.500          56.000
 119305843.826 7  92965589.04145  22703141.977    22703141.137    22703139.777
        44.000          30.750
 150622076.729 5                  28662429.422
        32.750
 130974881.833 6 102058377.01643  24923688.702    24923688.555    24923692.376
        37.750          22.500
 129518436.645 6 100923456.52943  24646538.814    24646538.510    24646539.554
        38.750          23.250
 183176578.964 7                  34857311.871
        45.750
 134022731.57315 104433309.20153  25503678.818    25503678.590    25503683.149
        35.750          19.500
 125407868.448 6  97720471.17646  23864300.267    23864299.758    23864298.978
        41.250          41.000
 139005723.259 6                  26451909.033
        38.750
 122308752.958 5                  22904501.580
        33.500
 126325668.260 7                  24038959.715
        47.750
 131752874.522 6                  24612543.427
        37.000
 145169201.957 6                  27624777.829
        38.500
 204008770.154 7                  38821563.580
        43.500
 113085402.824 8                  21140115.634
        50.500
 119720498.109 7  93288725.82245  22782044.449    22782043.882    22782045.650
        43.750          34.250
  30871018.568 7                   5874533.459
        43.750
 102879965.007 7                  19272876.027
        42.250
 126423901.927 6                  24057641.175
        40.500
 119605411.177 7                  22351114.755
        44.750
 195146916.201 7                  37135222.467
        47.250
 132688591.829 6                  25249801.042
        38.500
 109932134.260 8  85661460.88347  20919376.916    20919376.487    20919378.210
        49.000          42.750
 130123779.728 7                  24761707.481
        46.500
 105961383.476 8                  19836189.483
        52.500
 110945600.525 7  86451135.24946  21112236.570    21112236.405    21112235.838
        47.750          40.750
 21 10 21  0 48  0.0000000  0 26G31G16E07G32G04S25G08G29E30R13E02R03
                                E03S23R23G27S48R22E11R21S36E08G26E25
                                R12G18
 107839431.613 8  84030736.96749  20521153.609    20521153.296    20521151.608
        50.500          55.750
 119247176.347 7  92919874.13145  22691977.980    22691977.135    22691976.004
        43.250          30.250
 150618037.469 5                  28661660.861
        35.000
 131061206.157 6 102125642.60843  24940117.406    24940117.299    24940118.372
        39.500          19.500
 129493343.631 6 100903903.53043  24641763.831    24641763.527    24641764.300
        38.000          22.500
 183173035.945 7                  34856537.198
        45.500
 133933303.61315 104363631.35352  25486659.782    25486659.630    25486664.547
        34.250          17.000
 125500592.256 6  97792723.46846  23881945.148    23881944.643    23881943.831
        41.250          40.750
 138948790.347 6                  26441074.799
        39.000
 122206603.158 5                  22885371.430
        34.250
 126295383.355 7                  24033196.588
        47.750
 131796342.857 4                  24620662.938
        29.250
 145238130.341 6                  27637894.252
        38.250
 204008662.655 7                  38821543.274
        43.500
 112980800.427 8                  21120561.121
        50.500
 119645635.110 7  93230391.04545  22767798.829    22767798.266    22767799.548
        44.000          34.250
  30871642.250 7                   5874560.124
        43.500
 102915201.278 7                  19279477.037
        42.000
 126479732.823 6                  24068265.493
        40.000
 119722596.935 7                  22373014.795
        45.250
 195146923.001 7                  37135224.864
        47.500
 132735643.982 6                  25258754.417
        39.000
 109904804.979 8  85640165.33147  20914176.159    20914175.730    20914177.825
        49.000          42.750
 130143364.099 7                  24765434.408
        46.500
 105911890.263 8                  19826924.032
        52.500
 110936554.397 7  86444086.32046  21110515.236    21110515.067    21110514.147
        47.750          40.500
 21 10 21  0 48 30.0000000  0 25G31G16E07G32G04S25G08G29E30R13E02E03
                                S23R23G27S48R22E11R21S36E08G26E25R12
                                G18
 107871551.078 8  84055765.12749  20527265.596    20527265.279    20527263.534
        50.250          55.500
 119188565.125 7  92874203.06545  22680824.353    22680823.495    22680822.687
        42.250          30.000
 150614355.837 5                  28660960.541
        34.750
 131147339.490 6 102192759.53044  24956507.299    24956507.192    24956509.650
        39.250          27.750
 129468737.870 6 100884730.20843  24637081.738    24637081.434    24637081.241
        37.500          22.750
 183169489.255 7                  34855760.750
        45.000
 133844023.728 5 104294062.58341  25469670.846    25469670.323    25469673.673
        32.250          11.500
 125593316.297 6  97864975.95546  23899590.113    23899589.622    23899588.522
        41.250          40.500
 138891784.488 6                  26430226.870
        40.000
 122104390.962 5                  22866230.801
        34.000
 126265143.732 8                  24027442.258
        48.000
 145306959.915 6                  27650992.202
        38.000
 204008553.469 7                  38821523.617
        43.750
 112876670.631 8                  21101095.587
        50.500
 119571073.835 7  93172291.38045  22753609.888    22753609.325    22753610.942
        43.750          34.250
  30872262.067 7                   5874584.275
        43.750
 102951179.620 7                  19286217.363
        42.000
 126535880.839 6                  24078949.918
        40.000
 119840015.749 7                  22394956.016
        44.750
 195146931.053 7                  37135226.707
        47.500
 132782901.504 6                  25267747.046
        39.000
 109877622.313 8  85618984.02348  20909003.659    20909003.253    20909005.150
        48.750          48.250
 130163078.336 7                  24769185.501
        46.750
 105862720.410 8                  19817719.413
        52.500
 110928086.337 8  86437487.83546  21108903.877    21108903.703    21108902.690
        48.000          40.500
 21 10 21  0 49  0.0000000  0 25G31G16E07G32G04S25G08G29E30R13E02E03
                                S23R23G27S48R22E11R21S36E08G26E25R12
                                G18
 107904166.373 8  84081179.64949  20533472.163    20533471.846    20533469.954
        50.250          55.000
 119130009.424 7  92828575.25845  22669681.760    22669680.915    22669679.359
        43.250          30.000
 150611030.393 5                  28660327.662
        34.750
 131233278.194 6 102259724.73045  24972860.519    24972860.417    24972863.625
        39.500          32.000
 129444618.491 6 100865935.91243  24632491.945    24632491.641    24632492.739
        38.500          23.750
 183164339.828 7                  34854983.497
        46.750
 133754896.92915 104224608.09253  25452709.727    25452709.517    25452713.833
        34.750          19.750
 125686037.924 6  97937226.57146  23917234.092    23917233.601    23917232.772
        41.250          40.000
 138834704.893 6                  26419365.303
        40.500
 122002117.550 5                  22847077.784
        34.250
 126234949.186 8                  24021696.409
        48.000
 145375687.775 6                  27664070.775
        38.500
 204008445.095 7                  38821502.453
        43.500
 112773015.615 8                  21081717.875
        50.250
 119496813.814 7  93114426.45345  22739479.335    22739478.785    22739479.439
        44.000          33.750
  30871282.847 7                   5874609.401
        43.750
 102987896.041 7                  19293095.781
        42.250
 126592343.313 6                  24089694.603
        40.500
 119957662.440 7                  22416942.166
        44.750
 195146938.536 7                  37135226.814
        47.500
 132830361.468 6                  25276778.511
        39.500
 109850586.012 8  85597916.77248  20903858.742    20903858.322    20903860.186
        48.500          48.000
 130182922.178 7                  24772961.949
        47.250
 105813875.458 8                  19808575.404
        52.500
 110920195.932 8  86431339.47346  21107402.519    21107402.350    21107401.316
        48.000          40.500
 21 10 21  0 49 30.0000000  0 25G31G16E07G32G04S25G08G29E30R13E02E03
                                S23R23G27S48R22E11R21S36E08G26E25R12
                                G18
 107937278.748 8  84106981.51449  20539773.380    20539773.063    20539771.101
        50.250          55.500
 119071510.856 7  92782991.98845  22658549.949    22658549.104    22658547.496
        42.750          30.000
 150608062.271 5                  28659762.208
        35.750
 131319020.645 5 102326536.62845  24989176.881    24989176.770    24989179.789
        34.500          34.000
 129420987.130 6 100847521.85843  24627994.838    24627994.552    24627994.980
        38.500          23.500
 183160779.022 7                  34854203.758
        46.250


 125778756.296 6  98009474.64246  23934877.848    23934877.366    23934876.640
        40.750          40.000
 138777553.023 6                  26408489.579
        40.500
 121899786.195 5                  22827913.799
        33.250
 126204801.974 8                  24015959.695
        48.000
 145444313.583 6                  27677129.569
        37.750
 204008337.560 7                  38821481.329
        43.250
 112669839.881 8                  21062430.246
        50.250
 119422857.022 7  93056797.81045  22725405.427    22725404.882    22725405.709
        44.000          34.000
  30871901.636 7                   5874634.294
        43.500
 103025349.489 7                  19300111.142
        42.000
 126649120.058 6                  24100498.807
        40.750
 120075534.301 7                  22438969.401
        45.750
 195146949.384 7                  37135228.822
        47.000
 132878023.408 6                  25285848.145
        39.250
 109823698.347 8  85576965.34148  20898742.163    20898741.739    20898743.385
        48.250          53.000
 130202897.883 7                  24776763.174
        47.250
 105765360.091 8                  19799493.324
        52.500
 110912885.201 8  86425642.80246  21106010.935    21106010.761    21106010.047
        48.000          40.500
 21 10 21  0 50  0.0000000  0 25G31G16E07G32G04S25G08G29E30R13E02E03
                                S23R23G27S48R22E11R21S36E08G26E25R12
                                G18
 107970884.882 8  84133168.11249  20546168.244    20546167.927    20546166.151
        50.500          55.250
 119013066.647 7  92737451.06545  22647428.022    22647427.173    22647426.016
        43.500          30.250
 150605448.232 5                  28659265.655
        34.750
 131404562.765 6 102393192.43345  25005455.843    25005455.727    25005457.855
        36.750          34.750
 129397840.947 6 100829485.88943  24623590.294    24623590.035    24623590.012
        38.750          23.750
 183157216.879 7                  34853423.764
        46.500
 133577122.71015 104086079.01153  25418880.274    25418879.581    25418883.835
        34.250          21.250
 125871467.195 6  98081716.89246  23952520.156    23952519.660    23952518.743
        41.250          39.750
 138720326.245 6                  26397599.775
        40.250
 121797395.661 5                  22808740.294
        33.250
 126174700.112 8                  24010231.419
        48.250
 145512832.623 6                  27690168.418
        38.000
 204008229.102 7                  38821460.357
        43.500
 112567143.509 8                  21043232.345
        50.500
 119349201.104 7  92999403.60645  22711389.331    22711388.799    22711389.480
        44.000          34.250
  30872519.208 7                   5874659.827
        43.750
 103063534.186 7                  19307265.267
        42.000
 126706206.634 6                  24111362.181
        40.750
 120193624.512 7                  22461037.447
        46.250
 195146960.745 7                  37135231.473
        47.250
 132925882.583 6                  25294956.102
        39.250
 109796957.311 8  85556128.16748  20893653.507    20893653.069    20893654.473
        48.750          53.000
 130223003.441 7                  24780588.972
        47.250
 105717174.062 8                  19790472.794
        52.500
 110906151.888 8  86420396.06946  21104730.075    21104729.897    21104728.825
        48.000          40.750
 21 10 21  0 50 30.0000000  0 25G31G16E07G32G04S25G08G29E30R13E02E03
                                S23R23G27S48R22E11R21S36E08G26E25R12
                                G18
 108004985.690 8  84159740.17149  20552657.390    20552657.073    20552655.263
        50.500          55.500
 118954678.762 7  92691954.01944  22636317.228    22636316.392    22636314.655
        44.000          29.500
 150603189.683 6                  28658834.703
        36.000
 131489904.337 6 102459692.14345  25021695.642    25021695.544    25021697.330
        38.000          33.000
 129375181.761 6 100811829.37043  24619279.066    24619278.785    24619278.227
        38.000          23.000
 183152043.884 7                  34852641.042
        46.500
 133488469.100 6 104016998.41643  25402009.242    25402008.558    25402012.994
        37.500          19.500
 125964170.768 6  98153953.42846  23970161.385    23970160.898    23970159.254
        41.000          39.250
 138663026.462 6                  26386695.491
        39.250
 121694951.026 5                  22789555.217
        32.250
 126144646.224 8                  24004512.481
        48.000
 145581244.911 6                  27703187.571
        37.750
 204008119.333 7                  38821439.595
        43.500
 112464931.811 8                  21024124.962
        50.250
 119275848.389 7  92942245.67245  22697430.728    22697430.210    22697431.337
        44.000          34.500
  30873139.034 7                   5874683.920
        43.750
 103102449.105 7                  19314554.924
        42.500
 126763603.210 6                  24122284.314
        40.500
 120311930.771 7                  22483145.319
        45.750
 195146964.515 7                  37135232.609
        47.500
 132973938.902 6                  25304100.826
        38.750
 109770365.523 8  85535407.28948  20888593.279    20888592.832    20888594.277
        48.750          53.000
 130243241.451 7                  24784440.359
        47.000
 105669322.619 8                  19781514.873
        52.250
 110899998.278 8  86415601.04846  21103558.837    21103558.659    21103557.859
        48.000          40.750
 21 10 21  0 51  0.0000000  0 26G31G16E07G32G04S25G08G29E30R13E02E03
                                S23R23G27S48R24R22E11R21S36E08G26E25
                                R12G18
 108039585.288 8  84186700.89549  20559241.444    20559241.127    20559239.356
        50.000          55.000
 118896351.997 7  92646504.59744  22625218.100    22625217.264    22625215.574
        42.750          29.000
 150601290.734 5                  28658474.430
        34.250
 131575047.291 5 102526037.04945  25037897.757    25037897.650    25037900.885
        34.000          34.750
 129353014.085 6 100794555.85843  24615059.788    24615059.507    24615059.976
        39.000          23.000
 183148465.922 7                  34851859.926
        46.750
 133399979.015 5 103948045.42443  25385170.446    25385169.825    25385174.173
        34.000          20.750
 126056869.650 6  98226186.30546  23987801.345    23987800.858    23987799.004
        40.750          39.000
 138605658.319 6                  26375778.698
        39.000
 121592458.186 5                  22770362.073
        33.500
 126114645.618 8                  23998803.461
        48.000
 145649553.247 6                  27716185.806
        36.000
 204008013.857 7                  38821420.072
        43.500
 112363211.872 8                  21005109.507
        50.750
 119202803.811 7  92885327.84745  22683530.595    22683530.090    22683531.714
        43.750          34.500
  30872158.430 7                   5874707.982
        43.500
 132366677.28816                  24753233.726
        38.750
 103142096.253 7                  19321982.373
        42.500
 126821312.609 6                  24133265.897
        40.500
 120430453.699 7                  22505293.736
        45.000
 195146973.586 7                  37135234.519
        47.250
 133022194.869 6                  25313283.794
        39.000
 109743928.312 8  85514806.86348  20883562.439    20883561.992    20883563.514
        48.500          53.000
 130263617.163 7                  24788317.635
        46.750
 105621813.071 8                  19772620.887
        52.250
 110894429.391 7  86411261.66346  21102498.957    21102498.783    21102498.031
        47.750          40.500
 21 10 21  0 51 30.0000000  0 26G31G16E07G32G04S25G08G29E30R13E02E03
                                S23R23G27S48R24R22E11R21S36E08G26E25
                                R12G18
 108074671.149 8  84214040.52249  20565918.176    20565917.859    20565916.057
        50.250          55.250
 118838074.687 7  92601093.70544  22614128.627    22614127.778    22614126.348
        43.000          29.500
 150599738.975 5                  28658178.326
        35.000
 131659977.672 6 102592216.34446  25054060.345    25054060.225    25054063.596
        38.500          36.000
 129331326.077 6 100777656.09943  24610933.578    24610933.310    24610932.579
        38.750          22.250
 183144880.443 7                  34851076.417
        46.250
 133311640.715 5 103879210.04542  25368359.772    25368359.138    25368363.877
        32.250          16.250
 126149550.465 6  98298405.11046  24005437.867    24005437.385    24005435.553
        41.000          39.250
 138548210.135 6                  26364846.721
        37.750
 121489907.436 5                  22751157.353
        34.500
 126084687.285 8                  23993102.556
        48.250
 145717743.948 6                  27729162.501
        37.500
 204007899.641 7                  38821397.616
        43.250
 112261974.821 8                  20986184.041
        50.500
 119130055.977 7  92828641.24445  22669687.340    22669686.831    22669688.179
        44.000          35.000
  30872769.540 7                   5874732.192
        43.500


 103182460.268 7                  19329544.578
        42.000
 126879321.364 6                  24144304.646
        40.250
 120549177.218 7                  22527480.533
        44.750
 195146980.138 7                  37135234.514
        47.250
 133070636.680 6                  25322501.593
        39.000
 109717634.597 8  85494318.25248  20878559.075    20878558.619    20878559.988
        48.500          53.250
 130284119.497 7                  24792219.114
        46.750
 105574636.338 8                  19763789.615
        52.250
 110889433.812 7  86407369.00746  21101548.232    21101548.054    21101547.377
        47.750          40.750
 21 10 21  0 52  0.0000000  0 25G31G16E07G32G04S25G08G29E30R13E02E03
                                S23R23G27S48R22E11R21S36E08G26E25R12
                                G18
 108110257.146 8  84241769.86549  20572689.866    20572689.549    20572687.859
        50.250          55.000
 118779861.301 7  92555732.62445  22603051.192    22603050.347    22603047.858
        44.250          30.250
 150598548.302 5                  28657951.911
        34.250
 131744708.222 6 102658240.31545  25070183.857    25070183.697    25070187.301
        38.000          30.000
 129310131.978 6 100761141.21143  24606899.735    24606899.494    24606898.898
        37.500          21.500
 183139692.985 7                  34850293.065
        46.250
 133223469.529 6 103810505.42443  25351581.854    25351581.318    25351585.254
        37.500          18.750
 126242225.905 6  98370619.72946  24023073.737    24023073.268    24023071.499
        40.750          38.500
 138490696.331 6                  26353901.822
        37.250
 121387314.571 6                  22731945.431
        36.000
 126054786.321 8                  23987412.673
        48.000
 145785829.524 6                  27742118.649
        37.500
 204007792.309 7                  38821377.565
        43.250
 112161238.178 8                  20967353.105
        50.750
 119057619.613 7  92772197.34745  22655903.018    22655902.509    22655903.928
        44.250          34.750
  30873388.139 7                   5874756.718
        43.500
 103223553.109 7                  19337241.622
        42.250
 126937642.058 6                  24155402.573
        39.750
 120668111.684 7                  22549706.527
        45.500
 195146988.433 7                  37135237.483
        47.250
 133119276.749 6                  25331757.616
        38.750
 109691499.543 8  85473953.26948  20873585.655    20873585.186    20873586.609
        49.000          53.000
 130304763.541 7                  24796147.502
        46.750
 105527809.871 8                  19755023.448
        52.500
 110885026.214 8  86403934.52946  21100709.619    21100709.450    21100708.841
        48.000          40.500
 21 10 21  0 52 30.0000000  0 25G31G16E07G32G04S25G08G29E30R13E02E03
                                S23R23G27S48R22E11R21S36E08G26E25R12
                                G18
 108146330.368 8  84269878.86849  20579554.364    20579554.047    20579552.404
        50.000          54.750
 118721699.742 7  92510411.92045  22591983.467    22591982.618    22591980.239
        44.250          31.250
 150597706.029 5                  28657791.668
        35.250
 131829224.243 6 102724097.17445  25086265.182    25086264.981    25086268.476
        39.750          32.250
 129289419.573 6 100745001.67643  24602959.030    24602958.785    24602957.834
        37.750          21.750
 183136089.736 7                  34849508.317
        46.250
 133135454.427 6 103741922.12643  25334833.427    25334832.913    25334836.058
        38.000          22.000
 126334882.429 6  98442819.60146  24040705.185    24040704.707    24040704.014
        40.250          38.750
 138433104.990 6                  26342942.613
        37.500
 121284670.404 5                  22712722.845
        35.250
 126024931.464 8                  23981731.447
        48.250
 145853796.066 5                  27755051.300
        34.750
 204007680.032 7                  38821357.143
        43.250
 112060992.527 8                  20948612.667
        50.250
 118985483.030 7  92715987.05045  22642175.892    22642175.374    22642176.704
        44.250          34.750
  30872401.011 7                   5874780.597
        43.500
 103265359.346 7                  19345074.002
        42.500
 126996260.922 6                  24166557.526
        40.250
 120787240.918 7                  22571968.390
        44.500
 195146993.761 7                  37135238.033
        47.000
 133168100.940 6                  25341048.427
        39.250
 109665511.844 8  85453703.11348  20868640.353    20868639.875    20868641.611
        48.750          53.250
 130325537.930 7                  24800100.855
        47.000
 105481324.258 8                  19746321.150
        52.250
 110881194.880 7  86400949.07946  21099980.648    21099980.479    21099979.551
        47.750          40.250
 21 10 21  0 53  0.0000000  0 25G31G16E07G32G04S25G08G29E30R13E02E03
                                S23R23G27S48R22E11R21S36E08G26E25R12
                                G18
 108182899.129 8  84298374.00749  20586513.191    20586512.874    20586511.206
        50.000          54.750
 118663599.148 7  92465138.73645  22580927.074    22580926.225    22580924.872
        44.500          32.000
 150597220.573 5                  28657698.739
        34.000
 131913532.620 6 102789792.49845  25102309.199    25102309.021    25102311.214
        37.500          30.750
 129269197.771 6 100729244.41043  24599110.309    24599110.086    24599109.462
        37.500          20.750
 183132493.287 7                  34848722.881
        46.500
                                  25318115.303
        31.000
 126427527.122 6  98515010.25446  24058335.176    24058334.698    24058333.829
        40.500          39.250
 138375445.127 6                  26331970.048
        37.250
 121181985.631 5                  22693493.912
        34.750
 125995132.467 8                  23976060.921
        48.250
 145921650.567 6                  27767964.652
        36.750
 204007572.523 7                  38821336.252
        43.250
 111961250.089 8                  20929966.570
        50.250
 118913655.541 7  92660017.60145  22628507.522    22628506.999    22628508.224
        44.500          34.750
  30873014.351 7                   5874805.723
        43.500
 103307885.017 7                  19353039.806
        42.250
 127055185.165 6                  24177770.613
        40.000
 120906569.782 7                  22594268.582
        44.250
 195147001.426 7                  37135240.014
        47.250
 133217116.233 6                  25350376.124
        38.500
 109639681.267 8  85433575.38548  20863724.967    20863724.489    20863726.381
        49.000          53.250
 130346452.358 7                  24804080.706
        47.000
 105435191.559 8                  19737684.696
        52.500
 110877949.129 7  86398419.92546  21099363.020    21099362.842    21099361.841
        47.750          40.250
 21 10 21  0 53 30.0000000  0 25G31G16E07G32G04S25G08G29E30R13E02E03
                                S23R23G27S48R22E11R21S36E08G26E25R12
                                G18
 108219957.601 8  84327250.74049  20593565.209    20593564.892    20593563.241
        50.250          54.750
 118605554.782 7  92419909.36945  22569881.142    22569880.297    22569879.419
        44.250          32.000
 150597086.377 5                  28657673.935
        32.750
 131997625.361 6 102855319.81745  25118311.340    25118311.162    25118313.599
        39.250          35.000
 129249461.373 6 100713865.38043  24595354.342    24595354.119    24595354.300
        36.250          21.000
 183127292.443 7                  34847935.567
        46.250
 132959910.52416 103605147.47853  25301428.811    25301428.637    25301432.743
        36.000          20.500
 126520153.202 6  98587186.40746  24075960.944    24075960.457    24075959.838
        40.000          38.750
 138317711.936 6                  26320983.992
        37.500
 121079257.767 5                  22674252.978
        32.750
 125965385.114 8                  23970400.096
        48.000
 145989386.406 6                  27780854.182
        36.500
 204007462.795 7                  38821314.868
        43.500
 111862008.323 8                  20911415.133
        50.250
 118842132.539 7  92604285.40745  22614897.018    22614896.486    22614897.763
        44.250          34.500
  30873625.467 7                   5874828.958
        43.750
 103351122.079 7                  19361139.985
        42.000
 127114408.073 6                  24189039.814
        40.000
 121026089.342 7                  22616603.756
        45.000
 195147008.250 7                  37135241.195
        47.250
 133266315.621 6                  25359738.475
        38.500
 109614003.577 8  85413566.79548  20858838.664    20858838.186    20858839.846
        49.250          53.000
 130367502.549 7                  24808086.660
        46.500
 105389409.565 8                  19729114.603
        52.750
 110875284.232 7  86396343.38146  21098856.029    21098855.851    21098854.727
        47.500          40.000
 21 10 21  0 54  0.0000000  0 25G31G16E07G32G04S25G08G29E30R13E02E03
                                S23R23G27S48R22E11R21S36E08G26E25R12
                                G18
 108257507.069 8  84356510.06249  20600710.612    20600710.291    20600708.692
        50.000          55.000
 118547568.858 7  92374725.54345  22558846.788    22558845.943    22558845.570
        44.000          31.750
 150597305.089 5                  28657714.827
        32.750
 132081502.366 6 102920678.73745  25134272.754    25134272.585    25134274.716
        38.250          33.250
 129230212.245 6 100698866.05643  24591691.525    24591691.329    24591691.183
        36.500          21.000
 183123682.796 7                  34847147.269
        46.750
 132872386.296 5 103536946.89242  25284774.056    25284773.600    25284776.620
        34.250          16.250
 126612760.977 6  98659348.27746  24093584.087    24093583.600    24093581.970
        38.750          36.750
 138259907.455 6                  26309984.315
        38.250
 120976490.524 5                  22655010.545
        32.750
 125935692.237 8                  23964749.855
        48.000
 146057003.776 5                  27793721.201
        34.250
 204007351.805 7                  38821294.965
        43.250
 111763272.612 8                  20892957.008
        50.500
 118770916.397 7  92548792.32945  22601345.309    22601344.773    22601345.729
        44.750          34.750
  30872633.892 7                   5874853.999
        43.500
 103395069.454 7                  19369373.013
        42.250
 127173929.943 6                  24200366.874
        40.250
 121145797.606 7                  22638973.427
        44.500
 195147014.895 7                  37135242.415
        47.000
 133315699.094 6                  25369135.644
        39.000
 109588481.603 8  85393679.53948  20853982.025    20853981.543    20853982.948
        48.750          53.250
 130388691.262 7                  24812118.469
        46.750
 105343983.226 8                  19720610.692
        52.500
 110873202.474 7  86394721.24046  21098459.626    21098459.448    21098458.618
        47.750          40.500
 21 10 21  0 54 30.0000000  0 26G31G16E07G32G04S25G08G29E30R13E02R24
                                E03S23R23G27S48R22E11R21S36E08G26E25
                                R12G18
 108295546.191 8  84386150.93649  20607949.322    20607949.005    20607947.257
        49.750          55.000
 118489640.825 7  92329586.81945  22547823.740    22547822.891    22547821.066
        43.250          30.750
 150597875.306 5                  28657824.224
        32.500
 132165160.478 6 102985866.88945  25150191.695    25150191.494    25150194.068
        37.000          33.000
 129211449.499 6 100684245.74643  24588121.261    24588121.069    24588120.677
        37.250          21.250
 183120072.031 7                  34846355.340
        47.500
 132785026.173 5 103468874.15443  25268149.496    25268148.973    25268152.656
        34.750          20.000
 126705348.216 6  98731494.17046  24111202.792    24111202.305    24111200.606
        37.750          37.750
 138202031.290 6                  26298970.972
        39.000
 120873685.416 5                  22635758.850
        35.500
 125906053.978 8                  23959109.881
        48.000
 131475503.46017                  24586583.252
        47.500
 146124500.129 5                  27806565.518
        35.250
 204007240.661 7                  38821273.363
        43.750
 111665044.668 8                  20874594.343
        50.750
 118700006.777 7  92493538.09845  22587851.234    22587850.684    22587851.955
        44.000          34.500
  30873244.596 7                   5874876.714
        44.000
 103439723.333 7                  19377737.812
        42.000
 127233748.289 6                  24211749.671
        39.750
 121265689.783 7                  22661377.901
        44.750
 195147027.088 7                  37135243.350
        47.750
 133365264.019 6                  25378567.344
        38.750
 109563115.490 8  85373913.73148  20849154.994    20849154.507    20849155.872
        48.750          53.000
 130410018.519 7                  24816177.026
        46.750
 105298914.885 8                  19712173.764
        52.500
 110871703.479 7  86393553.19246  21098174.681    21098174.498    21098173.364
        47.750          40.250
 21 10 21  0 55  0.0000000  0 26G31G16E07G32G04S25G08G29E30R13E02R24
                                E03S23R23G27S48R22E11R21S36E08G26E25
                                R12G18
 108334072.467 8  84416171.40749  20615280.612    20615280.295    20615278.580
        49.750          54.750
 118431769.156 7  92284492.01945  22536810.809    22536809.964    22536808.251
        43.500          31.750
 150598794.897 5                  28657998.914
        33.000
 132248596.342 5 103050881.78745  25166069.387    25166069.182    25166071.650
        30.750          31.500
 129193171.285 6 100670002.96743  24584642.818    24584642.653    24584642.175
        37.000          22.000
 183114852.900 7                  34845562.674
        47.250
 132697828.871 5 103400928.23842  25251555.238    25251554.653    25251559.757
        32.000          12.750
 126797911.867 6  98803621.65046  24128816.754    24128816.276    24128815.029
        39.000          37.000
 138144081.843 6                  26287943.755
        39.500
 120770843.009 6                  22616500.130
        36.000
 125876469.581 8                  23953480.074
        48.250
 131348522.192 6                  24562836.050
        41.000
 146191872.030 6                  27819386.402
        38.000
 204007126.216 7                  38821252.315
        43.500
 111567325.783 8                  20856326.784
        50.500
 118629402.389 7  92438521.72145  22574416.040    22574415.499    22574416.281
        43.250          34.250
  30873851.834 7                   5874900.360
        43.750
 103485078.766 7                  19386234.183
        42.250
 127293859.901 6                  24223188.985
        40.500
 121385760.129 7                  22683816.199
        44.750
 195147030.615 7                  37135246.118
        47.250
 133415006.731 6                  25388033.266
        38.750
 109537904.479 8  85354268.78948  20844357.351    20844356.864    20844358.675
        48.500          53.500
 130431483.467 7                  24820261.604
        47.000
 105254205.883 8                  19703804.001
        52.250
 110870785.816 7  86392838.14046  21097999.759    21097999.576    21097998.524
        47.250          40.250
 21 10 21  0 55 30.0000000  0 26G31G16E07G32G04S25G08G29E30R13E02R24
                                E03S23R23G27S48R22E11R21S36E08G26E25
                                R12G18
 108373096.760 8  84446579.94149  20622706.569    20622706.252    20622704.644
        50.000          54.500
 118373965.788 7  92239450.45045  22525811.101    22525810.261    22525809.312
        43.250          31.750
 150600074.740 5                  28658242.917
        33.250
 132331819.435 6 103115730.86746  25181905.573    25181905.332    25181908.684
        41.000          36.500
 129175388.868 6 100656146.53243  24581259.482    24581259.286    24581258.812
        37.250          22.000
 183111231.093 7                  34844771.326
        46.750
 132610806.890 5 103333119.04842  25234996.358    25234995.822    25235000.158
        34.000          17.500
 126890461.837 6  98875738.47546  24146428.396    24146427.918    24146426.783
        39.250          38.000
 138086070.910 6                  26276904.775
        40.000
 120667977.340 6                  22597236.202
        36.250
 125846951.337 8                  23947863.014
        48.000
                                  24539114.260
        32.750
 146259129.229 6                  27832183.812
        37.000
 204007021.777 7                  38821233.279
        43.500
 111470130.558 8                  20838157.439
        50.500
 118559115.095 7  92383752.43245  22561040.337    22561039.792    22561041.112
        43.500          34.000
  30874468.102 7                   5874925.956
        43.500
 103531144.423 7                  19394863.926
        42.000
 127354274.468 6                  24234685.594
        40.500
 121506016.555 7                  22706288.464
        45.000
 195147041.930 7                  37135248.318
        47.250
 133464936.702 6                  25397534.967
        38.500
 109512860.877 8  85334754.29248  20839591.913    20839591.422    20839593.231
        48.750          53.250
 130453098.320 7                  24824374.650
        46.500
 105209870.436 8                  19695504.326
        52.000
 110870461.213 7  86392585.20546  21097937.943    21097937.756    21097936.744
        47.750          40.250
 21 10 21  0 56  0.0000000  0 26G31G16E07G32G04S25G08G29E30R13E02R24
                                E03S23R23G27S48R22E11R21S36E08G26E25
                                R12G18
 108412602.153 8  84477363.35649  20630224.323    20630224.002    20630222.215
        50.000          54.500
 118316214.718 7  92194449.61945  22514821.752    22514820.907    22514819.986
        43.500          31.750
 150601698.094 5                  28658551.304
        31.750
                                  25197698.941
        34.000
 129158085.893 6 100642663.70743  24577966.966    24577966.788    24577966.303
        37.500          21.750
 183107600.806 7                  34843976.960
        46.750
 132523944.398 6 103265433.91743  25218467.422    25218466.926    25218470.036
        39.250          22.750
 126982980.346 6  98947830.82246  24164034.297    24164033.837    24164032.424
        38.750          36.250
 138027982.390 6                  26265850.811
        39.500
 120565074.156 5                  22577965.106
        35.500
 125817483.975 8                  23942255.508
        48.000
 131094871.92016                  24515397.039
        36.500
 146326253.869 6                  27844957.196
        36.000
 204006910.440 7                  38821211.583
        43.500
 111373445.217 8                  20820083.118
        50.750
 118489128.982 7  92329217.83045  22547722.721    22547722.194    22547723.010
        43.500          34.000
  30873473.305 7                   5874948.614
        43.750
 103577900.806 7                  19403623.173
        42.000
 127414974.061 6                  24246236.273
        39.750
 121626438.434 7                  22728792.703
        44.250
 195147044.498 7                  37135248.761
        47.250
 133515035.775 6                  25407068.131
        38.500
 109487969.425 8  85315358.35448  20834855.019    20834854.528    20834856.366
        48.500          53.000
 130474847.680 7                  24828513.747
        46.500
 105165895.387 8                  19687272.170
        52.500
 110870713.685 7  86392781.94346  21097985.980    21097985.806    21097984.841
        47.500          40.250
 21 10 21  0 56 30.0000000  0 26G31G16E07G32G04S25G08G29E30R13E02R24
                                E03S23R23G27S48R22E11R21S36E08G26E25
                                R12G18
 108452590.139 8  84508522.81849  20637833.765    20637833.444    20637831.656
        49.750          54.750
 118258518.661 7  92149491.66445  22503842.397    22503841.552    22503840.530
        43.250          31.750
 150603666.965 5                  28658926.277
        34.750
 132497561.917 6 103244865.04154  25213448.533    25213448.288    25213450.110
        36.500          25.500
 129141264.690 6 100629556.27243  24574766.011    24574765.801    24574765.095
        36.250          21.750
 183102361.912 7                  34843180.542
        46.750
 132437244.806 6 103197875.95242  25201967.688    25201967.197    25201971.525
        38.500          13.750
 127075468.243 6  99019899.28646  24181634.064    24181633.595    24181632.391
        40.000          39.250
 137969819.170 6                  26254782.916
        40.250
 120462138.159 5                  22558687.997
        33.500
 125788070.953 8                  23936658.341
        48.000
 130968163.327 7                  24491702.018
        45.000
 146393246.659 6                  27857706.386
        39.250
 204006794.467 7                  38821189.502
        43.500
 111277275.320 8                  20802104.938
        51.000
 118419447.041 7  92274920.24745  22534462.414    22534461.864    22534462.874
        43.750          34.000
  30874072.497 7                   5874973.306
        43.500
 103625347.459 6                  19412511.702
        41.750
 127475959.617 6                  24257841.083
        39.500
 121747024.860 7                  22751327.256
        44.750
 195147051.395 7                  37135249.834
        47.250
 133565304.612 6                  25416634.165
        37.750
 109463233.505 8  85296083.61148  20830148.018    20830147.522    20830149.080
        48.500          53.250
 130496734.876 7                  24832678.541
        47.000
 105122286.054 8                  19679108.334
        52.250
 110871546.018 7  86393430.52346  21098144.490    21098144.316    21098143.423
        47.750          40.500
 21 10 21  0 57  0.0000000  0 26G31G16E07G32G04S25G08G29E30R13E02R24
                                E03S23R23G27S48R22E11R21S36E08G26E25
                                R12G18
 108493072.729 8  84540067.68349  20645537.311    20645536.990    20645535.327
        50.000          54.500
 118200890.347 7  92104586.50445  22492876.446    22492875.592    22492873.849
        43.750          31.000
 150605993.187 5                  28659368.455
        32.250
 132580103.168 6 103309182.88945  25229155.031    25229154.799    25229157.485
        39.500          33.250
 129124937.433 6 100616833.73743  24571658.733    24571658.505    24571658.297
        36.750          21.000
 183098729.139 7                  34842387.370
        46.500
 132350721.427 5 103130455.21643  25185502.131    25185501.626    25185507.328
        32.750          20.000
 127167936.418 6  99091952.36345  24199230.516    24199230.056    24199228.512
        38.250          35.750
 137911593.797 6                  26243702.711
        40.500
 120359184.743 5                  22539409.093
        33.250
 125758725.542 8                  23931074.067
        48.000
 130841560.378 7                  24468026.713
        44.750
 146460118.282 6                  27870431.278
        37.500
 204006685.712 7                  38821168.937
        43.250
 111181636.271 8                  20784226.173
        51.250
 118350081.951 7  92220869.55545  22521262.520    22521261.966    22521263.150
        44.000          34.000
  30874678.654 7                   5874997.104
        43.500
 103673493.584 6                  19421530.599
        41.500
 127537241.751 6                  24269502.829
        39.750
 121867784.121 7                  22773893.987
        44.500
 195147068.586 7                  37135251.994
        47.250
 133615753.539 6                  25426234.402
        38.000
 109438666.474 8  85276940.46948  20825473.159    20825472.654    20825474.137
        49.000          53.000
 130518773.073 7                  24836872.186
        46.500
 105079058.076 8                  19671015.939
        52.500
 110872970.765 7  86394540.72246  21098415.825    21098415.651    21098414.515
        47.500          40.250
 21 10 21  0 57 30.0000000  0 26G31G16E07G32G04S25G08G29E30R13E02R24
                                E03S23R23G27S48R22E11R21S36E08G26E25
                                R12G18
 108534036.039 8  84571987.14049  20653332.216    20653331.899    20653330.425
        49.750          55.000
 118143317.112 7  92059724.23745  22481920.727    22481919.873    22481918.230
        43.750          31.500
 150608663.463 5                  28659876.455
        34.000
 132662406.14916 103373315.30355  25244816.984    25244816.363    25244819.329
        39.250          31.750
 129109091.127 6 100604485.97443  24568643.904    24568643.681    24568643.055
        37.750          22.000
 183095082.255 7                  34841590.590
        47.000
 132264362.059 5 103063162.23243  25169069.764    25169069.273    25169072.438
        34.750          18.500
 127260370.753 6  99163979.12946  24216820.438    24216819.978    24216817.992
        39.500          38.500
 137853293.797 6                  26232608.752
        39.500
 120256202.294 5                  22520124.750
        35.000
 125729435.898 7                  23925500.519
        47.750
 130714992.33117                  24444369.268
        45.000
 146526854.304 6                  27883130.009
        36.250
 204006572.620 7                  38821146.959
        43.250
 111086517.650 8                  20766444.768
        51.250
 118281021.304 7  92167056.09445  22508121.096    22508120.551    22508121.239
        44.000          34.250
  30873680.376 7                   5875019.802
        43.500
 103722322.994 7                  19430677.923
        42.000
 127598805.996 6                  24281218.142
        39.750
 121988699.361 7                  22796489.928
        44.000
 195147071.674 7                  37135252.570
        47.250
 133666367.896 6                  25435865.949
        37.500
 109414256.447 8  85257919.66948  20820827.920    20820827.420    20820829.194
        48.750          53.750
 130540950.322 7                  24841092.415
        46.250
 105036201.513 8                  19662992.990
        52.000
 110874975.308 7  86396102.70946  21098797.104    21098796.935    21098795.779
        47.500          40.500
 21 10 21  0 58  0.0000000  0 26G31G16E07G32G04S25G08G29E30R13E02R24
                                E03S23R23G27S48R22E11R21S36E08G26E25
                                R12G18
 108575490.635 8  84604289.41549  20661220.773    20661220.456    20661218.909
        50.000          54.500
 118085810.684 7  92014914.02745  22470977.414    22470976.560    22470974.520
        44.500          31.250
 150611688.340 5                  28660452.939
        34.000
 132744499.70716 103437278.31256  25260437.537    25260436.867    25260439.892
        41.750          36.000
 129093736.668 6 100592521.43743  24565721.051    24565720.823    24565720.375
        37.000          21.500
 183089836.857 7                  34840795.642
        46.750
 132178178.800 6 102996006.62043  25152669.339    25152668.870    25152672.762
        39.500          21.000
 127352780.931 6  99235986.99346  24234405.117    24234404.639    24234403.216
        39.250          37.750
 137794930.601 6                  26221502.908
        39.500
 120153205.542 6                  22500835.776
        36.000
 125700214.173 8                  23919939.893
        48.000
 130588592.960 6                  24420730.986
        41.750
 146593464.118 6                  27895806.135
        38.750
 204006465.190 7                  38821126.752
        43.500
 110991933.921 8                  20748763.304
        51.250
 118212276.635 7  92113488.83545  22495039.435    22495038.890    22495039.458
        44.250          34.500
  30874286.157 7                   5875044.660
        43.750
 103771843.751 7                  19439955.130
        42.000
 127660661.904 6                  24292988.926
        39.750
 122109778.412 7                  22819116.380
        44.750
 195147080.219 7                  37135254.829
        47.500
 133717156.923 6                  25445530.463
        37.750
 109390015.578 8  85239030.68248  20816215.002    20816214.497    20816216.318
        49.000          53.750
 130563278.600 7                  24845341.366
        46.500
 104993730.809 8                  19655042.651
        52.250
 110877571.015 7  86398125.34746  21099290.895    21099290.730    21099289.795
        47.750          40.500
 21 10 21  0 58 30.0000000  0 26G31G16E07G32G04S25G08G29E30R13E02R24
                                E03S23R23G27S48R22E11R21S36E08G26E25
                                R12G18
 108617421.988 8  84636963.19349  20669200.156    20669199.839    20669198.139
        49.500          54.750
 118028357.927 7  91970145.63945  22460044.482    22460043.633    22460041.649
        44.250          31.250
 150615053.745 5                  28661092.717
        35.000
                                  25276011.124    25276010.400    25276012.662
        43.750          31.500
 129078860.156 6 100580929.36743  24562890.440    24562890.212    24562889.534
        36.250          21.250
 183086188.687 7                  34839996.425
        46.750
 132092158.321 6 102928977.64743  25136300.643    25136300.196    25136303.811
        36.750          20.250
 127445151.782 6  99307964.29646  24251982.837    24251982.355    24251980.757
        40.500          38.500
 137736490.949 6                  26210381.332
        39.500
 120050182.366 6                  22481543.184
        36.500
 125671047.731 8                  23914389.541
        48.250
 130462321.85217                  24397112.412
        44.500
 146659932.589 6                  27908454.900
        38.500
 204006351.292 7                  38821106.142
        43.500
 110897873.933 8                  20731179.808
        51.500
 118143834.700 7  92060157.46945  22482015.245    22482014.695    22482015.352
        43.750          34.250
  30874880.851 7                   5875067.925
        43.500
 103822038.870 7                  19449358.462
        42.250
 127722794.213 6                  24304812.290
        39.500
 122231003.426 7                  22841769.819
        44.000
 195147081.808 7                  37135256.532
        47.250
 133768105.052 6                  25455225.707
        38.500
 109365931.241 8  85220263.66848  20811632.149    20811631.644    20811633.294
        48.500          53.750
 130585745.145 7                  24849616.660
        46.750
 104951635.004 8                  19647162.404
        52.750
 110880744.432 7  86400598.14046  21099895.041    21099894.876    21099893.674
        47.250          40.500
 21 10 21  0 59  0.0000000  0 26G31G16E07G32G04S25G08G29E30R13E02R24
                                E03S23R23G27S48R22E11R21S36E08G26E25
                                R12G18
 108659838.651 8  84670015.13749  20677271.726    20677271.405    20677269.762
        49.750          54.500
 117970968.460 7  91925426.57245  22449123.524    22449122.675    22449121.070
        44.250          31.500
 150618768.419 5                  28661799.685
        33.750
 132907934.727 5 103564633.34545  25291538.709    25291538.057    25291541.855
        31.000          30.000
 129064470.704 6 100569716.81043  24560151.932    24560151.749    24560151.417
        37.750          22.250
 183082536.156 7                  34839196.778
        46.750
 132006311.549 5 102862084.16642  25119962.591    25119962.167    25119967.418
        35.250          16.250
 127537491.506 6  99379917.29046  24269554.331    24269553.844    24269552.763
        38.750          38.750
 137677984.475 6                  26199247.866
        38.500
 119947144.460 6                  22462247.462
        36.000
 125641946.888 8                  23908851.861
        48.000
 130336133.578 7                  24373513.378
        42.250
 146726267.378 6                  27921076.881
        37.750
 204006238.213 7                  38821084.052
        43.500
 110804349.898 8                  20713696.516
        51.500
 118075705.247 7  92007069.60545  22469050.633    22469050.083    22469050.978
        44.000          34.250
  30873878.280 7                   5875090.494
        43.500
 103872914.721 6                  19458889.593
        41.500
 127785210.593 6                  24316690.077
        39.250
 122352380.249 7                  22864452.032
        44.000
 195147089.104 7                  37135258.133
        47.250
 133819219.773 6                  25464952.739
        38.000
 109342013.763 8  85201626.66948  20807080.762    20807080.257    20807081.897
        49.000          53.250
 130608360.126 7                  24853920.090
        46.500
 104909926.629 8                  19639354.247
        52.500
 110884505.040 7  86403528.49146  21100610.352    21100610.178    21100609.353
        47.750          40.000
 21 10 21  0 59 30.0000000  0 26G31G16E07G32G04S25G08G29E30R13E02R24
                                E03S23R23G27S48R22E11R21S36E08G26E25
                                R12G18
 108702734.704 8  84703440.63149  20685434.559    20685434.238    20685432.660
        50.000          54.500
 117913637.716 7  91880753.27445  22438213.959    22438213.114    22438211.366
        44.500          31.750
 150622826.717 5                  28662572.192
        34.500
                                  25307021.817
        24.750
 129050562.981 6 100558879.62443  24557506.146    24557505.914    24557504.918
        38.250          21.250
 183077273.721 7                  34838395.137
        47.250
 131920633.455 5 102795322.05843  25103659.973    25103659.571    25103663.855
        35.500          21.000
 127629793.497 6  99451840.85446  24287118.907    24287118.416    24287117.439
        40.750          40.000
 137619406.505 6                  26188101.226
        38.250
 119844090.053 5                  22442948.065
        35.000
 125612907.588 8                  23903325.893
        48.500
 130210056.03116                  24349934.329
        41.500
 146792461.836 6                  27933673.527
        37.000
 204006122.658 7                  38821062.418
        43.500
 110711359.530 8                  20696312.844
        51.500
 118007883.561 7  91954221.56845  22456144.225    22456143.671    22456145.156
        44.750          34.750
  30874474.051 7                   5875112.990
        43.750
 103924462.717 7                  19468545.403
        42.000
 127847904.378 6                  24328620.075
        40.000
 122473899.950 7                  22887161.665
        44.000
 195147095.036 7                  37135259.676
        47.500
 133870494.061 6                  25474709.826
        39.250
 109318259.074 8  85183116.51848  20802560.230    20802559.721    20802561.440
        49.250          53.500
 130631119.331 7                  24858251.023
        47.000
 104868603.598 8                  19631618.505
        52.500
 110888847.881 7  86406912.52846  21101437.101    21101436.923    21101435.915
        47.750          40.250
 21 10 21  1  0  0.0000000  0 26G31G16E07G32G04S25G08G29E30R13E02R24
                                E03S23R23G27S48R22E11R21S36E08G26E25
                                R12G18
 108746115.419 8  84737243.78549  20693689.702    20693689.381    20693687.714
        49.750          54.250
 117856371.881 7  91836130.55645  22427316.352    22427315.512    22427314.438
        44.500          32.000
 150627234.080 5                  28663410.441
        34.500
                                  25322459.924    25322459.848    25322462.745
        41.000          35.250
 129037142.692 6 100548422.25843  24554951.963    24554951.731    24554951.367
        36.750          21.000
 183073609.802 7                  34837593.330
        47.000
 131835130.942 6 102728696.83642  25087390.474    25087390.041    25087391.925
        37.250          17.000
 127722062.056 6  99523738.43746  24304677.131    24304676.631    24304675.560
        40.250          38.000
 137560763.345 6                  26176941.696
        38.750
 119741027.444 5                  22423648.230
        35.000
 125583936.856 8                  23897812.851
        48.500
 130084090.528 6                  24326378.442
        40.250
 146858520.265 6                  27946244.615
        39.250
 204006009.485 7                  38821040.458
        43.500
 110618911.613 8                  20679030.551
        51.000
 117940376.013 7  91901618.31145  22443298.341    22443297.783    22443298.958
        44.000          34.750
  30875067.532 7                   5875136.185
        43.750
 103976685.813 7                  19478329.074
        42.000
 127910879.834 6                  24340603.721
        39.750
 122595564.836 7                  22909897.118
        44.000
 195147109.504 7                  37135259.282
        47.500
 133921932.040 6                  25484498.331
        38.500
 109294674.222 8  85164738.70848  20798072.376    20798071.867    20798073.362
        49.000          53.500
 130654029.624 7                  24862610.731
        47.000
 104827674.763 8                  19623956.679
        52.750
 110893779.066 7  86410755.00946  21102375.642    21102375.459    21102374.186
        47.500          40.000
 21 10 21  1  0 30.0000000  0 26G31G16E07G32G04S25G08G29E30R13E02R24
                                E03S23R23G27S48R22E11R21S36E08G26E25
                                R12G18
 108789975.964 8  84771420.83049  20702036.059    20702035.738    20702034.136
        49.500          54.250
 117799167.168 7  91791555.45245  22416430.619    22416429.783    22416428.541
        44.250          31.750
 150631985.689 5                  28664315.495
        31.250
 133151305.108 5 103754277.88144  25337850.639    25337850.385    25337853.542
        34.500          29.250
 129024205.292 6 100538341.16843  24552489.552    24552489.320    24552490.401
        36.750          21.250
 183069932.940 7                  34836792.503
        47.000
 131749800.785 6 102662205.92343  25071152.457    25071152.010    25071155.329
        37.500          21.000
 127814292.210 6  99595606.07346  24322227.722    24322227.222    24322226.393
        38.000          36.750
 137502051.213 6                  26165769.290
        38.750
 119637954.619 5                  22404344.599
        33.500
 125555031.503 8                  23892312.404
        48.250


 146924436.804 6                  27958787.598
        37.250
 204005896.846 7                  38821018.784
        43.250
 110527004.584 8                  20661849.437
        51.500
 117873178.706 7  91849256.78945  22430510.871    22430510.321    22430511.772
        44.000          34.750
  30875662.780 7                   5875159.191
        43.500
 104029576.371 7                  19488237.112
        42.000
 127974131.147 6                  24352640.124
        39.500
 122717366.817 7                  22932659.271
        43.750
 195147117.429 7                  37135261.236
        47.250
 133973527.598 6                  25494316.170
        38.750
 109271256.015 8  85146490.75648  20793615.920    20793615.406    20793617.131
        48.750          53.500
 130677087.653 7                  24866998.624
        46.500
 104787139.195 8                  19616368.128
        52.500
 110899294.483 7  86415052.74146  21103424.859    21103424.667    21103423.569
        47.750          40.250
 21 10 21  1  1  0.0000000  0 26G31G16E07G32G04S25G08G29E30R13E02R24
                                E03S23R23G27S48R22E11R21S36E08G26E25
                                R12G18
 108834316.605 8  84805971.97249  20710473.810    20710473.493    20710471.873
        50.000          54.500
 117742025.451 7  91747029.43445  22405557.052    22405556.216    22405554.257
        44.500          32.000
 150637082.414 5                  28665284.456
        34.750
 133231956.31615 103817118.27555  25353197.898    25353197.630    25353200.616
        32.750          35.000
 129011751.776 6 100528637.11843  24550120.223    24550120.018    24550120.186
        37.750          21.500
 183064651.569 7                  34835988.541
        47.250
 131664645.155 5 102595850.90242  25054947.107    25054946.696    25054949.619
        30.250          15.500
 127906483.808 6  99667443.62946  24339771.495    24339770.977    24339769.896
        41.000          40.000
 137443271.752 6                  26154584.375
        39.500
 119534875.572 5                  22385042.366
        33.500
 125526193.891 8                  23886825.017
        48.250
 129832512.194 6                  24279330.096
        38.250
 146990211.291 6                  27971304.155
        38.000
 204005784.372 7                  38820996.918
        43.500
 110435642.646 8                  20644770.568
        52.000
 117806293.279 7  91797138.29345  22417783.044    22417782.494    22417784.027
        44.000          35.000
  30874655.633 7                   5875182.699
        43.750
 104083132.523 7                  19498269.947
        42.000
 128037657.918 6                  24364728.724
        39.250
 122839303.628 7                  22955446.282
        43.750
 195147125.691 7                  37135261.898
        47.500
 134025280.159 6                  25504164.614
        38.000
 109248006.793 8  85128374.47548  20789191.821    20789191.307    20789193.033
        49.000          53.500
 130700295.557 7                  24871414.769
        46.750
 104747001.339 8                  19608854.389
        52.500
 110905395.471 7  86419806.76846  21104585.827    21104585.631    21104584.447
        47.750          40.250
 21 10 21  1  1 30.0000000  0 26G31G16E07G32G04S25G08G29E30R13E02R24
                                E03S23R23G27S48R22E11R21S36E08G26E25
                                R12G18
 108879132.869 8  84840893.73249  20719002.150    20719001.833    20719000.120
        50.000          54.500
 117684943.741 7  91702550.18845  22394694.526    22394693.699    22394691.926
        44.500          32.000
 150642520.272 5                  28666320.485
        32.500
 133312347.763 7 103879761.04346  25368495.911    25368495.549    25368497.491
        44.250          40.500
 128999778.510 6 100519307.30343  24547841.467    24547841.262    24547841.112
        36.250          21.000
 183060965.248 7                  34835182.853
        47.000
 131579660.810 6 102529629.49343  25038774.778    25038774.327    25038778.036
        36.000          19.000
 127998632.259 6  99739247.60046  24357306.946    24357306.428    24357305.198
        41.750          41.500
 137384422.012 6                  26143385.554
        40.000
 119431789.665 5                  22365736.396
        34.500
 125497421.744 8                  23881349.661
        48.500
 129706902.893 7                  24255842.232
        42.500
 147055838.746 5                  27983792.333
        35.250
 204005667.723 7                  38820974.430
        43.500
 110344824.886 8                  20627792.930
        52.000
 117739716.808 7  91745260.54645  22405114.020    22405113.466    22405114.986
        44.250          35.250
  30875243.910 7                   5875204.838
        43.750
 104137347.474 7                  19508426.444
        42.000
 128101455.262 6                  24376868.947
        39.500
 122961368.129 7                  22978257.084
        43.750
 195147126.285 7                  37135263.718
        47.250
 134077184.424 6                  25514041.608
        37.750
 109224924.350 8  85110388.15148  20784799.391    20784798.877    20784800.455
        49.000          53.500
 130723650.887 7                  24875859.056
        46.750
 104707260.634 8                  19601414.891
        52.500
 110912078.721 7  86425014.49846  21105857.653    21105857.452    21105856.355
        47.500          40.250
 21 10 21  1  2  0.0000000  0 26G31G16E07G32G04S25G08G29E30R13E02R24
                                E03S23R23G27S48R22E11R21S36E08G26E25
                                R12G18
 108924429.411 8  84876189.73049  20727621.644    20727621.327    20727619.839
        49.750          54.500
 117627927.757 7  91658122.15145  22383844.832    22383844.001    22383842.920
        44.000          32.500
 150648304.046 5                  28667419.080
        33.500
 133392493.368 5 103942211.85244  25383746.303    25383746.035    25383749.538
        33.250          29.500
 128988290.415 6 100510355.54643  24545655.641    24545655.418    24545655.580
        37.500          22.000
 183057279.320 7                  34834376.753
        47.000
 131494854.845 6 102463547.11143  25022637.101    25022636.628    25022639.888
        37.000          22.000
 128090741.050 7  99811020.67046  24374834.732    24374834.218    24374832.845
        42.000          41.000
 137325507.728 6                  26132174.270
        40.000
 119328704.329 5                  22346434.190
        35.750
 125468721.418 8                  23875888.255
        48.250
 129581421.936 7                  24232379.436
        44.750
 147121323.016 6                  27996254.173
        38.000
 204005553.689 7                  38820952.072
        43.500
 110254559.571 8                  20610919.143
        52.000
 117673454.897 7  91693627.90545  22392504.525    22392503.980    22392505.721
        44.000          35.750
  30875835.327 7                   5875228.729
        43.500
 104192223.222 7                  19518705.891
        42.000
 128165526.837 6                  24389061.410
        39.500
 123083562.355 7                  23001091.851
        43.750
 195147126.093 7                  37135264.738
        47.250
 134129243.832 6                  25523948.573
        37.750
 109202014.976 8  85092536.68748  20780439.851    20780439.337    20780440.945
        48.750          53.750
 130747159.828 7                  24880332.966
        46.750
 104667925.586 8                  19594051.400
        52.500
 110919349.620 8  86430680.14046  21107241.548    21107241.343    21107240.117
        48.000          40.250
 21 10 21  1  2 30.0000000  0 26G31G16E07G32G04S25G08G29E30R13E02R24
                                E03S23R23G27S48R22E11R21S36E08G26E25
                                R12G18
 108970204.605 8  84911858.70849  20736332.580    20736332.263    20736330.591
        49.750          54.250
 117570977.431 7  91613745.28245  22373007.581    22373006.763    22373006.063
        44.500          32.500
 150654432.379 5                  28668586.219
        34.000
 133472391.867 6 104004470.53145  25398950.543    25398950.239    25398952.223
        40.000          33.750
 128977286.422 6 100501781.00443  24543561.914    24543561.695    24543561.130
        38.250          21.250
 183051998.884 7                  34833568.020
        46.500
 131410226.579 6 102397603.19243  25006533.303    25006532.852    25006535.397
        37.250          18.500
 128182808.471 6  99882761.50946  24392354.852    24392354.329    24392352.765
        40.750          38.750
 137266528.621 6                  26120950.724
        40.000
 119225622.021 6                  22327129.333
        36.750
 125440093.243 8                  23870440.408
        48.250
 129456071.853 7                  24208936.662
        43.000
 147186661.809 6                  28008688.148
        37.500
 204005441.988 7                  38820931.105
        43.250
 110164848.470 8                  20594148.449
        51.250
 117607507.159 7  91642240.07945  22379955.103    22379954.567    22379956.171
        45.000          35.500
  30874827.406 7                   5875250.743
        43.250
 104247755.615 7                  19529109.488
        42.000
 128229870.223 6                  24401305.586
        39.250
 123205881.446 7                  23023949.498
        44.250
 195147134.626 7                  37135266.026
        47.000
 134181455.829 6                  25533884.180
        37.750
 109179279.066 8  85074820.38948  20776113.399    20776112.876    20776114.521
        49.000          53.250
 130770822.512 7                  24884835.331
        46.250
 104628998.427 8                  19586764.136
        52.750
 110927207.388 8  86436803.08446  21108736.593    21108736.388    21108734.918
        48.250          39.750
 21 10 21  1  3  0.0000000  0 26G31G16E07G32G04S25G08G29E30R13E02R24
                                E03S23R23G27S48R22E11R21S36E08G26E25
                                R12G18
 109016450.924 8  84947894.79349  20745132.945    20745132.628    20745130.888
        50.250          54.000
 117514086.635 7  91569414.80645  22362181.622    22362180.809    22362180.207
        44.750          32.750
 150660898.010 5                  28669816.299
        33.250
 133552033.357 7 104066528.57146  25414105.691    25414105.450    25414109.383
        42.750          37.500
 128966759.454 6 100493578.16543  24541558.506    24541558.278    24541557.508
        38.000          22.000
 183048304.213 7                  34832759.032
        46.750
 131325769.757 5 102331792.78443  24990460.203    24990459.721    24990464.189
        35.250          19.000
 128274826.733 6  99954464.03545  24409864.648    24409864.130    24409863.447
        39.250          34.750
 137207478.395 6                  26109714.224
        40.000
 119122537.876 6                  22307825.323
        37.500
 125411531.626 8                  23865005.333
        48.250
 129330849.322 7                  24185520.741
        44.000
 147251846.969 5                  28021092.061
        32.750
 204005325.344 7                  38820909.283
        43.250
 110075687.574 8                  20577480.344
        51.250
 117541867.219 7  91591092.09545  22367464.325    22367463.798    22367465.122
        45.000          35.000
  30875414.345 7                   5875272.610
        43.500
 104303934.695 7                  19539633.436
        42.250
 128294477.142 6                  24413599.915
        39.500
 123328315.121 7                  23046829.068
        43.250
 195147142.835 7                  37135268.020
        47.250
 134233811.887 6                  25543847.217
        37.500
 109156710.975 8  85057234.86048  20771818.812    20771818.289    20771819.943
        49.500          53.250
 130794633.157 7                  24889366.681
        46.500
 104590475.443 8                  19579552.556
        52.500
 110935645.308 8  86443378.09246  21110342.170    21110341.960    21110340.494
        48.000          39.500
 21 10 21  1  3 30.0000000  0 26G31G16E07G32G04S25G08G29E30R13E02R24
                                E03S23R23G27S48R22E11R21S36E08G26E25
                                R12G18
 109063174.835 8  84984303.03349  20754024.117    20754023.800    20754022.070
        49.750          54.000
 117457262.873 7  91525136.55845  22351368.598    22351367.785    22351366.272
        44.750          32.750
 150667707.638 5                  28671112.005
        33.500
                                  25429212.449
        18.250
 128956716.411 6 100485752.42843  24539646.479    24539646.251    24539647.137
        37.250          22.500
 183044600.052 7                  34831950.330
        46.750
 131241492.809 6 102266122.41143  24974423.840    24974423.402    24974426.339
        36.500          18.500
 128366801.905 6 100026132.97945  24427367.325    24427366.807    24427365.803
        36.500          30.500
 137148364.813 6                  26098464.858
        40.250
 119019462.537 6                  22288521.351
        36.000
 125383045.011 8                  23859584.523
        48.500
 129205764.195 7                  24162127.831
        43.250
 147316884.271 6                  28033468.791
        39.250
 204005211.983 7                  38820889.376
        43.500
 109987086.877 8                  20560917.838
        51.500
 117476542.767 7  91540189.94245  22355033.473    22355032.946    22355034.168
        44.500          35.250
  30876003.020 7                   5875296.408
        43.500
 104360764.409 6                  19550278.918
        41.750
 128359353.266 6                  24425945.536
        39.500
 123450867.497 7                  23069731.321
        43.750
 195147156.567 7                  37135269.366
        47.250
 134286317.362 6                  25553838.179
        38.250
 109134319.202 8  85039786.71748  20767557.765    20767557.242    20767558.692
        49.000          53.250
 130818599.958 7                  24893927.384
        46.500
 104552367.348 8                  19572418.393
        52.750
 110944670.705 7  86450410.87046  21112059.821    21112059.607    21112058.107
        47.750          39.750
 21 10 21  1  4  0.0000000  0 26G31G16E07G32G04S25G08G29E30R13E02R24
                                E03S23R23G27S48R22E11R21S36E08G26E25
                                R12G18
 109110369.387 8  85021078.01049  20763005.140    20763004.823    20763002.877
        50.000          54.500
 117400500.971 7  91480906.50845  22340567.244    22340566.435    22340564.813
        45.000          33.250
 150674854.771 5                  28672472.994
        33.000
 133710553.01316 104190050.31255  25444271.817    25444271.692    25444275.015
        36.250          33.750
 128947150.973 6 100478298.81743  24537826.464    24537826.250    24537826.829
        38.000          22.250
 183039290.889 7                  34831139.630
        46.500
 131157390.640 6 102200588.27243  24958419.847    24958419.418    24958422.411
        36.250          20.750
 128458726.677 5 100097762.67244  24444859.804    24444859.268    24444858.535
        33.500          25.500
 137089182.461 6                  26087202.761
        39.750
 118916391.734 5                  22269219.175
        34.250
 125354628.575 8                  23854177.066
        48.250
 129080813.923 6                  24138759.721
        36.000
 147381766.345 6                  28045814.830
        37.750
 204005095.277 7                  38820866.146
        43.500
 109899043.225 8                  20544458.920
        51.250
 117411528.167 7  91489529.23245  22342661.851    22342661.319    22342662.204
        44.750          35.500
  30874986.597 7                   5875317.281
        43.750
 104418235.044 6                  19561045.713
        41.750
 128424491.096 6                  24438340.627
        38.750
 123573528.708 7                  23092652.953
        43.250
 195147159.106 7                  37135269.652
        47.250
 134338964.529 6                  25563857.393
        37.500
 109112098.925 8  85022472.20848  20763329.334    20763328.811    20763330.255
        49.250          53.500
 130842717.879 7                  24898517.250
        46.250
 104514670.803 8                  19565361.510
        52.750
 110954277.585 8  86457896.75546  21113887.912    21113887.702    21113886.447
        48.000          40.000
 21 10 21  1  4 30.0000000  0 26G31G16E07G32G04S25G08G29E30R13E02R24
                                E03S23R23G27S48R22E11R21S36E08G26E25
                                R12G18
 109158040.616 8  85058224.42049  20772076.672    20772076.355    20772074.386
        50.000          54.000
 117343808.438 7  91436730.52345  22329779.347    22329778.529    22329776.433
        44.500          32.500
 150682345.622 5                  28673898.018
        34.750
 133789431.977 6 104251514.41445  25459282.883    25459282.705    25459284.875
        39.750          32.250
 128938069.547 6 100471222.40243  24536099.460    24536099.246    24536098.663
        37.250          22.000
 183035578.605 7                  34830328.915
        47.250
 131073471.314 6 102135196.72143  24942449.492    24942449.108    24942453.053
        37.250          19.750
 128550606.776 5 100169357.55343  24462344.148    24462343.607    24462342.687
        31.000          21.750
 137029938.627 6                  26075929.004
        39.500
 118813336.592 5                  22249921.541
        35.000
 125326290.306 8                  23848784.481
        48.500


 147446498.649 5                  28058132.131
        34.000
 204004982.270 7                  38820846.350
        43.250
 109811566.014 8                  20528105.815
        51.250
 117346830.624 7  91439115.57845  22330349.976    22330349.440    22330350.691
        44.500          35.250
  30875572.604 7                   5875340.592
        43.500
 104476350.486 7                  19571932.996
        42.000
 128489895.824 6                  24450787.042
        39.250
 123696302.185 7                  23115597.255
        44.000
 195147166.130 7                  37135271.360
        47.250
 134391758.441 6                  25573903.782
        39.000
 109090058.119 8  85005297.55248  20759135.173    20759134.650    20759136.436
        49.000          53.500
 130866994.690 7                  24903136.751
        46.500
 104477396.107 8                  19558383.592
        52.500
 110964472.747 8  86465841.04046  21115828.050    21115827.849    21115826.675
        48.000          40.000
 21 10 21  1  5  0.0000000  0 26G31G16E07G32G04S25G08G29E30R13E02R24
                                E03S23R23G27S48R22E11R21S36E08G26E25
                                R12G18
 109206180.952 8  85095736.37149  20781237.300    20781236.979    20781235.104
        49.750          54.250
 117287179.243 7  91392603.87445  22319002.724    22319001.911    22319000.091
        44.750          32.750
 150690173.115 5                  28675387.645
        32.500
 133868049.576 6 104312774.88745  25474244.514    25474244.327    25474245.225
        36.250          30.500
 128929465.241 6 100464517.73843  24534461.851    24534461.646    24534460.757
        38.000          22.500
 183031860.012 7                  34829515.907
        47.250
 130989728.454 6 102069942.69743  24926513.787    24926513.367    24926516.526
        36.500          19.500
 128642434.464 4 100240911.59643  24479818.842    24479818.346    24479816.594
        29.500          18.000
 136970627.383 6                  26064642.364
        39.000
 118710292.848 5                  22230623.875
        35.750
 125298024.824 8                  23843405.732
        48.250
 128831290.18617                  24092106.411
        42.000
 147511073.040 6                  28070421.409
        38.000
 204004866.301 7                  38820821.787
        43.500
 109724651.150 8                  20511858.066
        51.500
 117282443.933 7  91388944.14245  22318097.703    22318097.158    22318098.324
        44.500          35.750
  30876155.776 7                   5875363.044
        43.750
 104535100.685 7                  19582938.843
        42.000
 128555559.338 6                  24463281.998
        38.750
 123819177.954 7                  23138558.644
        43.500
 195147170.839 7                  37135272.702
        47.250
 134444690.663 6                  25583976.597
        37.750
 109068191.426 8  84988258.56848  20754973.992    20754973.469    20754975.497
        49.000          53.750
 130891424.794 7                  24907785.606
        46.250
 104440539.467 8                  19551484.222
        52.500
 110975249.639 7  86474238.62146  21117878.686    21117878.494    21117877.656
        47.500          40.250
 21 10 21  1  5 30.0000000  0 26G31G16E07G32G04S25G08G29E30R13E02R24
                                E03S23R23G27S48R22E11R21S36E08G26E25
                                R12G18
 109254789.936 8  85133613.49849  20790487.386    20790487.065    20790485.085
        50.250          54.000
 117230614.746 7  91348527.64645  22308238.792    22308237.970    22308236.676
        45.000          32.250
 150698337.456 5                  28676941.039
        33.750
 133946411.35515 104373830.35754  25489153.100    25489153.502    25489155.376
        35.000          24.250
 128921338.289 6 100458185.03643  24532914.920    24532914.710    24532914.309
        39.000          23.000
 183026541.262 7                  34828702.327
        46.750
 130906163.598 5 102004827.36443  24910611.872    24910611.430    24910614.855
        35.250          20.750
 128734209.345 4 100312424.48342  24497281.702    24497281.215    24497280.641
        28.250          13.250
 136911249.872 6                  26053343.599
        39.000
 118607263.564 6                  22211331.201
        36.750
 125269834.030 8                  23838041.054
        48.500
 128706770.595 6                  24068815.597
        40.000
 147575488.874 6                  28082679.817
        36.000
 204004748.746 7                  38820800.256
        43.000
 109638301.963 8                  20495716.071
        51.750
 117218369.120 7  91339015.73945  22305904.652    22305904.102    22305905.337
        44.750          35.500
  30876734.431 7                   5875385.142
        43.500
 104594482.966 6                  19594062.922
        41.750
 128621480.764 6                  24475826.813
        39.000
 123942152.956 7                  23161540.001
        43.750
 195147171.867 7                  37135273.958
        47.000
 134497760.073 6                  25594074.989
        38.250
 109046500.767 8  84971356.75348  20750846.392    20750845.869    20750847.600
        49.500          53.500
 130916009.821 7                  24912463.950
        46.500
 104404104.935 8                  19544663.398
        52.250
 110986608.830 7  86483089.94446  21120040.417    21120040.230    21120039.122
        47.750          40.250
 21 10 21  1  6  0.0000000  0 26G31G16E07G32G04S25G08G29E30R13E02R24
                                E03S23R23G27S48R22E11R21S36E08G26E25
                                R12G18
 109303871.492 8  85171858.86549  20799827.203    20799826.882    20799825.137
        50.000          54.250
 117174119.793 7  91304505.61445  22297488.509    22297487.687    22297485.608
        44.500          32.000
 150706842.355 5                  28678559.917
        34.500
 134024507.176 5 104434683.94443  25504015.423    25504015.303    25504017.565
        30.750          23.500
 128913692.677 6 100452227.40443  24531460.861    24531460.642    24531459.301
        38.500          22.500
 183022820.649 7                  34827888.067
        47.250
 130822781.908 5 101939854.60943  24894744.361    24894743.892    24894747.145
        35.500          19.500
 128825934.975 4 100383898.96241  24514735.693    24514735.291    24514735.217
        27.000          10.750
 136851811.117 6                  26042032.317
        39.250
 118504255.471 6                  22192039.881
        37.250
 125241723.507 8                  23832692.022
        48.250
 128582403.762 7                  24045565.173
        46.750
 147639749.092 5                  28094908.084
        34.500
 204004634.901 7                  38820778.399
        43.500
 109552525.611 8                  20479680.856
        51.750
 117154610.936 7  91289334.04745  22293771.938    22293771.375    22293772.371
        45.000          35.750
  30875715.349 7                   5875407.657
        43.750
 104654497.978 6                  19605305.723
        41.500
 128687662.934 6                  24488420.700
        38.500
 124065228.416 7                  23184538.689
        42.500
 195147186.231 7                  37135274.638
        47.500
 134550969.242 6                  25604200.634
        38.250
 109024991.698 8  84954596.43248  20746753.458    20746752.935    20746754.487
        49.000          53.750
 130940755.151 7                  24917172.966
        46.500
 104368099.993 8                  19537923.056
        52.250
 110998554.628 7  86492398.35646  21122313.461    21122313.265    21122312.343
        47.750          40.250
 21 10 21  1  6 30.0000000  0 26G31G16E07G32G04S25G08G29E30R13E02R24
                                E03S23R23G27S48R22E11R21S36E08G26E25
                                R12G18
 109353419.057 8  85210467.35749  20809255.879    20809255.562    20809253.862
        50.000          54.250
 117117689.571 7  91260534.01645  22286750.054    22286749.214    22286747.024
        44.750          32.000
 150715681.751 5                  28680242.070
        33.750
 134102335.964 6 104495329.98443  25518825.165    25518824.700    25518827.968
        36.000          21.250
 128906522.449 6 100446640.23043  24530095.641    24530095.427    24530094.522
        37.250          22.750
 183017490.066 7                  34827072.014
        47.000
 130739578.627 6 101875020.89943  24878912.084    24878911.606    24878914.297
        37.500          20.250
                                  24532181.172
        24.000
 136792306.168 6                  26030709.208
        39.500
 118401266.645 5                  22172753.246
        35.500
 125213688.944 8                  23827357.262
        48.250
 128458187.422 7                  24022337.875
        42.250
 147703846.595 6                  28107105.221
        37.500
 204004518.609 7                  38820756.461
        43.250
 109467319.125 8                  20463752.568
        51.750
 117091164.186 7  91239895.02345  22281698.458    22281697.891    22281698.776
        44.750          35.750
  30876292.438 7                   5875428.683
        43.750
 104715137.108 6                  19616665.016
        41.750
 128754098.744 6                  24501063.000
        38.750
 124188395.390 7                  23207556.068
        42.250
 195147194.314 7                  37135276.659
        47.250
 134604310.886 6                  25614351.306
        37.750
 109003659.931 8  84937974.27548  20742694.175    20742693.648    20742695.429
        49.000          53.750
 130965656.205 7                  24921911.426
        46.500
 104332521.879 8                  19531263.211
        52.250
 111011081.420 7  86502159.49646  21124697.250    21124697.058    21124695.901
        47.750          40.250
