     2.11           OBSERVATION DATA    M (MIXED)           RINEX VERSION / TYPE
teqc  2019Feb25                         20230503 21:10:07UTCPGM / RUN BY / DATE
Linux2.6.32-573.12.1.el6.x86_64|x86_64|gcc|Win64-MinGW64|=+ COMMENT
BIT 2 OF LLI FLAGS DATA COLLECTED UNDER A/S CONDITION       COMMENT
CVBB                                                        MARKER NAME
CVBB                                                        MARKER NUMBER
RFGH                SEGAL                                   OBSERVER / AGENCY
3055330             SEPT POLARX5        5.3.2               REC # / TYPE / VERS
1909270038          TWIVP6050_CONE  NONE                    ANT # / TYPE
  6378137.0000        0.0000        0.0000                  APPROX POSITION XYZ
        0.1190        0.0000        0.0000                  ANTENNA: DELTA H/E/N
     1     1                                                WAVELENGTH FACT L1/2
     7    L1    L2    C1    P1    P2    S1    S2            # / TYPES OF OBSERV
 SNR is mapped to RINEX snr flag value [0-9]                COMMENT
  L1 & L2: min(max(int(snr_dBHz/6), 0), 9)                  COMMENT
  2021    11    12     9    47    0.0000000     GPS         TIME OF FIRST OBS
    18                                                      LEAP SECONDS
                                                            END OF HEADER
 21 11 12  9 47  0.0000000  0 17G17G02G04G19G06G07G20G09G11E09E11E04
                                S36S48E12S23S25
 110718470.97717  86274133.62256  21069024.571    21069024.821    21069024.356
        46.500          38.000
 122100969.02616  95143603.44454  23235041.534    23235041.578    23235039.700
        40.500          29.750
 114245703.30817  89022627.34855  21740234.529    21740234.453    21740234.748
        44.000          31.000
 106329741.30717  82854334.31156  20233877.088    20233877.401    20233874.584
        47.750          41.000
 103489450.27218  80641139.13657  19693387.646    19693387.481    19693389.743
        49.750          44.750
 114756524.91217  89420672.40357  21837440.816    21837440.829    21837441.581
        44.500          44.750
 121337995.09016                  23089852.438
        37.750
 102756756.08118  80070204.42159  19553960.429    19553960.616    19553961.663
        50.750          56.000
 115259302.04017  89812439.62955  21933115.828    21933115.712    21933115.210
        43.500          33.000
 120146226.29817                  22863066.740
        44.750
 112338280.14417                  21377263.896
        45.750
 118510641.23818                  22551825.365
        49.500
 190155243.80817                  36185340.751
        47.000
  25744001.36417                   4898922.093
        44.000
 112504897.62317                  21408970.101
        45.250
 198969624.39417                  37862659.354
        43.500
 175036799.19117                  33308373.449
        47.250
 21 11 12  9 47 30.0000000  0 23G17G02G04G19G06G07G20G09E09G30E11E04
                                S36S48E12R24S23S25R02R18R17R03R04
 115529017.040 7  90022611.01046  21984440.905    21984440.592    21984440.617
        46.000          36.500
 126739476.572 6  98758024.94144  24117719.770    24117718.943    24117717.880
        40.000          28.000
 119060310.661 7  92774269.41845  22656423.700    22656423.472    22656423.665
        42.750          30.750
 111120709.611 7  86587556.32846  21145568.001    21145567.116    21145565.849
        47.500          40.250
 108170343.275 8  84288588.21947  20584131.988    20584131.850    20584133.925
        49.750          44.000
 119416943.450 7  93052167.39247  22724289.054    22724288.603    22724289.347
        44.750          44.500
 125999198.611 6  98181195.40753  23976850.489    23976849.863    23976849.888
        37.500          21.000
 107519124.758 8  83781141.03849  20460208.969    20460208.585    20460210.128
        50.500          55.250
 124814002.860 7                  23751314.945
        44.500
 127041641.864 6  98993507.17056  24175221.000    24175220.419    24175225.826
        39.000          37.750
 117020545.724 7                  22268269.352
        45.500
 123246111.138 8                  23452955.310
        49.250
 194881511.255 7                  37084718.388
        47.000
  30469941.072 7                   5798255.466
        44.000
 117266757.768 7                  22315121.873
        45.000
 115380880.334 8                  21576807.093
        50.000
 203695950.984 7                  38762048.265
        43.500
 179765814.047 7                  34208083.830
        47.250
 108192975.580 8                  20275316.697
        50.750
 111546508.511 8                  20896419.240
        49.000
 101154136.159 8                  18903068.378
        53.250
 108602928.730 8                  20287939.047
        51.500
 126393093.374 7                  23603020.349
        42.750
 21 11 12  9 48  0.0000000  0 23G17G02G04G19G06G07G20G09E09G30E11E04
                                S36S48E12R24S23S25R02R18R17R03R04
 115613508.664 7  90088448.57446  22000518.891    22000518.529    22000518.774
        45.750          36.500
 126651662.701 6  98689598.59344  24101009.178    24101008.150    24101007.400
        40.000          27.500
 119148805.224 7  92843226.17245  22673263.282    22673263.108    22673263.975
        43.250          31.250
 111185829.326 7  86638298.92846  21157959.874    21157958.824    21157957.896
        47.500          40.250
 108125241.243 8  84253443.77847  20575549.352    20575549.223    20575551.294
        50.000          44.500
 119351230.677 7  93000962.66647  22711784.435    22711783.970    22711784.576
        45.250          45.000
 125934062.399 6  98130439.93243  23964455.066    23964454.132    23964454.559
        38.250          21.750
 107555619.240 8  83809578.29149  20467153.693    20467153.269    20467154.513
        50.750          55.250
 124755679.397 7                  23740216.192
        44.750
 126952036.628 6  98923684.95446  24158170.019    24158169.201    24158174.514
        39.500          38.000
 116976726.796 7                  22259930.850
        45.750
 123255540.267 8                  23454749.491
        49.500
 194881443.291 7                  37084705.935
        47.000
  30469552.140 7                   5798196.664
        44.000
 117302620.416 7                  22321946.435
        45.250
 115494889.080 8                  21598127.155
        49.750
 203695945.696 7                  38762049.459
        43.500
 179766901.210 7                  34208413.120
        47.250
 108258177.327 8                  20287535.508
        51.000
 111450346.290 8                  20878405.158
        49.250
 101167446.967 8                  18905556.171
        53.000
 108581550.128 8                  20283945.360
        51.750
 126311040.399 6                  23587697.196
        41.750
 21 11 12  9 48 30.0000000  0 24G17G02G04G19G06G07G20G09E09G30E11E04
                                E19S36S48E12R24S23S25R02R18R17R03R04
 115698270.485 7  90154496.67946  22016648.592    22016648.221    22016648.422
        45.500          36.250
 126563874.166 6  98621191.96644  24084304.106    24084303.074    24084301.633
        41.000          28.000
 119237511.714 7  92912348.07345  22690143.959    22690143.785    22690144.386
        42.750          31.000
 111251427.123 7  86689414.05646  21170442.708    21170441.622    21170440.703
        47.500          40.000
 108080486.954 8  84218570.30649  20567032.695    20567032.557    20567034.709
        50.250          55.000
 119285731.997 7  92949924.77247  22699320.457    22699319.988    22699320.684
        45.250          45.250
 125868928.862 6  98079686.55343  23952060.690    23952059.716    23952060.947
        38.000          22.500
 107592570.092 8  83838371.15249  20474185.231    20474184.807    20474186.202
        51.000          55.500
 124697598.235 7                  23729163.884
        44.500
 126862381.401 6  98853823.78546  24141108.947    24141108.107    24141113.405
        39.250          37.750
 116933165.519 7                  22251641.512
        45.250
 123265262.767 8                  23456599.677
        49.000
 136395452.33516                  25955191.213
        36.750
 194881380.875 7                  37084694.394
        46.500
  30469169.683 7                   5798139.535
        43.500
 117338818.125 7                  22328834.666
        44.750
 115609284.020 8                  21619519.422
        49.750
 203695947.172 7                  38762048.958
        43.000
 179769614.678 7                  34208745.460
        46.750
 108323567.784 8                  20299789.693
        50.750
 111354642.757 8                  20860476.711
        49.250
 101181562.893 8                  18908193.922
        52.750
 108560590.312 8                  20280029.903
        51.750
 126229271.000 7                  23572425.917
        42.000
 21 11 12  9 49  0.0000000  0 24G17G02G04G19G06G07G20G09E09G30E11E04
                                E19S36S48E12R24S23S25R02R18R17R03R04
 115783302.135 7  90220755.04246  22032829.457    22032829.086    22032829.337
        45.500          36.500
 126476115.223 6  98552808.40644  24067604.602    24067603.561    24067601.656
        41.750          28.250
 119326430.368 7  92981635.30045  22707064.716    22707064.524    22707065.010
        43.000          30.500
 111317503.241 7  86740901.91046  21183016.606    21183015.502    21183014.432
        47.500          40.250
 108036085.456 8  84183971.72849  20558583.440    20558583.302    20558585.028
        50.250          55.500
 119220452.922 7  92899057.99047  22686898.014    22686897.541    22686898.480
        45.250          46.000
 125803800.693 6  98028937.36443  23939667.074    23939666.055    23939667.488
        38.250          23.500
 107629978.188 8  83867520.31449  20481303.746    20481303.313    20481304.440
        50.750          55.750
 124639762.518 7                  23718158.019
        44.500
 126772681.496 6  98783927.80746  24124039.543    24124038.707    24124044.376
        39.750          39.000
 116889866.284 7                  22243401.795
        45.000
 123275280.329 8                  23458505.955
        49.000
 136467736.681 6                  25968946.466
        36.000
 194881324.084 7                  37084683.921
        46.750
  30468797.777 7                   5798083.729
        43.750
 117375353.654 7                  22335787.019
        45.000
 115724064.580 8                  21640984.788
        49.500
 203695959.262 7                  38762051.404
        43.250
 179770749.788 7                  34209080.465
        47.000
 108389147.538 8                  20312079.713
        51.000
 111259404.775 8                  20842635.454
        49.250
 101196486.784 8                  18910982.772
        52.750
 108540050.645 8                  20276192.769
        51.250
 126147788.926 6                  23557210.173
        41.750
 21 11 12  9 49 30.0000000  0 24G17G02G04G19G06G07G20G09E09G30E11E04
                                E19S36S48E12R24S23S25R02R18R17R03R04
 115868595.970 7  90287217.70646  22049060.289    22049059.918    22049060.267
        45.250          36.250
 126388382.678 7  98484445.38644  24050909.483    24050908.424    24050906.402
        42.750          28.750
 119415553.844 7  93051082.12945  22724024.089    22724023.888    22724024.274
        42.750          30.500
 111384049.605 7  86792756.18946  21195679.790    21195678.659    21195677.758
        47.500          40.250
 107992034.194 8  84149646.06549  20550200.874    20550200.736    20550202.399
        50.250          55.750
 119155391.220 7  92848360.58947  22674517.355    22674516.877    22674517.483
        45.750          46.000
 125738672.478 6  97978188.13043  23927273.310    23927272.251    23927273.889
        39.000          22.750
 107667836.605 8  83897020.37349  20488508.051    20488507.613    20488508.935
        50.750          56.000
 124582167.716 7                  23707198.104
        44.500
 126682934.606 6  98713995.21446  24106961.291    24106960.446    24106965.886
        39.250          38.250
 116846825.890 7                  22235211.636
        45.250
 123285587.053 8                  23460467.220
        49.000
 136540068.830 6                  25982711.080
        37.000
 194881276.445 7                  37084674.173
        47.000
  30468428.678 7                   5798029.466
        44.000
 117412222.115 7                  22342802.964
        45.000
 115839222.192 8                  21662519.323
        49.000
 203695973.292 7                  38762052.812
        43.250
 179771886.121 7                  34209418.189
        47.250
 108454908.592 8                  20324403.531
        51.500
 111164631.472 8                  20824881.058
        49.500
 101212214.017 8                  18913921.916
        52.500
 108519924.748 8                  20272433.100
        51.500
 126066589.620 7                  23542046.883
        42.250
 21 11 12  9 50  0.0000000  0 24G17G02G04G19G06G07G20G09E09G30E11E04
                                E19S36S48E12R24S23S25R02R18R17R03R04
 115954161.088 7  90353891.75346  22065343.032    22065342.670    22065342.729
        45.250          36.000
 126300690.340 7  98416113.68744  24034222.452    24034221.397    24034218.883
        43.750          29.500
 119504891.490 7  93120695.84445  22741024.407    22741024.215    22741024.859
        43.250          30.500
 111451075.725 8  86844984.30046  21208434.583    21208433.443    21208432.566
        48.000          40.500
 107948347.054 8  84115604.13349  20541887.520    20541887.377    20541889.125
        50.250          55.750
 119090561.429 7  92797843.89647  22662180.546    22662180.068    22662180.688
        45.750          46.000
 125673556.107 6  97927448.11643  23914882.529    23914881.447    23914881.852
        39.000          22.500
 107706155.293 8  83926879.08249  20495799.722    20495799.284    20495800.626
        50.750          55.750
 124524826.089 7                  23696286.293
        45.000
 126593155.185 6  98644037.27046  24089877.012    24089876.172    24089881.506
        40.000          39.000
 116804057.727 7                  22227073.272
        45.750
 123296193.763 8                  23462485.540
        49.250
 136612459.406 6                  25996486.381
        37.000
 194881243.678 7                  37084668.324
        46.750
  30468076.365 7                   5797977.367
        44.000
 117449435.385 7                  22349884.499
        45.500
 115954765.546 8                  21684127.186
        49.500
 203696001.905 7                  38762059.310
        43.250
 179774652.019 7                  34209760.755
        47.000
 108520860.492 8                  20336762.937
        51.250
 111070338.991 8                  20807217.208
        49.250
 101228756.773 8                  18917013.221
        52.500
 108500223.186 8                  20268752.530
        51.750
 125985685.899 7                  23526938.796
        42.500
 21 11 12  9 50 30.0000000  0 24G17G02G04G19G06G07G20G09E09G30E11E04
                                E19S36S48E12R24S23S25R02R18R17R03R04
 116040004.025 7  90420782.28246  22081678.278    22081677.916    22081678.210
        45.000          36.000
 126213049.704 7  98347822.28444  24017544.876    24017543.799    24017541.985
        42.250          28.750
 119594450.345 7  93190481.92745  22758067.149    22758066.939    22758067.702
        42.500          30.750
 111518588.118 7  86897591.32746  21221281.693    21221280.531    21221279.841
        47.500          40.250
 107905035.857 8  84081855.14149  20533645.699    20533645.556    20533647.263
        50.000          55.750
 119025975.704 7  92747517.38847  22649890.363    22649889.876    22649890.371
        45.250          45.750
 125608460.809 6  97876724.56243  23902495.388    23902494.275    23902494.871
        38.500          22.750
 107744941.763 8  83957102.29549  20503180.555    20503180.113    20503181.580
        50.500          55.750
 124467747.452 7                  23685424.510
        44.750
 126503355.267 6  98574063.37446  24072788.541    24072787.683    24072793.259
        39.250          38.250
 116761573.016 7                  22218988.506
        45.500
 123307108.877 8                  23464562.622
        49.000
 136684916.435 6                  26010274.372
        36.500
 194881231.022 7                  37084666.102
        47.000
  30467751.608 7                   5797930.048
        43.750
 117487002.922 7                  22357033.330
        45.000
 116070700.943 8                  21705807.232
        49.000
 203696056.847 7                  38762070.216
        43.250
 179775851.672 7                  34210109.515
        47.250
 108587009.853 8                  20349158.960
        51.500
 110976541.504 8                  20789645.793
        49.750
 101246124.843 8                  18920258.983
        52.500
 108480954.164 8                  20265152.980
        51.500
 125905087.638 7                  23511887.559
        42.500
 21 11 12  9 51  0.0000000  0 24G17G02G04G19G06G07G20G09E09G30E11E04
                                E19S36S48E12R24S23S25R02R18R17R03R04
 116126099.064 7  90487869.26046  22098061.580    22098061.214    22098061.721
        45.500          36.000
 126125440.075 7  98279555.04144  24000873.391    24000872.314    24000870.649
        42.000          29.500
 119684205.481 7  93260420.94645  22775146.903    22775146.698    22775147.932
        42.750          31.250
 111586561.409 7  86950557.49146  21234216.812    21234215.645    21234214.788
        47.500          40.250
 107862080.376 8  84048383.33249  20525471.371    20525471.228    20525473.106
        50.250          55.750
 118961614.523 7  92697365.84747  22637642.605    22637642.109    22637642.816
        45.250          46.000
 125543363.820 6  97825999.65943  23890107.569    23890106.429    23890107.471
        38.500          22.500
 107784171.742 8  83987671.10349  20510645.805    20510645.363    20510646.771
        50.750          55.750
 124410909.793 7                  23674608.897
        44.750
 126413515.121 6  98504058.11146  24055693.187    24055692.333    24055696.699
        40.250          38.250
 116719350.914 7                  22210953.894
        45.500
 123318308.878 8                  23466693.837
        49.000
 136757416.256 6                  26024070.800
        36.750
 194881229.661 7                  37084665.869
        46.750
  30467426.854 7                   5797883.695
        43.750
 117524902.295 7                  22364245.297
        45.000
 116187002.600 8                  21727556.466
        49.000
 203696115.163 7                  38762081.529
        43.000
 179778663.111 7                  34210458.682
        47.000
 108653331.880 8                  20361587.919
        51.250
 110883220.162 8                  20772163.607
        49.750
 101264295.493 8                  18923654.556
        52.250
 108462093.278 8                  20261629.574
        51.500
 125824772.681 7                  23496889.589
        43.000
 21 11 12  9 51 30.0000000  0 24G17G02G04G19G06G07G20G09E09G30E11E04
                                E19S36S48E12R24S23S25R02R18R17R03R04
 116212444.688 7  90555151.49446  22114492.785    22114492.419    22114493.011
        45.500          36.250
 126037864.407 6  98211314.28344  23984208.219    23984207.160    23984205.828
        40.750          29.250
 119774155.636 7  93330511.92345  22792264.133    22792263.932    22792265.008
        42.250          30.750
 111654994.022 7  87003881.57246  21247239.009    21247237.825    21247237.114
        47.500          40.000
 107819484.043 8  84015191.38449  20517365.521    20517365.378    20517367.485
        50.500          56.000
 118897481.569 7  92647392.14647  22625438.619    22625438.128    22625438.908
        45.000          46.000
 125478266.393 6  97775274.42843  23877720.102    23877718.967    23877719.091
        39.500          23.000
 107823844.282 8  84018584.76649  20518195.330    20518194.888    20518196.355
        51.000          55.750
 124354314.644 7                  23663838.925
        44.500
 126323638.474 6  98434024.40746  24038589.668    24038588.819    24038593.467
        39.000          37.500
 116677394.255 7                  22202969.785
        45.250
 123329793.914 8                  23468879.478
        49.000
 136829958.702 6                  26037875.544
        36.500
 194881229.045 7                  37084664.514
        46.750
  30467107.845 7                   5797837.745
        43.750
 117563134.642 7                  22371520.780
        45.000
 116303668.133 8                  21749373.419
        49.000
 203696176.268 7                  38762091.751
        43.000
 179779884.867 7                  34210810.625
        46.750
 108719824.980 8                  20374048.280
        51.000
 110790380.644 8                  20754771.398
        49.750
 101283269.872 8                  18927200.289
        52.250
 108443640.324 8                  20258182.158
        51.500
 125744742.433 6                  23481944.381
        41.750
 21 11 12  9 52  0.0000000  0 24G17G02G04G19G06G07G20G09E09G30E11E04
                                E19S36S48E12R24S23S25R02R18R17R03R04
 116299026.490 7  90622617.76546  22130968.763    22130968.401    22130969.156
        45.500          36.000
 125950313.245 6  98143092.61544  23967547.719    23967546.651    23967545.453
        40.500          29.000
 119864287.246 7  93400744.30344  22809415.045    22809414.840    22809415.679
        42.500          29.500
 111723871.720 7  87057552.46546  21260346.120    21260344.922    21260343.994
        47.250          39.750
 107777237.901 8  83982272.31349  20509326.251    20509326.104    20509328.219
        50.750          55.500
 118833568.231 7  92597589.58247  22613276.352    22613275.856    22613276.667
        45.500          45.750
 125413157.132 6  97724539.96243  23865330.114    23865328.983    23865328.918
        39.750          22.750
 107863946.311 8  84049833.09349  20525826.586    20525826.144    20525827.527
        51.000          55.500
 124297951.206 7                  23653113.396
        44.750
 126233716.847 6  98363955.66846  24021478.376    24021477.522    24021481.707
        39.500          37.500
 116635693.513 7                  22195034.441
        45.250
 123341551.797 8                  23471116.827
        49.000
 136902531.387 6                  26051685.352
        36.500
 194881217.449 7                  37084662.641
        46.750
  30466783.377 7                   5797791.339
        43.750
 117601688.816 7                  22378857.453
        44.750
 116420682.513 8                  21771255.499
        48.750
 203696229.967 7                  38762101.991
        43.000
 179781102.269 7                  34211162.077
        47.000
 108786474.870 8                  20386538.633
        51.000
 110698015.555 8                  20737468.215
        49.750
 101303036.758 8                  18930894.323
        52.500
 108425582.541 8                  20254809.074
        51.750
 125664986.354 7                  23467050.621
        42.500
 21 11 12  9 52 30.0000000  0 24G17G02G04G19G06G07G20G09E09G30E11E04
                                E19S36S48E12R24S23S25R02R18R17R03R04
 116385852.109 7  90690274.01946  22147491.267    22147490.910    22147491.676
        45.250          36.250
 125862799.160 6  98074899.87145  23950894.520    23950893.456    23950892.406
        41.000          30.500
 119954608.072 7  93471124.12745  22826602.945    22826602.731    22826603.130
        42.000          30.000
 111793202.037 7  87111576.05546  21273539.187    21273537.989    21273537.137
        47.500          40.000
 107735354.466 8  83949635.86449  20501356.357    20501356.214    20501357.950
        50.250          55.750
 118769887.450 7  92547968.22547  22601158.163    22601157.672    22601158.494
        45.500          46.250
 125348046.005 6  97673804.05943  23852939.880    23852938.736    23852939.183
        39.250          23.500
 107904486.098 8  84081422.53049  20533540.991    20533540.553    20533541.948
        50.750          56.000
 124241830.124 7                  23642433.818
        45.000
 126143763.127 6  98293861.90946  24004360.388    24004359.534    24004364.104
        40.000          38.000
 116594260.638 7                  22187149.935
        45.250
 123353591.729 8                  23473408.070
        49.250
 136975143.183 6                  26065503.058
        37.000
 194881210.096 7                  37084660.217
        47.000
  30466460.160 7                   5797743.622
        44.000
 117640575.033 7                  22386257.158
        45.250
 116538053.337 8                  21793204.883
        48.750
 203696288.563 7                  38762112.611
        43.250
 179783935.326 7                  34211516.135
        47.500
 108853289.305 8                  20399059.854
        51.500
 110606139.634 8                  20720256.888
        50.000
 101323606.574 8                  18934738.069
        52.500
 108407928.674 8                  20251511.659
        51.750
 125585515.055 7                  23452209.318
        43.250
 21 11 12  9 53  0.0000000  0 24G17G02G04G19G06G07G20G09E09G30E11E04
                                E19S36S48E12R24S23S25R02R18R17R03R04
 116472916.014 7  90758115.95046  22164059.133    22164058.771    22164059.498
        45.250          36.250
 125775321.441 6  98006735.44245  23934248.400    23934247.327    23934245.999
        41.250          31.250
 120045112.993 7  93541647.39045  22843825.877    22843825.654    22843826.085
        42.250          30.500
 111862979.160 7  87165947.80846  21286817.460    21286816.249    21286815.370
        47.000          39.750
 107693833.233 8  83917281.65349  20493455.101    20493454.958    20493456.772
        50.000          55.750
 118706439.457 7  92498528.25947  22589084.647    22589084.151    22589084.671
        45.500          46.500
 125282930.243 6  97623064.52043  23840548.845    23840547.687    23840548.509
        39.500          23.750
 107945458.914 8  84113349.38849  20541337.672    20541337.230    20541339.027
        50.250          55.750
 124185948.994 7                  23631800.086
        45.000
 126053777.206 6  98223743.06846  23987236.332    23987235.452    23987240.615
        39.500          38.250
 116553094.586 7                  22179316.390
        45.250
 123365909.950 8                  23475752.164
        49.250
 137047790.161 6                  26079327.620
        36.500
 194881202.828 7                  37084658.960
        47.000
  30466139.740 7                   5797697.305
        44.000
 117679790.521 7                  22393719.737
        45.000
 116655773.915 8                  21815219.064
        48.500
 203696346.380 7                  38762125.056
        43.500
 179785176.881 7                  34211871.544
        47.500
 108920262.858 8                  20411610.559
        51.250
 110514754.324 8                  20703137.458
        49.750
 101344976.353 8                  18938731.601
        52.500
 108390674.286 8                  20248288.126
        52.000
 125506326.501 7                  23437421.431
        42.500
 21 11 12  9 53 30.0000000  0 24G17G02G04G19G06G07G20G09E09G30E11E04
                                E19S36S48E12R24S23S25R02R18R17R03R04
 116560207.855 7  90826135.49346  22180670.331    22180669.960    22180670.619
        45.000          36.250
 125687874.294 7  97938594.84045  23917607.128    23917606.073    23917605.576
        42.500          32.000
 120135792.254 7  93612306.49345  22861081.301    22861081.073    22861082.108
        42.750          30.500
 111933193.910 7  87220660.56446  21300178.911    21300177.695    21300176.873
        47.000          39.750
 107652669.142 8  83885205.73049  20485621.783    20485621.636    20485623.562
        50.250          56.000
 118643219.758 7  92449266.18447  22577054.283    22577053.792    22577054.383
        45.250          46.500
 125217802.599 6  97572315.75243  23828155.762    23828154.609    23828155.694
        39.000          23.750
 107986855.485 8  84145606.44649  20549215.314    20549214.872    20549216.367
        50.000          55.500
 124130300.852 7                  23621210.635
        45.000
 125963754.499 6  98153595.55046  23970105.797    23970104.912    23970109.928
        39.500          38.750
 116512189.525 7                  22171532.520
        45.500
 123378498.129 8                  23478147.569
        49.250
 137120463.750 6                  26093156.938
        36.250
 194881188.832 7                  37084657.337
        46.750
  30465813.844 7                   5797649.204
        43.750
 117719327.935 7                  22401243.356
        45.000
 116773833.711 8                  21837296.813
        48.000
 203696395.623 7                  38762133.735
        43.000
 179788015.542 7                  34212227.901
        47.000
 108987386.198 8                  20424189.329
        51.000
 110423856.432 8                  20686109.345
        50.000
 101367138.548 8                  18942873.401
        52.500
 108373810.831 8                  20245137.870
        51.750
 125427413.486 7                  23422684.546
        42.500
 21 11 12  9 54  0.0000000  0 24G17G02G04G19G06G07G20G09E09G30E11E04
                                E19S36S48E12R24S23S25R02R18R17R03R04
 116647742.433 7  90894344.17546  22197327.426    22197327.051    22197328.008
        45.000          36.000
 125600477.630 7  97870493.54945  23900976.573    23900975.505    23900973.403
        42.750          30.250
 120226661.369 7  93683113.54244  22878373.244    22878373.016    22878373.939
        42.500          29.500
 112003860.340 7  87275725.27946  21313626.200    21313624.984    21313624.366
        47.250          39.750
 107611882.336 8  83853423.79749  20477860.454    20477860.307    20477862.104
        50.250          55.750
 118580248.741 7  92400197.88747  22565070.966    22565070.470    22565071.364
        45.500          46.500
 125152680.454 6  97521571.24943  23815763.466    23815762.313    23815762.757
        39.000          23.250
 108028691.710 8  84178206.09449  20557176.619    20557176.177    20557177.461
        50.500          55.500
 124074903.973 7                  23610668.914
        44.750
 125873715.541 6  98083435.38146  23952972.054    23952971.165    23952976.302
        40.250          38.500
 116471565.136 7                  22163801.778
        45.000
 123391372.956 8                  23480597.589
        49.250
 137193180.545 6                  26106994.313
        36.750
 194881185.612 7                  37084656.403
        46.750
  30465500.976 7                   5797604.850
        44.000
 117759205.094 7                  22408831.820
        44.500
 116892247.381 8                  21859441.238
        48.500
 203696455.643 7                  38762146.627
        43.250
 179789277.519 7                  34212587.751
        47.250
 109054674.125 8                  20436798.849
        50.750
 110333468.311 8                  20669176.367
        50.250
 101390111.348 8                  18947166.339
        52.500
 108357354.835 8                  20242064.217
        52.000
 125348794.736 7                  23408003.602
        44.000
 21 11 12  9 54 30.0000000  0 24G17G02G04G19G06G07G20G09E09G30E11E04
                                E19S36S48E12R24S23S25R02R18R17R03R04
 116735498.204 7  90962725.21845  22214026.861    22214026.490    22214027.291
        44.500          35.250
 125513114.662 7  97802418.49844  23884351.558    23884350.472    23884348.375
        42.250          29.250
 120317699.205 7  93754052.07444  22895696.695    22895696.459    22895697.358
        42.500          29.000
 112074956.347 7  87331124.72846  21327155.548    21327154.328    21327153.729
        47.500          39.750
 107571456.307 8  83821922.98649  20470167.481    20470167.338    20470168.955
        50.000          55.250
 118517510.003 7  92351310.58647  22553132.471    22553131.984    22553132.517
        45.500          46.500
 125087545.169 6  97470816.48743  23803368.457    23803367.304    23803368.121
        39.500          23.750
 108070946.790 8  84211132.12049  20565217.505    20565217.063    20565218.359
        50.250          55.250
 124019739.937 7                  23600171.465
        44.500
 125783644.298 6  98013250.04546  23935831.670    23935830.785    23935836.260
        39.250          38.500
 116431204.286 7                  22156121.553
        45.250
 123404514.648 8                  23483098.276
        49.000
 137265920.593 6                  26120836.307
        37.000
 194881175.829 7                  37084654.793
        46.500
  30465182.585 7                   5797557.339
        43.750
 117799403.209 7                  22416481.350
        44.500
 117010992.498 8                  21881647.314
        48.250
 203696509.346 7                  38762156.505
        43.000
 179790529.157 7                  34212947.511
        47.250
 109122105.098 8                  20449435.642
        51.000
 110243575.012 8                  20652336.140
        50.250
 101413875.375 8                  18951606.991
        52.250
 108341285.549 8                  20239061.978
        51.500
 125270451.346 7                  23393373.522
        43.500
 21 11 12  9 55  0.0000000  0 24G17G02G04G19G06G07G20G09E09G30E11E04
                                E19S36S48E12R24S23S25R02R18R17R03R04
 116823481.194 7  91031283.31745  22230769.507    22230769.132    22230769.833
        44.750          34.750
 125425796.153 7  97734378.07644  23867735.503    23867734.417    23867731.459
        42.250          28.750
 120408912.203 7  93825127.10444  22913054.475    22913054.234    22913054.418
        42.500          29.250
 112146489.169 7  87386864.55246  21340767.743    21340766.518    21340766.064
        47.750          40.000
 107531402.178 8  83790711.96849  20462545.510    20462545.367    20462547.079
        50.250          55.750
 118455015.948 7  92302613.95047  22541240.053    22541239.575    22541240.371
        46.000          47.000
 125022405.725 6  97420058.49843  23790973.204    23790972.087    23790972.207
        39.500          23.500
 108113627.643 8  84244389.92249  20573339.307    20573338.860    20573340.069
        50.750          55.250
 123964817.958 7                  23589720.063
        44.750
 125693552.333 6  97943048.56746  23918687.951    23918687.071    23918692.274
        39.750          38.500
 116391117.548 7                  22148493.170
        45.250
 123417931.149 8                  23485651.366
        49.000
 137338691.525 6                  26134684.364
        37.000
 194881169.066 7                  37084653.425
        46.750
  30464864.545 7                   5797511.182
        43.750
 117839931.089 7                  22424193.439
        44.750
 117130074.319 8                  21903916.241
        48.500
 203696565.865 7                  38762166.248
        43.000
 179793399.934 7                  34213311.125
        47.250
 109189686.085 8                  20462100.524
        51.000
 110154189.832 8                  20635591.197
        50.000
 101438439.404 8                  18956197.504
        52.500
 108325610.756 8                  20236133.630
        51.000
 125192393.085 7                  23378796.365
        43.250
 21 11 12  9 55 30.0000000  0 24G17G02G04G19G06G07G20G09E09G30E11E04
                                E19S36S48E12R24S23S25R02R18R17R03R04
 116911686.627 7  91100014.74345  22247554.282    22247553.916    22247554.748
        44.500          34.250
 125338522.147 7  97666372.36744  23851127.922    23851126.831    23851124.564
        42.000          28.500
 120500296.009 7  93896335.22045  22930444.419    22930444.174    22930444.665
        42.750          30.000
 112218453.255 8  87442940.42246  21354462.208    21354460.979    21354460.390
        48.000          39.750
 107491720.047 8  83759790.81949  20454994.232    20454994.089    20454996.087
        50.500          55.500
 118392766.687 7  92254108.06247  22529394.395    22529393.913    22529394.761
        46.000          46.750
 124957259.101 6  97369294.90143  23778575.898    23778574.749    23778574.718
        40.000          23.750
 108156730.148 8  84277976.28249  20581541.419    20581540.972    20581542.250
        50.500          54.750
 123910136.272 7                  23579314.457
        44.750
 125603440.249 6  97872831.41046  23901540.023    23901539.143    23901544.607
        40.250          38.750
 116351304.414 7                  22140917.025
        45.500
 123431619.227 8                  23488256.170
        49.000
 137411490.001 6                  26148537.470
        37.250
 194881158.630 7                  37084650.818
        46.750
  30464549.075 7                   5797464.119
        44.000
 117880786.576 7                  22431968.075
        44.750
 117249487.617 8                  21926247.114
        48.000
 203696621.616 7                  38762176.091
        43.250
 179794685.146 7                  34213674.400
        47.250
 109257411.793 8                  20474792.462
        51.500
 110065314.700 8                  20618942.184
        50.000
 101463801.150 8                  18960936.895
        52.750
 108310326.251 8                  20233278.012
        51.250
 125114618.151 7                  23364272.802
        44.250
 21 11 12  9 56  0.0000000  0 24G17G02G04G19G06G07G20G09E09G30E11E04
                                E19S36S48E12R24S23S25R02R18R17R03R04
 117000114.431 7  91168919.44745  22264381.653    22264381.291    22264382.032
        44.500          34.500
 125251297.936 6  97598405.45044  23834529.226    23834528.135    23834526.929
        41.500          29.750
 120591851.585 6  93967677.16545  22947866.898    22947866.639    22947867.654
        41.500          30.500
 112290848.395 7  87499352.17846  21368238.492    21368237.258    21368236.655
        47.250          40.000
 107452415.531 8  83729163.91949  20447514.911    20447514.768    20447516.717
        50.250          56.000
 118330768.083 7  92205797.50047  22517596.487    22517596.014    22517596.756
        46.000          47.000
 124892109.240 6  97318528.77744  23766178.434    23766177.308    23766177.731
        38.750          24.500
 108200255.698 8  84311892.28749  20589823.954    20589823.507    20589824.894
        50.500          55.500
 123855698.629 7                  23568955.372
        45.000
 125513314.206 6  97802603.37446  23884389.262    23884388.391    23884393.873
        39.500          38.750
 116311769.996 7                  22133393.987
        45.750
 123445581.280 8                  23490913.002
        49.250
 137484318.228 6                  26162396.555
        36.500
 194881149.524 7                  37084649.642
        46.750
  30464235.931 7                   5797417.413
        43.750
 117921972.999 7                  22439805.486
        44.750
 117369232.503 8                  21948640.507
        48.250
 203696679.382 7                  38762187.985
        43.000
 179797570.738 7                  34214039.888
        47.250
 109325284.147 8                  20487511.343
        50.750
 109976957.490 8                  20602389.965
        50.000
 101489963.565 8                  18965826.236
        52.750
 108295434.155 8                  20230495.883
        51.250
 125037130.259 7                  23349802.232
        44.250
 21 11 12  9 56 30.0000000  0 24G17G02G04G19G06G07G20G09E09G30E11E04
                                E19S36S48E12R24S23S25R02R18R17R03R04
 117088756.862 7  91237991.39345  22281249.986    22281249.620    22281250.262
        44.500          34.500
 125164120.473 7  97530474.98945  23817940.096    23817939.019    23817937.853
        42.000          30.500
 120683571.399 7  94039147.07445  22965320.433    22965320.183    22965321.743
        42.250          30.500
 112363667.279 7  87556094.12546  21382095.439    21382094.205    21382093.726
        47.500          40.000
 107413485.721 8  83698828.99749  20440106.779    20440106.636    20440108.593
        50.250          56.000
 118269018.122 7  92157680.68047  22505845.492    22505845.019    22505846.052
        45.500          47.000
 124826951.120 6  97267756.23444  23753778.857    23753777.717    23753778.623
        39.500          24.750
 108244197.033 8  84346132.27949  20598185.844    20598185.397    20598186.680
        50.500          55.500
 123801500.213 7                  23558641.790
        45.250
 125423171.750 6  97732362.54246  23867235.758    23867234.882    23867240.139
        40.250          39.000
 116272510.772 7                  22125923.153
        46.000
 123459811.038 8                  23493620.864
        49.500
 137557169.818 6                  26176259.556
        36.250
 194881139.368 7                  37084648.193
        47.000
  30463921.479 7                   5797370.398
        44.000
 117963485.097 7                  22447705.105
        45.000
 117489300.067 8                  21971093.666
        48.250
 203696733.517 7                  38762197.854
        43.250
 179798868.643 7                  34214405.895
        47.250
 109393294.960 8                  20500256.983
        50.500
 109889116.719 8                  20585934.217
        50.250
 101516921.053 8                  18970863.841
        52.750
 108280927.888 8                  20227786.115
        51.250
 124959924.866 7                  23335384.050
        43.250
 21 11 12  9 57  0.0000000  0 24G17G02G04G19G06G07G20G09E09G30E11E04
                                E19S36S48E12R24S23S25R02R18R17R03R04
 117177607.478 7  91307225.56045  22298157.666    22298157.300    22298157.981
        44.500          34.500
 125076988.293 7  97462579.79745  23801359.335    23801358.244    23801357.104
        42.500          31.250
 120775449.704 6  94110740.50044  22982804.399    22982804.140    22982805.246
        41.500          29.000
 112436903.673 7  87613161.40246  21396031.837    21396030.594    21396030.257
        47.500          39.750
 107374929.381 8  83668785.09349  20432769.564    20432769.417    20432771.555
        50.250          56.000
 118207515.789 7  92109756.81847  22494142.095    22494141.622    22494142.300
        46.000          46.750
 124761781.006 6  97216974.32844  23741377.470    23741376.362    23741377.526
        39.500          24.500
 108288548.797 8  84380692.08849  20606625.644    20606625.193    20606626.689
        50.750          55.500
 123747537.878 7                  23548373.121
        45.250
 125333012.231 6  97662108.41846  23850079.453    23850078.555    23850083.368
        39.750          39.000
 116233524.961 7                  22118504.438
        45.750
 123474304.088 8                  23496378.793
        49.250
 137630040.291 5                  26190125.703
        35.750
 194881125.613 7                  37084645.577
        46.750
  30463600.258 7                   5797323.111
        43.750
 118005319.378 7                  22455665.772
        44.750
 117609683.517 7                  21993605.618
        47.750
 203696783.464 7                  38762208.747
        43.000
 179800158.970 7                  34214772.684
        47.250
 109461438.225 8                  20513026.943
        50.750
 109801793.665 8                  20569575.352
        50.000
 101544670.113 8                  18976049.322
        52.500
 108266802.052 8                  20225147.507
        51.500
 124882998.366 7                  23321019.191
        43.750
 21 11 12  9 57 30.0000000  0 24G17G02G04G19G06G07G20G09E09G30E11E04
                                E19S36S48E12R24S23S25R02R18R17R03R04
 117266675.087 7  91376628.81645  22315106.976    22315106.614    22315107.094
        45.000          35.000
 124989914.941 7  97394730.45445  23784789.891    23784788.796    23784787.627
        42.500          31.500
 120867495.835 6  94182464.71344  23000320.053    23000319.799    23000320.238
        41.750          28.250
 112510565.777 7  87670560.40146  21410049.275    21410048.032    21410047.770
        47.750          40.000
 107336760.525 8  83639043.12149  20425506.366    20425506.223    20425508.196
        50.250          55.750
 118146275.357 7  92062037.03247  22482488.654    22482488.185    22482488.616
        46.000          47.000
 124696610.601 6  97166192.19044  23728975.920    23728974.785    23728976.214
        39.250          25.000
 108333320.673 8  84415579.25049  20615145.464    20615145.017    20615146.713
        50.750          55.250
 123693823.728 7                  23538151.577
        45.250
 125242850.064 6  97591852.21946  23832922.093    23832921.199    23832925.878
        40.250          39.000
 116194825.963 7                  22111140.216
        46.250
 123489071.039 8                  23499188.925
        49.500
 137702939.970 6                  26203998.694
        36.000
 194881119.868 7                  37084643.395
        46.750
  30464888.961 7                   5797276.373
        44.000
 118047487.430 7                  22463690.120
        45.250
 117730391.060 7                  22016178.930
        47.750
 203696841.926 7                  38762217.878
        43.250
 179803053.756 7                  34215140.520
        47.250
 109529723.515 8                  20525823.408
        50.500
 109715003.961 8                  20553317.146
        50.500
 101573221.872 8                  18981385.074
        52.750
 108253067.309 8                  20222581.866
        51.500
 124806363.324 7                  23306708.306
        44.000
 21 11 12  9 58  0.0000000  0 24G17G02G04G19G06G07G20G09E09G30E11E04
                                E19S36S48E12R24S23S25R02R18R17R03R04
 117355949.728 7  91446193.38645  22332095.007    22332094.645    22332095.799
        45.000          35.250
 124902895.419 7  97326923.04845  23768231.040    23768229.963    23768228.382
        42.500          31.500
 120959700.261 6  94254312.27044  23017865.853    23017865.599    23017866.357
        41.250          28.250
 112584643.555 7  87728283.29946  21424146.259    21424145.021    21424144.279
        47.500          40.000
 107298974.061 8  83609599.11749  20418315.615    20418315.468    20418317.634
        50.250          56.000
 118085292.492 7  92014517.94947  22470884.043    22470883.574    22470883.821
        46.250          47.000
 124631432.372 6  97115403.97144  23716573.142    23716572.029    23716572.599
        39.500          25.250
 108378503.349 8  84450786.52149  20623743.431    20623742.980    20623744.441
        50.500          55.250
 123640350.747 7                  23527976.006
        44.750
 125152680.783 6  97521590.49346  23815763.457    23815762.541    23815767.502
        40.250          39.250
 116156408.014 7                  22103829.602
        45.250
 123504103.571 8                  23502049.492
        49.000
 137775860.523 5                  26217875.275
        35.750
 194881107.558 7                  37084640.265
        46.750
  30464579.506 7                   5797230.396
        43.750
 118089981.873 7                  22471776.714
        44.750
 117851412.466 7                  22038811.051
        47.500
 203696898.240 7                  38762229.187
        43.250
 179804356.718 7                  34215513.176
        47.250
 109598140.582 8                  20538644.908
        50.750
 109628744.691 8                  20537157.398
        50.250
 101602568.470 8                  18986868.920
        52.750
 108239714.526 8                  20220087.393
        52.000
 124730012.689 7                  23292450.154
        43.500
 21 11 12  9 58 30.0000000  0 24G17G02G04G19G06G07G20G09E09G30E11E04
                                E19S36S48E12R24S23S25R02R18R17R03R04
 117445429.504 7  91515917.80345  22349122.886    22349122.538    22349123.425
        45.250          35.500
 124815932.816 7  97259159.98645  23751682.324    23751681.242    23751679.546
        42.750          30.500
 121052061.795 7  94326282.25144  23035441.549    23035441.313    23035442.839
        42.000          29.500
 112659135.461 8  87786328.89246  21438321.374    21438320.136    21438319.452
        48.000          40.000
 107261573.310 8  83580455.67049  20411198.731    20411198.588    20411200.636
        50.500          56.000
 118024571.045 7  91967202.56647  22459329.063    22459328.590    22459328.773
        46.000          47.000
 124566247.515 6  97064610.59744  23704168.262    23704167.136    23704167.943
        40.000          25.250
 108424095.891 8  84486313.16649  20632419.488    20632419.037    20632420.493
        50.500          55.250
 123587120.470 7                  23517846.627
        45.250
 125062508.278 6  97451326.25246  23798603.746    23798602.843    23798607.918
        40.250          39.750
 116118274.175 7                  22096572.879
        45.500
 123519401.731 8                  23504960.751
        49.000
 137848801.921 5                  26231755.738
        35.750
 194881100.027 7                  37084639.862
        46.750
  30464270.051 7                   5797183.596
        44.000
 118132803.775 7                  22479925.345
        44.750
 117972745.166 8                  22061500.689
        48.000
 203696954.716 7                  38762241.224
        43.000
 179807274.058 7                  34215884.933
        47.250
 109666688.535 8                  20551490.939
        50.500
 109543020.698 8                  20521098.968
        50.250
 101632710.484 8                  18992501.987
        53.000
 108226743.300 8                  20217664.335
        52.000
 124653947.922 7                  23278245.624
        44.000
 21 11 12  9 59  0.0000000  0 24G17G02G04G19G06G07G20G09E09G30E11E04
                                E19S36S48E12R24S23S25R02R18R17R03R04
 117535112.504 7  91585800.57345  22366188.975    22366188.627    22366189.448
        44.500          35.000
 124729030.341 7  97191443.76145  23735145.105    23735144.032    23735141.979
        42.500          30.500
 121144579.120 6  94398373.61645  23053047.514    23053047.282    23053048.704
        41.750          30.000
 112734039.583 7  87844695.69646  21452575.135    21452573.901    21452573.120
        47.250          39.750
 107224561.627 8  83551615.39249  20404155.660    20404155.517    20404157.602
        50.250          55.750
 117964114.862 7  91920093.88647  22447824.529    22447824.056    22447824.460
        45.750          46.750
 124501057.193 6  97013812.94244  23691763.579    23691762.453    23691763.005
        40.000          25.500
 108470097.300 8  84522158.40849  20641173.300    20641172.853    20641174.195
        50.000          54.750
 123534134.150 7                  23507763.720
        45.250
 124972336.370 6  97381062.47846  23781444.617    23781443.723    23781448.657
        40.500          39.250
 116080426.939 7                  22089370.767
        45.750
 123534965.562 8                  23507922.290
        49.500
 137921764.021 6                  26245640.130
        36.250
 194881093.139 7                  37084638.892
        47.000
  30463962.432 7                   5797138.468
        43.750
 118175954.017 7                  22488136.666
        45.000
 118094386.757 7                  22084247.440
        47.000
 203697013.275 7                  38762251.893
        43.250
 179808604.726 7                  34216259.861
        47.250
 109735366.042 8                  20564360.768
        50.750
 109457837.633 8                  20505140.949
        50.000
 101663648.515 8                  18998283.613
        53.000
 108214153.070 8                  20215312.370
        51.750
 124578170.387 7                  23264095.249
        45.000
 21 11 12  9 59 30.0000000  0 24G17G02G04G19G06G07G20G09E09G30E11E04
                                E19S36S48E12R24S23S25R02R18R17R03R04
 117624993.226 7  91655837.41545  22383292.697    22383292.344    22383293.221
        44.500          34.500
 124642187.613 7  97123774.11345  23718619.459    23718618.409    23718616.744
        42.500          30.000
 121237247.501 6  94470582.68044  23070681.764    23070681.541    23070682.820
        41.750          29.500
 112809350.363 7  87903379.37646  21466906.317    21466905.079    21466904.344
        47.500          39.250
 107187938.656 8  83523078.01049  20397186.586    20397186.439    20397188.534
        50.250          55.750
 117903924.145 7  91873192.06247  22436370.488    22436370.019    22436370.654
        46.000          46.750
 124435858.823 6  96963009.03444  23679356.546    23679355.393    23679356.380
        40.000          25.750
 108516503.066 8  84558318.72749  20650004.015    20650003.568    20650004.952
        50.250          55.000
 123481389.696 7                  23497726.552
        45.250
 124882165.400 6  97310799.44246  23764285.696    23764284.816    23764290.062
        41.000          39.750
 116042865.590 7                  22082223.053
        45.500
 123550791.487 8                  23510933.918
        49.000
 137994743.272 5                  26259527.126
        35.750
 194881085.660 7                  37084637.278
        46.500
  30463653.837 7                   5797091.503
        43.500
 118219430.017 7                  22496409.866
        44.500
 118216331.202 7                  22107052.835
        47.250
 203697069.668 7                  38762261.329
        43.000
 179809945.607 7                  34216635.316
        47.000
 109804168.196 8                  20577254.220
        50.750
 109373197.224 8                  20489284.949
        50.500
 101695379.562 8                  19004213.280
        52.750
 108201939.715 8                  20213030.829
        52.000
 124502677.884 7                  23249996.530
        44.000
 21 11 12 10  0  0.0000000  0 24G17G02G04G19G06G07G20G09E09G30E11E04
                                E19S36S48E12R24S23S25R02R18R17R03R04
 117715072.024 7  91726028.60045  22400434.150    22400433.797    22400434.811
        44.750          34.750
 124555409.681 7  97056154.95045  23702106.146    23702105.082    23702103.472
        42.500          30.250
 121330067.783 6  94542910.11744  23088344.593    23088344.370    23088345.559
        41.250          29.000
 112885067.718 7  87962379.86446  21481314.906    21481313.668    21481312.976
        47.250          39.500
 107151709.828 8  83494847.75149  20390292.370    20390292.227    20390294.298
        50.500          56.250
 117844004.613 7  91826501.54447  22424968.214    22424967.754    22424968.101
        46.250          47.000
 124370655.500 6  96912201.25944  23666948.959    23666947.824    23666948.227
        40.000          25.750
 108563314.238 8  84594794.95249  20658911.829    20658911.382    20658912.804
        50.250          55.000
 123428890.503 7                  23487736.403
        45.500
 124792001.277 6  97240541.73446  23747128.069    23747127.189    23747132.259
        41.000          40.000
 116005594.890 7                  22075130.708
        46.000
 123566881.531 8                  23513995.671
        49.000
 138067741.585 6                  26273418.206
        36.250
 194881075.452 7                  37084635.314
        46.750
  30463350.777 7                   5797044.904
        43.750
 118263234.769 7                  22504745.653
        44.750
 118338578.147 7                  22129914.049
        47.500
 203697128.615 7                  38762274.073
        43.000
 179812897.750 7                  34217011.840
        47.250
 109873095.866 8                  20590171.168
        50.500
 109289106.238 8                  20473531.963
        50.000
 101727906.022 8                  19010291.756
        53.000
 108190104.917 8                  20210819.976
        52.000
 124427473.766 7                  23235952.231
        44.000
 21 11 12 10  0 30.0000000  0 24G17G02G04G19G06G07G20G09E09G30E11E04
                                E19S36S48E12R24S23S25R02R18R17R03R04
 117805342.302 7  91796368.99145  22417612.346    22417611.989    22417612.589
        44.250          34.250
 124468694.835 7  96988584.96945  23685604.650    23685603.582    23685602.415
        42.500          30.500
 121423033.956 6  94615351.24044  23106035.437    23106035.214    23106036.336
        41.000          28.500
 112961185.095 7  88021692.06146  21495799.777    21495798.552    21495797.836
        47.750          39.750
 107115873.604 8  83466923.41949  20383473.054    20383472.911    20383474.899
        50.250          56.000
 117784354.886 7  91780021.26647  22413617.086    22413616.630    22413617.012
        46.000          47.000
 124305443.562 6  96861386.79544  23654539.328    23654538.188    23654539.550
        39.500          26.000
 108610525.105 8  84631582.62649  20667895.800    20667895.349    20667896.768
        50.000          55.000
 123376633.161 7                  23477792.006
        45.750
 124701843.090 6  97170288.64846  23729971.705    23729970.829    23729975.492
        41.500          40.250
 115968612.715 7                  22068093.245
        46.250
 123583230.984 8                  23517106.910
        49.750
 138140754.170 6                  26287312.229
        36.750
 194881067.237 7                  37084633.763
        46.750
  30463046.503 7                   5796999.987
        43.750
 118307364.400 7                  22513143.200
        45.000
 118461120.695 7                  22152829.814
        47.000
 203697187.001 7                  38762283.579
        43.000
 179814257.268 7                  34217389.674
        47.250
 109942143.254 8                  20603110.706
        50.500
 109205565.643 8                  20457882.014
        50.500
 101761223.498 8                  19016517.884
        53.000
 108178643.042 8                  20208678.621
        52.000
 124352554.813 7                  23221962.595
        43.500
 21 11 12 10  1  0.0000000  0 24G17G02G04G19G06G07G20G09E09G30E11E04
                                E19S36S48E12R24S23S25R02R18R17R03R04
 117895799.669 7  91866855.15645  22434825.566    22434825.204    22434826.163
        44.000          34.000
 124382043.841 7  96921064.72545  23669115.752    23669114.675    23669113.146
        42.500          30.750
 121516142.351 6  94687903.17544  23123753.674    23123753.451    23123754.009
        40.500          28.000
 113037697.980 7  88081312.44446  21510359.729    21510358.495    21510357.909
        47.250          40.000
 107080430.641 8  83439305.52149  20376728.447    20376728.300    20376730.284
        50.750          56.250
 117724976.519 7  91733752.44047  22402317.888    22402317.446    22402317.714
        46.000          47.000
 124240221.422 6  96810564.37344  23642128.406    23642127.271    23642127.516
        40.500          25.500
 108658132.138 8  84668679.00149  20676955.167    20676954.716    20676956.231
        50.000          55.000
 123324616.528 7                  23467893.620
        45.250
 124611692.236 6  97100041.27646  23712816.654    23712815.769    23712820.023
        40.750          39.750
 115931919.362 7                  22061110.784
        45.750
 123599837.318 8                  23520266.948
        49.250
 138213778.420 6                  26301208.391
        36.000
 194881052.354 7                  37084632.685
        47.000
  30462740.067 7                   5796953.137
        44.000
 118351817.343 7                  22521602.321
        44.500
 118583953.577 7                  22175800.271
        46.500
 203697241.904 7                  38762294.584
        43.250
 179817218.377 7                  34217768.810
        47.250
 110011305.859 8                  20616072.100
        51.000
 109122577.707 8                  20442335.489
        50.500
 101795329.819 8                  19022891.576
        53.250
 108167551.274 8                  20206606.461
        52.000
 124277919.654 7                  23208025.239
        44.000
 21 11 12 10  1 30.0000000  0 24G17G02G04G19G06G07G20G09E09G30E11E04
                                E19S36S48E12R24S23S25R02R18R17R03R04
 117986445.056 7  91937487.83445  22452074.947    22452074.581    22452075.550
        43.750          33.500
 124295463.120 7  96853599.22745  23652640.207    23652639.121    23652637.310
        43.250          31.750
 121609394.918 6  94760567.45744  23141499.081    23141498.853    23141499.808
        41.000          28.250
 113114607.527 7  88141241.91346  21524995.092    21524993.854    21524993.234
        47.250          39.250
 107045387.366 8  83411999.06449  20370059.832    20370059.685    20370061.722
        50.750          56.000
 117665876.277 7  91687700.34147  22391071.250    22391070.794    22391071.418
        45.250          46.750
 124174993.241 6  96759737.21944  23629716.087    23629714.938    23629714.658
        39.500          24.250
 108706137.493 8  84706085.75849  20686090.279    20686089.823    20686091.210
        50.000          54.750
 123272845.119 7                  23458041.800
        45.500
 124521555.801 6  97029805.14746  23695664.200    23695663.346    23695667.639
        40.750          39.500
 115895520.659 7                  22054184.251
        46.000
 123616703.709 8                  23523476.570
        49.500
 138286817.505 6                  26315107.251
        36.500
 194881049.877 7                  37084630.633
        46.750
  30462436.868 7                   5796908.658
        44.000
 118396597.665 7                  22530123.890
        44.750
 118707077.485 7                  22198824.930
        47.000
 203697299.996 7                  38762305.464
        43.500
 179818591.327 7                  34218151.625
        47.000
 110080585.649 8                  20629055.198
        51.000
 109040150.601 8                  20426894.200
        51.000
 101830228.354 8                  19029413.197
        53.000
 108156831.962 8                  20204604.416
        52.000
 124203572.878 7                  23194141.259
        43.750
 21 11 12 10  2  0.0000000  0 24G17G02G04G19G06G07G20G09E09G30E11E04
                                E19S36S48E12R24S23S25R02R18R17R03R04
 118077275.171 7  92008264.45845  22469359.676    22469359.314    22469360.102
        44.500          33.750
 124208953.826 7  96786189.40145  23636178.143    23636177.066    23636175.143
        43.500          31.750
 121702788.412 6  94833341.55144  23159271.039    23159270.794    23159272.133
        41.500          28.500
 113191910.030 7  88201477.58246  21539705.416    21539704.178    21539703.455
        47.000          39.250
 107010745.093 8  83385005.07849  20363467.738    20363467.595    20363469.629
        50.750          56.250
 117607055.855 7  91641866.27647  22379878.310    22379877.863    22379878.222
        45.750          47.000
 124109758.074 6  96708904.64544  23617301.918    23617300.756    23617301.022
        39.500          24.500
 108754538.075 8  84743800.48149  20695300.613    20695300.157    20695301.702
        50.000          55.000
 123221318.205 7                  23448236.568
        45.500
 124431435.564 6  96959581.63246  23678514.521    23678513.663    23678518.139
        41.000          40.000
 115859417.206 7                  22047314.127
        45.500
 123633828.065 8                  23526735.180
        49.500
 138359869.320 6                  26329008.702
        36.500
 194881045.988 7                  37084627.851
        46.500
  30462135.715 7                   5796862.283
        43.500
 118441704.224 7                  22538707.348
        45.000
 118830488.835 7                  22221903.325
        46.500
 203697360.265 7                  38762317.568
        43.000
 179819970.528 7                  34218535.237
        47.000
 110149979.879 8                  20642059.450
        51.250
 108958287.898 8                  20411558.315
        50.500
 101865917.542 8                  19036082.485
        53.000
 108146482.591 8                  20202670.927
        51.750
 124129513.883 7                  23180310.933
        43.500
 21 11 12 10  2 30.0000000  0 24G17G02G04G19G06G07G20G09E09G30E11E04
                                E19S36S48E12R24S23S25R02R18R17R03R04
 118168284.491 7  92079180.72845  22486677.986    22486677.620    22486678.566
        44.750          33.750
 124122515.474 7  96718834.83645  23619729.186    23619728.109    23619726.279
        43.000          31.750
 121796318.121 6  94906221.79144  23177069.356    23177069.111    23177070.376
        41.250          28.500
 113269599.694 7  88262014.93646  21554489.269    21554488.031    21554487.207
        47.250          39.000
 106976503.556 8  83358323.35149  20356951.790    20356951.647    20356953.550
        50.750          56.250
 117548515.414 7  91596250.38147  22368738.280    22368737.838    22368738.293
        46.000          47.000
 124044513.853 6  96658065.02043  23604885.997    23604884.857    23604885.115
        40.000          23.750
 108803329.409 8  84781819.68549  20704585.199    20704584.743    20704586.324
        50.250          55.000
 123170033.592 7                  23438477.381
        45.500
 124341331.919 6  96889371.05546  23661368.531    23661367.664    23661372.092
        40.750          40.000
 115823608.224 7                  22040499.827
        46.000
 123651206.892 8                  23530042.236
        49.250
 138432930.302 6                  26342911.535
        36.000
 194881036.900 7                  37084626.783
        46.750
  30461832.850 7                   5796816.717
        43.750
 118487134.320 7                  22547352.446
        44.750
 118954180.788 7                  22245034.952
        46.750
 203697419.123 7                  38762326.842
        43.250
 179822955.061 7                  34218919.837
        47.250
 110219483.676 8                  20655084.171
        50.750
 108876990.892 8                  20396328.563
        50.750
 101902393.866 8                  19042898.820
        52.750
 108136499.104 8                  20200805.655
        51.750
 124055740.199 7                  23166534.859
        44.250
 21 11 12 10  3  0.0000000  0 24G17G02G04G19G06G07G20G09E09G30E11E04
                                E19S36S48E12R24S23S25R02R18R17R03R04
 118259475.264 7  92150238.38245  22504031.343    22504030.977    22504031.748
        44.750          33.750
 124036155.532 7  96651541.39545  23603295.408    23603294.326    23603292.874
        42.750          31.750
 121889986.921 6  94979210.41544  23194894.515    23194894.270    23194894.944
        40.750          28.250
 113347678.739 7  88322855.70946  21569347.215    21569345.977    21569345.278
        47.250          38.750
 106942669.946 8  83331959.49249  20350513.500    20350513.353    20350515.232
        50.500          56.000
 117490262.810 7  91550858.77547  22357653.242    22357652.795    22357653.140
        46.000          47.000
 123979265.154 6  96607221.86943  23592469.840    23592468.749    23592468.488
        39.000          22.750
 108852514.465 8  84820145.69449  20713944.890    20713944.434    20713945.855
        50.000          54.500
 123118996.630 7                  23428765.604
        45.750
 124251252.812 6  96819179.60946  23644226.849    23644226.009    23644230.753
        40.500          40.250
 115788100.405 7                  22033742.903
        46.000
 123668844.134 8                  23533398.515
        49.000
 138506004.440 5                  26356817.043
        35.500
 194881026.200 7                  37084625.732
        46.750
  30461534.852 7                   5796770.007
        43.500
 118532892.881 7                  22556060.062
        44.500
 119078155.287 7                  22268219.145
        46.750
 203697482.040 7                  38762340.029
        43.000
 179824354.733 7                  34219306.229
        47.250
 110289099.637 8                  20668130.429
        50.500
 108796268.892 8                  20381206.725
        50.500
 101939661.730 8                  19049863.308
        52.500
 108126884.856 8                  20199009.871
        51.750
 123982257.382 7                  23152812.247
        44.500
 21 11 12 10  3 30.0000000  0 24G17G02G04G19G06G07G20G09E09G30E11E04
                                E19S36S48E12R24S23S25R02R18R17R03R04
 118350837.669 7  92221429.77645  22521417.039    22521416.682    22521417.913
        44.750          34.000
 123949869.200 7  96584305.30845  23586875.886    23586874.795    23586873.139
        42.500          31.750
 121983785.735 6  95052300.33344  23212743.345    23212743.109    23212744.239
        40.500          28.500
 113426137.464 7  88383992.33046  21584277.337    21584276.090    21584275.677
        47.000          39.000
 106909239.543 8  83305909.82049  20344151.818    20344151.675    20344153.579
        50.500          56.000
 117432293.798 7  91505688.15147  22346622.049    22346621.602    22346621.974
        45.750          47.250
 123914005.703 6  96556370.35243  23580051.239    23580050.131    23580049.786
        40.000          23.250
 108902084.304 8  84858771.52749  20723377.624    20723377.168    20723378.801
        49.750          54.750
 123068200.741 7                  23419099.244
        45.500
 124161194.269 6  96749004.18046  23627089.002    23627088.166    23627093.255
        41.000          40.500
 115752888.573 7                  22027042.188
        46.000
 123686731.923 8                  23536802.483
        49.250
 138579083.837 6                  26370724.029
        36.000
 194881015.538 7                  37084623.787
        46.750
  30461238.247 7                   5796725.098
        43.750
 118578972.865 7                  22564828.740
        44.500
 119202402.271 7                  22291453.818
        46.500
 203697540.559 7                  38762350.676
        43.250
 179825759.419 7                  34219694.380
        47.250
 110358819.331 8                  20681196.010
        50.250
 108716119.163 8                  20366192.035
        50.500
 101977713.121 8                  19056974.295
        52.750
 108117631.421 8                  20197281.242
        51.750
 123909058.587 7                  23139142.161
        44.000
 21 11 12 10  4  0.0000000  0 25G17G02G04G19G06G07G20G09E09G30E11E04
                                E19S36S48E12R19R24S23S25R02R18R17R03
                                R04
 118442374.317 7  92292756.94945  22538835.931    22538835.574    22538836.667
        45.000          34.000
 123863663.732 7  96517132.23145  23570471.779    23570470.688    23570468.017
        42.750          30.250
 122077717.680 6  95125493.98844  23230618.228    23230617.987    23230619.353
        41.500          28.750
 113504977.848 7  88445426.34546  21599280.190    21599278.952    21599278.467
        47.250          39.000
 106876219.968 8  83280180.27449  20337868.427    20337868.284    20337870.190
        50.500          56.000
 117374616.493 7  91460744.83247  22335646.165    22335645.723    22335646.202
        46.000          47.000
 123848740.365 6  96505514.25344  23567630.879    23567629.766    23567630.060
        39.500          24.000
 108952042.204 8  84897699.75049  20732884.256    20732883.796    20732885.332
        50.000          54.750
 123017651.547 7                  23409480.002
        46.000
 124071164.482 6  96678851.15546  23609956.699    23609955.859    23609960.953
        40.750          40.250
 115717979.778 7                  22020399.510
        46.000
 123704874.542 8                  23540254.922
        49.250
 138652172.773 6                  26384632.166
        36.000
 194881008.278 7                  37084623.536
        46.750
  30460943.641 7                   5796679.429
        43.500
 118625379.451 7                  22573659.692
        45.000


 119326923.276 7                  22314740.126
        47.250
 203697601.289 7                  38762361.350
        43.000
 179828765.063 7                  34220083.773
        47.250
 110428644.777 8                  20694281.465
        50.500
 108636550.789 8                  20351286.398
        50.750
 102016552.512 8                  19064232.496
        52.750
 108108742.480 8                  20195620.923
        51.750
 123836149.462 7                  23125527.427
        44.250
 21 11 12 10  4 30.0000000  0 25G17G02G04G19G06G07G20G09E09G30E11E04
                                E19S36S48E12R19R24S23S25R02R18R17R03
                                R04
 118534076.780 7  92364213.32945  22556286.357    22556286.013    22556287.085
        44.750          34.000
 123777536.032 7  96450019.72145  23554081.736    23554080.650    23554077.812
        43.000          30.500
 122171775.190 6  95198785.48244  23248516.504    23248516.259    23248517.760
        41.000          28.250
 113584191.912 7  88507151.54246  21614353.995    21614352.757    21614352.387
        47.000          38.750
 106843607.914 8  83254768.27249  20331662.654    20331662.507    20331664.512
        50.750          56.250
 117317228.107 7  91416026.64247  22324725.856    22324725.418    22324725.427
        46.000          47.000
 123783464.251 6  96454649.77244  23555209.687    23555208.570    23555208.756
        40.500          24.500
 109002380.699 8  84936924.54249  20742463.587    20742463.131    20742464.299
        50.000          54.500
 122967343.888 7                  23399906.966
        45.750
 123981160.938 6  96608718.60046  23592830.130    23592829.299    23592833.757
        41.000          40.000
 115683370.194 7                  22013813.475
        45.750
 123723265.502 8                  23543754.586
        49.000
 138725264.792 5                  26398541.116
        35.250
 194881002.809 7                  37084620.607
        46.750
  30460646.751 7                   5796635.281
        43.500
 118672107.042 7                  22582551.660
        44.750


 119451709.584 7                  22338075.487
        47.000
 203697660.726 7                  38762374.872
        43.250
 179830170.953 7                  34220474.705
        47.250
 110498568.918 8                  20707385.147
        50.750
 108557562.791 8                  20336489.044
        50.750
 102056173.414 8                  19071636.468
        52.750
 108100210.930 8                  20194027.061
        52.250
 123763524.876 7                  23111964.917
        44.250
 21 11 12 10  5  0.0000000  0 25G17G02G04G19G06G07G20G09E09G30E11E04
                                E19S36S48E12R19R24S23S25R02R18R17R03
                                R04
 118625943.610 7  92435797.78245  22573768.236    22573767.910    22573768.938
        44.500          33.750
 123691489.920 7  96382970.81345  23537707.903    23537706.803    23537704.912
        42.250          30.500
 122265957.545 6  95272174.26244  23266439.026    23266438.794    23266440.153
        41.000          28.000
 113663777.842 7  88569166.50146  21629498.939    21629497.692    21629497.012
        47.250          38.500
 106811407.015 8  83229676.65649  20325535.082    20325534.935    20325536.999
        50.500          56.000
 117260132.547 7  91371536.62547  22313860.614    22313860.181    22313860.582
        46.250          47.000
 123718178.901 6  96403778.07744  23542786.614    23542785.488    23542786.400
        39.750          25.750
 109053099.133 8  84976445.38649  20752114.883    20752114.423    20752115.818
        49.750          54.250
 122917279.511 7                  23390379.989
        46.000
 123891188.008 6  96538609.88446  23575708.350    23575707.519    23575712.143
        41.000          40.000
 115649062.929 7                  22007284.953
        45.750
 123741905.169 8                  23547301.646
        49.250
 138798360.303 6                  26412450.949
        36.250
 194880992.021 7                  37084619.847
        47.000
  30460348.406 7                   5796588.405
        44.000
 118719156.845 7                  22591504.848
        44.750


 119576758.927 7                  22361460.888
        46.500
 203697718.107 7                  38762385.166
        43.500
 179833182.438 7                  34220868.015
        47.500
 110568590.911 8                  20720507.135
        51.000
 108479160.459 8                  20321801.641
        50.500
 102096576.373 8                  19079186.735
        53.000
 108092036.461 8                  20192499.923
        52.250
 123691186.362 7                  23098457.936
        45.750
 21 11 12 10  5 30.0000000  0 25G17G02G04G19G06G07G20G09E09G30E11E04
                                E19S36S48E12R19R24S23S25R02R18R17R03
                                R04
 118717975.555 7  92507510.89445  22591281.276    22591280.950    22591282.164
        44.500          33.750
 123605531.019 7  96315989.86545  23521350.446    23521349.338    23521347.261
        43.250          30.500
 122360266.138 6  95345661.42444  23284385.403    23284385.171    23284386.465
        41.500          28.500
 113743736.072 7  88631471.56946  21644714.284    21644713.046    21644712.607
        47.250          38.750
 106779623.015 8  83204909.89449  20319486.502    20319486.355    20319488.642
        50.500          56.250
 117203336.110 7  91327279.68647  22303052.591    22303052.153    22303052.760
        46.250          47.500
 123652887.555 6  96352901.71044  23530361.977    23530360.846    23530362.865
        40.750          27.250
 109104199.008 8  85016263.46049  20761838.898    20761838.433    20761839.983
        49.750          54.750
 122867462.218 7                  23380899.975
        46.000
 123801252.135 6  96468530.04946  23558594.400    23558593.564    23558597.808
        41.500          40.500
 115615063.193 7                  22000815.104
        45.750
 123760796.103 8                  23550896.440
        49.250
 138871461.876 6                  26426361.381
        36.000
 194880988.237 7                  37084617.692
        46.750
  30460052.031 7                   5796543.680
        43.750
 118766532.249 7                  22600520.270
        45.000
 129433839.25115                  24196295.748
        30.250
 119702071.638 7                  22384895.001
        46.500
 203697778.592 7                  38762395.567
        43.250
 179834602.191 7                  34221262.403
        47.000
 110638712.437 8                  20733647.565
        49.750
 108401351.536 8                  20307225.593
        50.750
 102137763.722 8                  19086883.497
        52.750
 108084221.431 8                  20191040.203
        52.000
 123619137.810 7                  23085001.054
        43.500
 21 11 12 10  6  0.0000000  0 25G17G02G04G19G06G07G20G09E09G30E11E04
                                E19S36S48E12R19R24S23S25R02R18R17R03
                                R04
 118810167.447 7  92579348.63245  22608824.856    22608824.526    22608825.743
        44.000          33.250
 123519659.259 7  96249076.80245  23505009.419    23505008.315    23505006.172
        43.500          31.250
 122454696.375 6  95419243.35744  23302355.154    23302354.918    23302356.105
        40.750          28.250
 113824061.133 7  88694062.47646  21659999.837    21659998.594    21659997.959
        47.000          38.250
 106748255.652 8  83180467.78149  20313517.672    20313517.529    20313519.549
        50.750          56.250
 117146839.277 7  91283256.20547  22292301.668    22292301.230    22292301.634
        46.250          47.250
 123587588.444 6  96302019.29144  23517936.397    23517935.257    23517936.328
        40.500          27.500
 109155675.822 8  85056375.25149  20771634.597    20771634.137    20771635.761
        49.750          54.500
 122817889.824 7                  23371466.777
        46.000
 123711353.834 6  96398479.49346  23541487.322    23541486.477    23541491.092
        41.750          40.750
 115581370.194 7                  21994403.661
        46.000
 123779934.806 8                  23554538.380
        49.250
 138944566.047 6                  26440273.127
        36.500
 194880984.733 7                  37084617.611
        47.000
  30459757.799 7                   5796496.504
        44.000
 118814230.597 7                  22609596.841
        44.500
 129305326.717 5                  24172269.304
        30.250
 119827642.012 7                  22408376.954
        46.250
 203697841.388 7                  38762408.923
        43.500
 179837629.464 7                  34221657.914
        47.250
 110708928.753 8                  20746806.748
        50.250
 108324137.573 8                  20292760.605
        50.750
 102179732.141 8                  19094726.630
        52.750
 108076761.334 8                  20189646.321
        52.250
 123547376.713 7                  23071601.526
        44.250
 21 11 12 10  6 30.0000000  0 25G17G02G04G19G06G07G20G09E09G30E11E04
                                E19S36S48E12R19R24S23S25R02R18R17R03
                                R04
 118902512.023 7  92651305.34545  22626397.587    22626397.266    22626398.420
        44.000          33.250
 123433872.508 7  96182229.99345  23488684.827    23488683.719    23488682.308
        43.750          32.250
 122549241.654 6  95492914.93644  23320346.713    23320346.481    23320347.808
        40.750          28.750
 113904745.574 7  88756933.42446  21675353.639    21675352.410    21675351.816
        47.250          38.500
 106717302.573 8  83156348.48749  20307627.507    20307627.364    20307629.206
        51.000          56.250
 117090639.804 7  91239464.42847  22281607.347    22281606.914    22281607.131
        46.500          47.250
 123522276.967 7  96251127.24544  23505507.682    23505506.533    23505507.069
        42.000          28.250
 109207522.965 8  85096775.60549  20781500.860    20781500.400    20781502.168
        50.000          54.750
 122768558.062 7                  23362079.193
        46.000
 123621491.548 7  96328456.99346  23524386.718    23524385.878    23524390.888
        42.000          41.250
 115547981.061 7                  21988049.742
        46.000
 123799315.704 8                  23558226.476
        49.250
 139017667.324 5                  26454183.480
        35.500
 194880970.749 7                  37084614.656
        46.750
  30459463.469 7                   5796451.225
        43.750
 118862247.156 7                  22618734.259
        44.750
 129176884.661 5                  24148259.944
        31.000
 119953461.578 7                  22431906.336
        46.500
 203697899.294 7                  38762420.684
        43.250
 179839069.031 7                  34222055.723
        47.000
 110779232.472 8                  20759981.777
        51.000
 108247517.771 8                  20278407.253
        50.750
 102222475.831 8                  19102714.080
        52.750
 108069649.723 8                  20188318.079
        52.000
 123475898.700 7                  23058252.004
        44.000
 21 11 12 10  7  0.0000000  0 25G17G02G04G19G06G07G20G09E09G30E11E04
                                E19S36S48E12R19R24S23S25R02R18R17R03
                                R04
 118995015.296 7  92723385.71945  22644000.549    22644000.236    22644000.966
        43.250          33.250
 123348181.882 7  96115458.10245  23472378.198    23472377.090    23472376.210
        43.500          32.750
 122643908.952 6  95566681.58844  23338361.043    23338360.807    23338362.504
        40.250          28.750
 113985795.247 7  88820088.96646  21690776.763    21690775.525    21690775.162
        46.500          38.750
 106686775.016 8  83132560.76949  20301818.397    20301818.254    20301820.233
        50.500          56.500
 117034749.629 7  91195913.66347  22270971.806    22270971.368    22270971.547
        45.750          47.500
 123456962.258 6  96200232.67244  23493078.843    23493077.703    23493078.002
        41.500          28.500
 109259747.532 8  85137470.05849  20791438.848    20791438.388    20791439.942
        49.250          54.500
 122719476.334 7                  23352739.333
        46.500
 123531677.247 6  96258471.89646  23507295.567    23507294.736    23507299.814
        41.250          41.500
 115514906.620 7                  21981755.907
        46.000
 123818946.862 8                  23561962.189
        49.750
 139090773.853 6                  26468095.819
        37.000
 194880969.136 7                  37084614.352
        46.750
  30459173.731 7                   5796408.471
        43.500
 118910590.829 7                  22627933.667
        45.000
 129048526.446 5                  24124262.059
        31.000
 120079536.508 7                  22455482.644
        46.000
 203697963.608 7                  38762430.383
        43.250
 179840513.479 7                  34222455.812
        47.000
 110849631.952 8                  20773174.480
        50.500
 108171505.486 8                  20264167.719
        51.000
 102266002.735 8                  19110848.295
        52.750
 108062894.595 8                  20187055.872
        52.000
 123404713.363 7                  23044958.989
        43.750
 21 11 12 10  7 30.0000000  0 25G17G02G04G19G06G07G20G09E09G30E11E04
                                E19S36S48E12R19R24S23S25R02R18R17R03
                                R04
 119087667.288 7  92795581.97645  22661631.794    22661631.490    22661631.957
        43.750          33.250
 123262582.373 7  96048757.17545  23456089.247    23456088.139    23456086.291
        43.250          32.500
 122738689.031 6  95640536.12644  23356397.042    23356396.814    23356398.391
        40.250          27.750
 114067200.076 7  88883521.25446  21706267.831    21706266.597    21706266.155
        46.750          38.500
 106656668.035 8  83109100.77449  20296089.065    20296088.922    20296091.119
        50.750          56.500
 116979164.184 7  91152600.35847  22260394.385    22260393.947    22260394.206
        46.000          47.750
 123391637.345 6  96149330.16444  23480647.699    23480646.550    23480647.468
        41.500          28.500
 109312340.282 8  85178451.41449  20801446.844    20801446.388    20801447.934
        49.500          54.500
 122670637.722 7                  23343445.627
        46.500
 123441906.764 6  96188520.94146  23490212.876    23490212.054    23490216.817
        41.000          41.250
 115482141.357 7                  21975520.822
        46.000
 123838820.131 8                  23565743.954
        49.500
 139163877.563 6                  26482006.400
        36.500
 194880963.917 7                  37084612.795
        46.750
  30458885.653 7                   5796362.132
        43.500
 118959254.270 7                  22637194.076
        45.000
 128920248.628 5                  24100284.129
        31.000
 120205855.992 7                  22479105.668
        46.000
 203698026.625 7                  38762443.046
        42.750
 179843559.453 7                  34222854.247
        47.000
 110920117.431 8                  20786383.145
        50.250
 108096097.644 8                  20250041.112
        51.000
 102310304.559 8                  19119127.228
        52.750
 108056486.912 8                  20185858.668
        51.500
 123333813.786 7                  23031720.070
        44.750
 21 11 12 10  8  0.0000000  0 25G17G02G04G19G06G07G20G09E09G30E11E04
                                E19S36S48E12R19R24S23S25R02R18R17R03
                                R04
 119180468.185 7  92867894.26945  22679291.039    22679290.722    22679291.633
        44.000          33.000
 123177079.204 7  95982131.35845  23439818.582    23439817.469    23439816.574
        43.500          32.750
 122833582.648 6  95714479.12044  23374454.600    23374454.355    23374456.190
        39.750          27.000
 114148960.208 7  88947230.39646  21721826.159    21721824.930    21721824.674
        46.500          38.500
 106626986.699 8  83085972.44849  20290441.078    20290440.935    20290442.972
        50.750          56.500
 116923889.158 7  91109528.93648  22249875.465    22249875.018    22249875.863
        46.000          48.000
 123326305.172 6  96098422.00144  23468215.314    23468214.170    23468215.002
        40.750          27.500
 109365302.045 8  85219720.30449  20811525.159    20811524.699    20811526.341
        49.500          54.500
 122622045.403 7                  23334198.768
        46.000
 123352185.971 6  96118608.70346  23473139.591    23473138.751    23473143.316
        41.500          41.000
 115449689.764 7                  21969345.570
        46.000
 123858937.310 8                  23569572.050
        49.250
 139236980.294 6                  26495918.230
        36.500
 194880955.142 7                  37084612.880
        46.500
  30458598.023 7                   5796316.687
        43.500
 119008240.117 7                  22646515.732
        45.000
 128792057.985 4                  24076318.838
        29.500
 120332419.447 7                  22502773.397
        45.250
 203698090.607 7                  38762454.306
        43.000
 179845012.094 7                  34223257.378
        47.000
 110990689.570 8                  20799608.647
        50.250
 108021300.999 8                  20236029.254
        51.000
 102355382.719 8                  19127550.976
        52.500
 108050427.759 8                  20184727.054
        51.500
 123263202.634 7                  23018533.714
        44.500
 21 11 12 10  8 30.0000000  0 25G17G02G04G19G06G07G20G09E09G30E11E04
                                E19S36S48E12R19R24S23S25R02R18R17R03
                                R04
 119273408.263 7  92940315.00945  22696977.156    22696976.817    22696977.759
        43.750          32.500
 123091667.967 7  95915577.15445  23423565.011    23423563.907    23423563.218
        43.250          32.500
 122928580.837 6  95788503.62344  23392532.521    23392532.289    23392533.314
        40.000          26.500
 114231065.415 7  89011208.42946  21737450.212    21737448.978    21737448.859
        46.500          38.000
 106597726.215 8  83063172.06749  20284873.062    20284872.919    20284874.814
        50.750          56.000
 116868920.103 7  91066695.94347  22239415.357    22239414.906    22239415.597
        46.250          47.750
 123260959.089 6  96047503.00244  23455780.169    23455779.043    23455779.948
        39.750          25.500
 109418623.831 8  85261269.74149  20821671.952    20821671.492    20821673.029
        49.500          54.250
 122573692.709 7                  23324997.483
        46.000
 123262510.937 6  96048732.12246  23456074.978    23456074.138    23456078.688
        41.250          41.000
 115417546.554 7                  21963228.916
        46.000
 123879290.531 8                  23573445.134
        49.000
 139310074.232 5                  26509827.363
        35.000
 194880940.399 7                  37084610.117
        46.750
  30458305.411 7                   5796272.990
        43.500
 119057541.237 7                  22655897.473
        44.500
 128663951.369 5                  24052369.227
        30.000
 120459216.647 7                  22526486.045
        45.750
 203698151.168 7                  38762467.564
        43.250
 179848066.716 7                  34223659.229
        47.250
 111061339.848 8                  20812848.274
        50.250
 107947112.552 8                  20222131.283
        50.750
 102401229.063 8                  19136118.518
        52.750
 108044708.666 8                  20183658.627
        51.500
 123192873.494 7                  23005400.940
        44.500
 21 11 12 10  9  0.0000000  0 25G17G02G04G19G06G07G20G09E09G30E11E04
                                E19S36S48E12R19R24S23S25R02R18R17R03
                                R04
 119366491.966 7  93012847.65445  22714690.484    22714690.149    22714691.542
        44.000          33.000
 123006357.970 7  95849101.84545  23407331.395    23407330.304    23407329.100
        43.500          32.250
 123023688.750 6  95862613.62944  23410631.170    23410630.938    23410632.157
        40.000          28.000
 114313519.740 7  89075458.50546  21753141.125    21753139.891    21753139.407
        46.250          38.500
 106568895.930 8  83040706.90149  20279386.620    20279386.482    20279388.522
        51.000          56.500
 116814266.699 7  91024108.90948  22229015.180    22229014.738    22229015.176
        46.500          48.000
 123195606.525 6  95996578.95944  23443343.950    23443342.806    23443343.587
        38.750          24.750
 109472310.756 8  85303103.69249  20831888.289    20831887.829    20831889.551
        49.500          54.750
 122525587.057 7                  23315843.183
        45.750
 123172891.787 7  95978899.08146  23439021.284    23439020.448    23439024.926
        42.000          41.750
 115385720.535 7                  21957172.584
        45.500
 123899885.854 8                  23577364.354
        49.000
 139383165.675 5                  26523735.954
        35.250
 194880937.304 7                  37084608.149
        47.000
  30458017.679 7                   5796228.560
        44.000
 119107164.556 7                  22665340.438
        44.500
 128535940.253 4                  24028440.684
        29.750
 120586251.208 7                  22550242.190
        46.000
 203698214.362 7                  38762478.283
        43.250
 179849533.716 7                  34224064.635
        47.500
 111132072.488 8                  20826103.789
        50.250
 107873543.533 8                  20208349.281
        51.250
 102447849.718 8                  19144830.588
        53.000
 108039335.186 8                  20182654.676
        51.750
 123122833.242 7                  22992321.381
        44.750
 21 11 12 10  9 30.0000000  0 25G17G02G04G19G06G07G20G09E09G30E11E04
                                E19S36S48E12R19R24S23S25R02R18R17R03
                                R04
 119459717.907 7  93085491.14945  22732431.086    22732430.756    22732431.779
        44.250          32.250
 122921153.283 7  95782708.58745  23391117.245    23391116.163    23391115.703
        43.750          33.000
 123118905.845 6  95936808.70844  23428750.373    23428750.141    23428751.664
        40.750          28.000
 114396322.120 7  89139979.78946  21768897.644    21768896.406    21768896.184
        46.750          37.750
 106540499.419 8  83018579.74249  20273982.940    20273982.802    20273985.049
        50.750          56.250
 116759933.706 7  90981771.53747  22218675.836    22218675.394    22218675.903
        46.250          47.750
 123130249.281 6  95945651.26643  23430907.355    23430906.188    23430906.766
        38.500          23.500
 109526362.289 8  85345221.75849  20842174.004    20842173.544    20842175.133
        49.750          54.000
 122477730.204 7                  23306736.450
        46.250
 123083333.073 7  95909113.13846  23421978.743    23421977.903    23421982.508
        42.250          41.750
 115354215.010 7                  21951177.288
        46.000
 123920723.782 8                  23581329.738
        49.250
 139456255.162 5                  26537644.708
        35.750
 194880931.593 7                  37084608.038
        46.750
  30457736.505 7                   5796183.455
        43.750
 119157111.314 7                  22674845.038
        44.750
 128408030.229 5                  24004530.214
        30.000
 120713521.514 7                  22574042.301
        45.500
 203698280.475 7                  38762491.277
        43.250
 179851009.801 7                  34224471.642
        47.250
 111202887.734 8                  20839374.358
        50.250
 107800599.280 8                  20194684.450
        51.250
 102495244.738 8                  19153687.525
        52.750
 108034307.540 8                  20181715.910
        51.750
 123053083.690 7                  22979294.700
        44.000
 21 11 12 10 10  0.0000000  0 25G17G02G04G19G06G07G20G09E09G30E11E04
                                E19S36S48E12R19R24S23S25R02R18R17R03
                                R04
 119553074.108 7  93158236.14545  22750195.928    22750195.602    22750196.771
        44.750          32.500
 122836047.041 7  95716392.05345  23374922.302    23374921.225    23374920.515
        44.000          33.000
 123214221.014 6  96011080.21444  23446888.607    23446888.375    23446889.678
        40.500          28.000
 114479460.291 7  89204762.73146  21784718.601    21784717.367    21784716.749
        46.250          37.750
 106512529.846 8  82996785.26549  20268660.569    20268660.431    20268662.665
        50.750          56.250
 116705914.143 7  90939678.39747  22208396.133    22208395.700    22208396.144
        46.500          47.750
 123064878.282 6  95894712.85343  23418467.227    23418466.083    23418466.815
        40.000          23.500
 109580767.265 8  85387615.23549  20852526.881    20852526.416    20852527.914
        49.250          54.000
 122430113.342 7                  23297675.016
        46.500
 122993828.749 7  95839369.56947  23404946.673    23404945.842    23404950.156
        42.250          42.000
 115323022.476 7                  21945241.584
        46.250
 123941794.268 8                  23585339.273
        49.500
 139529332.796 5                  26551550.896
        35.500
 194880922.691 7                  37084607.429
        46.750
  30457450.260 7                   5796138.426
        43.500
 119207372.290 7                  22684409.415
        44.750
 128280215.794 5                  23980636.077
        30.250
 120841014.967 7                  22597883.732
        44.750
 203698339.482 7                  38762502.349
        43.000
 179854075.568 7                  34224880.340
        47.000
 111273774.620 8                  20852658.401
        50.500
 107728274.615 8                  20181135.723
        51.250
 102543403.448 8                  19162687.230
        52.500
 108029614.284 8                  20180838.963
        51.750
 122983616.097 7                  22966322.463
        44.250
 21 11 12 10 10 30.0000000  0 25G17G02G04G19G06G07G20G09E09G30E11E04
                                E19S36S48E12R19R24S23S25R02R18R17R03
                                R04
 119646566.074 7  93231086.93445  22767987.137    22767986.824    22767987.926
        44.000          32.250
 122751049.649 7  95650160.32045  23358747.654    23358746.586    23358745.037
        44.500          32.750
 123309640.376 6  96085432.89044  23465045.430    23465045.185    23465047.516
        39.500          27.500
 114562939.204 7  89269811.18746  21800604.104    21800602.879    21800602.143
        46.750          37.750
 106484997.421 8  82975331.42149  20263421.348    20263421.210    20263423.430
        50.750          56.750
 116652218.984 7  90897838.03947  22198178.442    22198178.013    22198178.254
        46.500          47.750
 122999501.674 6  95843770.06444  23406026.750    23406025.615    23406025.420
        40.750          24.750
 109635531.764 8  85430288.85749  20862948.274    20862947.809    20862949.245
        49.250          54.250
 122382744.856 7                  23288661.289
        46.250
 122904389.950 7  95769677.06446  23387926.742    23387925.924    23387930.275
        42.250          41.750
 115292152.819 7                  21939367.261
        46.000
 123963104.365 8                  23589394.385
        49.000
 139602405.706 5                  26565455.941
        34.500
 194880922.517 7                  37084605.113
        47.000
  30457167.581 7                   5796094.465
        43.750
 119257955.304 7                  22694035.250
        44.750
 128152509.298 5                  23956763.243
        31.000
 120968735.946 7                  22621768.914
        45.250
 203698401.610 7                  38762514.118
        43.250
 179855550.218 7                  34225290.508
        47.250
 111344739.004 8                  20865957.316
        49.750
 107656581.608 8                  20167705.262
        51.000
 102592332.780 8                  19171830.969
        52.750
 108025262.258 8                  20180026.079
        52.000
 122914438.580 7                  22953405.354
        45.500
 21 11 12 10 11  0.0000000  0 25G17G02G04G19G06G07G20G09E09G30E11E04
                                E19S36S48E12R19R24S23S25R02R18R17R03
                                R04
 119740186.332 7  93304037.68445  22785802.342    22785802.029    22785803.393
        44.500          32.000
 122666158.783 7  95584011.59845  23342593.511    23342592.443    23342590.737
        44.000          32.750
 123405157.267 6  96159861.56444  23483221.918    23483221.650    23483223.955
        39.750          27.500
 114646751.219 7  89335119.19746  21816552.856    21816551.627    21816551.192
        46.500          37.750
 106457899.632 8  82954216.25449  20258264.898    20258264.764    20258266.750
        51.250          56.500
 116598846.015 7  90856248.74147  22188021.882    22188021.453    22188021.666
        46.750          47.500
 122934115.692 6  95792819.96444  23393584.316    23393583.185    23393582.723
        41.500          25.500
 109690649.138 8  85473237.44849  20873436.830    20873436.370    20873437.722
        49.750          54.000
 122335620.357 7                  23279693.844
        46.000
 122815015.044 7  95700034.34846  23370919.196    23370918.378    23370922.696
        42.500          41.500
 115261602.932 7                  21933553.840
        45.750
 123984648.429 8                  23593494.217
        49.000
 139675468.433 5                  26579359.857
        35.000
 194880918.540 7                  37084605.194
        47.000
  30456885.184 7                   5796048.837
        44.000
 119308855.509 7                  22703721.118
        44.500
 128024910.013 5                  23932910.209
        30.750
 121096676.829 7                  22645694.711
        45.250
 203698465.435 7                  38762525.838
        43.250
 179858636.191 7                  34225703.789
        47.250
 111415774.742 8                  20879269.187
        49.750
 107585519.777 8                  20154392.633
        50.500
 102642026.479 8                  19181117.392
        52.750
 108021245.200 8                  20179275.345
        52.250
 122845546.540 7                  22940537.778
        44.250
 21 11 12 10 11 30.0000000  0 26G17G02G04G19G06G07G20G09G13E09G30E11
                                E04E19S36S48E12R19R24S23S25R02R18R17
                                R03R04
 119833932.798 7  93377086.77445  22803641.935    22803641.618    22803643.379
        44.000          32.000
 122581377.436 7  95517948.22145  23326459.960    23326458.887    23326457.888
        45.000          33.250
 123500770.234 6  96234365.10444  23501417.137    23501416.883    23501418.696
        39.750          27.250
 114730893.718 7  89400684.73246  21832564.766    21832563.532    21832562.994
        46.500          37.500
 106431239.088 8  82933441.79449  20253191.522    20253191.384    20253193.364
        51.250          56.500
 116545798.509 7  90814913.05147  22177927.200    22177926.780    22177926.987
        46.750          47.250
 122868720.820 7  95741862.93844  23381139.862    23381138.736    23381139.677
        42.000          26.750
 109746117.828 8  85516459.79249  20883991.999    20883991.534    20883993.224
        50.000          54.250
                                  25611565.494
        26.250
 122288740.597 7                  23270772.972
        46.000
 122725707.614 7  95630444.20446  23353924.360    23353923.533    23353927.990
        42.500          41.750
 115231375.012 7                  21927801.664
        45.750
 124006425.968 8                  23597638.293
        49.250
 139748520.651 5                  26593261.296
        35.000
 194880914.315 7                  37084602.663
        47.000
  30458201.759 7                   5796005.538
        43.750
 119360073.113 7                  22713467.538
        44.500
 127897422.369 5                  23909078.459
        30.000
 121224834.550 7                  22669660.183
        44.500
 203698528.414 7                  38762538.050
        43.250
 179860129.578 7                  34226114.923
        47.250
 111486880.181 8                  20892594.460
        50.250
 107515093.341 8                  20141199.225
        51.250
 102692483.639 8                  19190546.616
        52.750
 108017561.611 8                  20178587.322
        51.750
 122776940.628 7                  22927727.977
        44.000
 21 11 12 10 12  0.0000000  0 26G17G02G04G19G06G07G20G09G13E09G30E11
                                E04E19S36S48E12R19R24S23S25R02R18R17
                                R03R04
 119927802.631 7  93450231.99945  22821504.891    22821504.578    22821505.830
        43.500          31.750
 122496707.862 7  95451971.93745  23310347.915    23310346.847    23310345.143
        44.500          32.000
 123596477.073 6  96308941.79444  23519629.166    23519628.930    23519631.110
        40.000          27.250
 114815363.265 7  89466505.10746  21848639.140    21848637.911    21848636.939
        46.500          37.250
 106405017.757 8  82913009.58149  20248201.660    20248201.522    20248203.740
        51.000          56.500
 116493078.812 7  90773832.79647  22167895.192    22167894.768    22167894.629
        46.500          47.000
 122803317.022 6  95690898.94544  23368693.926    23368692.818    23368693.457
        41.750          26.750
 109801935.534 8  85559954.09549  20894613.808    20894613.343    20894614.772
        49.750          54.000
 134481859.71815 104791074.22852  25591046.662    25591046.336    25591050.530
        33.750          14.500
 122242105.623 7                  23261898.348
        46.250
 122636470.468 7  95560908.82347  23336942.884    23336942.062    23336946.686
        42.500          42.000
 115201470.493 7                  21922111.107
        46.000
 124028435.774 8                  23601826.610
        49.500
 139821561.296 5                  26607160.150
        35.000
 194880906.506 7                  37084602.314
        47.000
  30457919.537 7                   5795960.491
        44.000
 119411607.700 7                  22723274.176
        45.000
 127770050.986 4                  23885265.934
        29.750
 121353205.080 7                  22693667.462
        45.000
 203698592.567 7                  38762550.620
        43.250
 179861628.574 7                  34226529.590
        47.500
 111558053.014 8                  20905932.523
        50.250
 107445305.938 8                  20128126.310
        51.000
 102743702.310 8                  19200118.065
        52.750
 108014210.082 8                  20177961.492
        52.000
 122708620.850 7                  22914970.990
        46.000
 21 11 12 10 12 30.0000000  0 26G17G02G04G19G06G07G20G09G13E09G30E11
                                E04E19S36S48E12R19R24S23S25R02R18R17
                                R03R04
 120021790.700 7  93523469.35545  22839390.057    22839389.744    22839391.296
        43.500          31.250
 122412150.485 7  95386083.08445  23294256.974    23294255.906    23294254.908
        44.000          32.750
 123692273.898 6  96383588.61344  23537858.927    23537858.713    23537860.332
        40.000          27.250
 114900155.645 7  89532577.04646  21864774.181    21864772.952    21864772.333
        46.500          37.000
 106379235.741 8  82892919.68749  20243295.573    20243295.439    20243297.650
        51.000          56.250
 116440687.827 7  90733008.68147  22157925.274    22157924.845    22157924.833
        46.750          47.000
 122737902.829 6  95639926.86744  23356245.793    23356244.680    23356245.037
        41.500          27.000
 109858098.330 8  85603717.29349  20905301.029    20905300.569    20905302.366
        50.000          54.000
 134374105.675 5 104707109.97043  25570542.883    25570542.593    25570546.182
        32.000          18.000
 122195713.668 7                  23253070.315
        46.000
 122547304.724 7  95491429.08547  23319975.132    23319974.310    23319978.975
        42.500          42.250
 115171889.025 7                  21916481.883
        46.000
 124050674.854 8                  23606058.596
        49.250
 139894587.524 5                  26621056.747
        34.500
 194880901.221 7                  37084600.454
        46.750
  30457637.665 7                   5795916.928
        43.750
 119463456.992 7                  22733140.757
        44.750
 127642797.220 5                  23861476.851
        30.000
 121481783.616 7                  22717712.373
        44.500
 203698654.872 7                  38762563.114
        43.250
 179864746.223 7                  34226944.530
        47.500
 111629289.606 8                  20919281.908
        49.750
 107376159.497 8                  20115172.851
        51.250
 102795679.224 8                  19209831.031
        52.750
 108011186.830 8                  20177396.447
        51.750
 122640585.082 7                  22902263.917
        45.750
 21 11 12 10 13  0.0000000  0 26G17G02G04G19G06G07G20G09G13E09G30E11
                                E04E19S36S48E12R19R24S23S25R02R18R17
                                R03R04
 120115899.813 7  93596801.01745  22857298.315    22857298.002    22857300.041
        42.500          31.750
 122327713.180 7  95320287.80645  23278189.757    23278188.675    23278187.026
        42.750          32.750
 123788164.265 6  96458308.33644  23556106.448    23556106.229    23556107.503
        39.500          27.250
 114985273.103 7  89598902.29046  21880971.725    21880970.496    21880969.655
        46.000          37.000
 106353900.718 8  82873178.10149  20238474.444    20238474.306    20238476.436
        50.500          56.250
 116388633.647 7  90692447.00947  22148019.756    22148019.332    22148019.590
        46.500          47.500
 122672483.957 6  95588951.14644  23343797.425    23343796.312    23343796.612
        40.500          27.500
 109914609.605 8  85647752.03748  20916054.995    20916054.535    20916056.064
        49.000          53.750
 134266426.046 5 104623204.70441  25550052.000    25550051.933    25550055.835
        33.250           8.750
 122149570.547 7                  23244289.626
        46.250
 122458219.014 6  95422011.71147  23303022.720    23303021.907    23303026.571
        41.500          42.250
 115142637.878 7                  21910915.542
        45.750
 124073147.769 8                  23610334.997
        49.000
 139967604.118 5                  26634951.215
        35.500
 194880892.596 7                  37084600.159
        46.750
  30457361.845 7                   5795871.394
        43.500
 119515626.260 7                  22743068.376
        44.750
 127515671.048 5                  23837712.745
        30.250
 121610572.388 7                  22741796.539
        44.500
 203698721.431 7                  38762575.474
        43.250
 179866266.015 7                  34227362.188
        47.250
 111700593.580 8                  20932644.620
        49.500
 107307663.498 8                  20102341.196
        51.250
 102848418.407 8                  19219686.771
        52.500
 108008495.895 8                  20176893.308
        51.500
 122572839.086 7                  22889612.784
        43.500
 21 11 12 10 13 30.0000000  0 26G17G02G04G19G06G07G20G09G13E09G30E11
                                E04E19S36S48E12R19R24S23S25R02R18R17
                                R03R04
 120210119.831 7  93670219.09345  22875227.718    22875227.405    22875229.660
        42.750          32.000
 122243390.571 7  95254581.89045  23262143.862    23262142.767    23262140.305
        44.000          33.500
 123884138.542 6  96533093.42544  23574369.512    23574369.280    23574370.974
        40.250          27.750
 115070704.375 7  89665472.05946  21897228.815    21897227.586    21897226.936
        46.500          37.500
 106329007.097 8  82853780.46549  20233737.582    20233737.444    20233739.208
        51.000          56.500
 116336910.770 7  90652143.49848  22138176.954    22138176.534    22138176.963
        47.000          48.000
 122607053.004 6  95537966.00344  23331346.017    23331344.891    23331346.005
        40.500          27.750
 109971459.673 8  85692050.77549  20926873.248    20926872.788    20926874.318
        49.250          54.250
 134158816.25415 104539358.41652  25529574.480    25529573.747    25529578.938
        34.250          15.500
 122103668.766 7                  23235554.870
        46.500
 122369208.657 7  95352653.05047  23286084.566    23286083.735    23286088.436
        42.250          42.500
 115113710.942 7                  21905410.991
        46.250
 124095845.804 8                  23614654.401
        49.500
 140040602.504 6                  26648842.933
        36.250
 194880880.962 7                  37084599.251
        46.750
  30457085.030 7                   5795827.675
        43.750
 119568107.542 7                  22753055.187
        44.750
 127388668.991 5                  23813968.975
        30.250
 121739559.937 7                  22765917.425
        44.750
 203698786.295 7                  38762586.594
        43.000
 179869386.183 7                  34227780.531
        47.250
 111771955.144 8                  20946017.038
        49.250
 107239813.864 8                  20089630.401
        51.500
 102901910.121 8                  19229683.142
        52.500
 108006127.572 8                  20176451.409
        51.750
 122505375.245 7                  22877014.944
        45.500
 21 11 12 10 14  0.0000000  0 26G17G02G04G19G06G07G20G09G13E09G30E11
                                E04E19S36S48E12R19R24S23S25R02R18R17
                                R03R04
 120304456.025 7  93743727.71145  22893179.410    22893179.097    22893180.971
        42.500          32.000
 122159193.509 7  95188973.81245  23246121.498    23246120.403    23246118.754
        44.250          34.500
 123980203.235 6  96607948.97344  23592650.272    23592650.049    23592651.530
        39.750          27.250
 115156455.180 7  89732290.81646  21913546.581    21913545.352    21913544.929
        46.250          37.750
 106304565.346 8  82834734.94049  20229086.256    20229086.118    20229087.996
        50.750          56.500
 116285530.361 7  90612106.84548  22128399.561    22128399.137    22128399.438
        46.750          48.250
 122541618.518 6  95486978.12444  23318894.220    23318893.094    23318894.365
        40.500          27.500
 110028654.920 8  85736618.48649  20937757.096    20937756.640    20937758.310
        49.000          54.250
 134051284.534 6 104455567.51342  25509112.743    25509112.109    25509114.790
        37.000          17.250
 122058016.973 7                  23226867.503
        45.750
 122280285.167 7  95283362.07947  23269163.101    23269162.274    23269166.909
        42.500          42.750
 115085118.314 7                  21899969.950
        45.750
 124118776.390 8                  23619017.831
        49.000
 140113590.259 5                  26662731.820
        35.750
 194880884.280 7                  37084598.468
        46.750
  30456811.812 7                   5795784.609
        43.750
 119620908.953 7                  22763102.984
        44.250
 127261803.198 5                  23790255.266
        31.250
 121868751.618 7                  22790077.038
        44.500
 203698855.143 7                  38762600.787
        43.250
 179870926.753 7                  34228201.700
        47.250
 111843381.283 8                  20959402.993
        50.250
 107172622.715 8                  20077043.459
        51.750
 102956161.625 8                  19239821.167
        52.750
 108004088.960 8                  20176070.434
        51.750
 122438201.937 7                  22864470.259
        46.000
 21 11 12 10 14 30.0000000  0 26G17G02G04G19G06G07G20G09G13E09G30E11
                                E04E19S36S48E12R19R24S23S25R02R18R17
                                R03R04
 120398894.016 7  93817315.62845  22911150.650    22911150.355    22911151.890
        42.750          32.000
 122075112.842 7  95123456.41745  23230121.717    23230120.622    23230118.542
        44.250          34.250
 124076344.560 6  96682864.22744  23610945.128    23610944.936    23610946.597
        39.500          27.500
 115242510.574 7  89799346.91346  21929922.553    21929921.324    21929920.842
        46.250          37.750
 106280565.688 8  82816033.90249  20224519.313    20224519.179    20224520.958
        50.750          56.500
 116234483.168 7  90572329.83748  22118685.864    22118685.431    22118685.550
        46.500          48.250
 122476169.173 6  95435978.67544  23306439.679    23306438.562    23306438.978
        40.250          27.000
 110086181.451 8  85781444.33948  20948704.087    20948703.631    20948705.151
        49.000          53.750
 133943822.332 5 104371830.60841  25488660.903    25488660.215    25488665.304
        30.500           9.000
 122012603.525 7                  23218225.514
        46.250
 122191439.773 7  95214131.95147  23252256.303    23252255.476    23252260.053
        42.000          42.500
 115056849.729 7                  21894590.565
        46.000
 124141926.678 8                  23623423.247
        49.250
 140186554.789 6                  26676616.509
        36.000
 194880880.449 7                  37084597.516
        47.000
  30456538.595 7                   5795740.720
        44.000
 119674018.333 7                  22773209.419
        44.750
 127135066.274 5                  23766561.976
        31.750
 121998131.892 7                  22814272.582
        44.750
 203698917.704 7                  38762612.266
        43.500
 179874064.625 7                  34228621.880
        47.500
 111914858.467 8                  20972797.732
        49.750
 107106082.288 8                  20064577.943
        51.500
 103011158.499 8                  19250098.682
        52.750
 108002366.042 8                  20175748.610
        51.750
 122371307.268 7                  22851976.763
        44.250
 21 11 12 10 15  0.0000000  0 26G17G02G04G19G06G07G20G09G13E09G30E11
                                E04E19S36S48E12R19R24S23S25R02R18R17
                                R03R04
 120493439.801 7  93890987.54345  22929142.507    22929142.208    22929143.835
        42.750          32.000
 121991159.249 7  95058038.04745  23214145.722    23214144.636    23214142.937
        44.000          34.250
 124172569.110 6  96757844.34944  23629255.737    23629255.545    23629257.690
        39.500          26.750
 115328875.968 7  89866644.57046  21946357.171    21946355.933    21946355.580
        45.750          37.250
 106257018.686 8  82797685.58049  20220038.503    20220038.369    20220040.307
        50.500          56.500
 116183780.539 7  90532821.32448  22109037.412    22109036.983    22109037.139
        46.500          48.000
 122410713.615 6  95384974.38144  23293983.504    23293982.378    23293983.416
        40.000          26.500
 110144045.674 8  85826533.33048  20959715.171    20959714.715    20959716.423
        48.750          53.750
 133836439.924 5 104288156.08842  25468229.322    25468228.746    25468232.314
        30.750          16.000
 121967437.131 7                  23209630.687
        46.250
 122102684.071 7  95144971.72047  23235366.664    23235365.842    23235370.113
        42.000          42.250
 115028915.305 7                  21889274.876
        46.000
 124165304.107 8                  23627871.830
        49.250
 140259503.767 5                  26690497.917
        35.500
 194880872.933 7                  37084596.112
        47.000
  30456263.552 7                   5795696.397
        44.000
 119727443.885 7                  22783376.088
        44.750
 127008471.045 5                  23742895.519
        31.250
 122127706.245 7                  22838504.042
        43.750
 203698982.787 7                  38762625.672
        43.250
 179875619.873 7                  34229044.636
        47.250
 111986392.924 8                  20986203.359
        49.500
 107040204.728 8                  20052236.858
        51.250
 103066908.158 8                  19260516.707
        52.500
 108000966.007 8                  20175487.108
        51.750
 122304699.908 7                  22839540.528
        45.000
 21 11 12 10 15 30.0000000  0 26G17G02G04G19G06G07G20G09G13E09G30E11
                                E04E19S36S48E12R19R24S23S25R02R18R17
                                R03R04
 120588091.839 7  93964742.26945  22947154.303    22947154.004    22947155.472
        42.500          32.000
 121907336.748 7  94992721.83345  23198194.287    23198193.201    23198192.037
        43.750          33.500
 124268876.343 6  96832888.88944  23647582.469    23647582.246    23647584.094
        39.250          27.000
 115415549.705 7  89934182.49146  21962850.882    21962849.657    21962849.066
        46.000          37.250
 106233927.842 8  82779692.70449  20215644.394    20215644.260    20215646.433
        50.750          56.750
 116133426.185 7  90493584.19548  22099455.001    22099454.572    22099455.069
        46.500          48.250
 122345253.845 6  95333966.79644  23281527.282    23281526.165    23281526.934
        40.250          26.500
 110202247.008 8  85871884.99949  20970790.645    20970790.185    20970791.908
        48.750          54.000
 133729140.459 6 104204546.05643  25447810.230    25447809.788    25447813.589
        37.500          19.750
 121922519.411 7                  23201083.153
        46.500
 122014022.556 7  95075884.87647  23218494.904    23218494.077    23218498.350
        42.250          42.500
 115001318.117 7                  21884023.314
        46.000
 124188909.059 8                  23632363.648
        49.250
 140332437.821 5                  26704377.161
        35.250
 194880865.228 7                  37084596.183
        47.250
  30455998.053 7                   5795652.906
        44.000
 119781186.700 7                  22793602.965
        44.750
 126882022.911 5                  23719260.070
        30.500
 122257471.947 7                  22862771.232
        44.250
 203699053.359 7                  38762637.486
        43.500
 179877181.356 7                  34229470.612
        47.500
 112057984.992 8                  20999619.534
        49.250
 106974994.929 8                  20040021.052
        51.250
 103123410.353 8                  19271075.763
        52.750
 107999888.419 8                  20175286.081
        52.000
 122238381.333 7                  22827155.126
        46.000
 21 11 12 10 16  0.0000000  0 26G17G02G04G19G06G07G20G09G13E09G30E11
                                E04E19S36S48E12R19R24S23S25R02R18R17
                                R03R04
 120682834.605 7  94038567.69445  22965183.564    22965183.260    22965184.200
        42.500          31.000
 121823634.723 7  94927499.47945  23182266.770    23182265.684    23182263.143
        43.500          32.750
 124365251.603 6  96907986.43844  23665922.424    23665922.214    23665923.828
        39.250          27.250
 115502516.026 7  90001948.39846  21979399.916    21979398.691    21979398.376
        46.000          37.250
 106211282.300 8  82762046.82049  20211335.102    20211334.968    20211337.211
        50.750          56.500
 116083409.829 7  90454610.44148  22089937.347    22089936.918    22089937.220
        46.750          48.250
 122279777.172 6  95282946.02644  23269067.350    23269066.246    23269066.842
        41.500          26.750
 110260770.469 8  85917487.67148  20981927.364    20981926.904    20981928.524
        48.500          53.750
 133621913.362 6 104120992.69042  25427405.443    25427405.046    25427409.218
        38.000          13.250
 121877837.737 7                  23192580.536
        46.250
 121925445.465 7  95006863.82747  23201638.924    23201638.097    23201642.846
        42.000          42.750
 114974046.947 7                  21878833.673
        46.000
 124212727.721 8                  23636896.163
        49.500
 140405343.317 5                  26718250.330
        34.750
 194880852.597 7                  37084594.435
        46.750
  30455728.968 7                   5795608.029
        44.000
 119835233.602 7                  22803887.673
        44.500
 126755712.672 4                  23695646.835
        29.000
 122387413.562 7                  22887071.822
        45.000
 203699116.238 7                  38762649.810
        43.250
 179880337.292 7                  34229896.328
        47.000
 112129619.642 8                  21013043.960
        49.500
 106910443.795 8                  20027927.900
        51.250
 103180649.952 8                  19281772.218
        52.500
 107999119.117 8                  20175142.652
        52.000
 122172338.461 7                  22814821.810
        44.500
 21 11 12 10 16 30.0000000  0 26G17G02G04G19G06G07G20G09G13E09G30E11
                                E04E19S36S48E12R19R24S23S25R02R18R17
                                R03R04
 120777679.614 7  94112472.76945  22983231.536    22983231.223    22983233.091
        43.000          31.000
 121740070.160 7  94862384.26145  23166364.669    23166363.587    23166361.879
        43.750          33.250
 124461707.246 6  96983146.63044  23684277.444    23684277.234    23684278.676
        39.750          27.000
 115589786.075 7  90069950.97946  21996006.879    21996005.663    21996005.490
        46.000          37.250
 106189098.389 8  82744760.64849  20207113.777    20207113.643    20207115.521
        51.000          56.750
 116033748.380 7  90415913.23648  22080487.032    22080486.603    22080486.839
        47.000          48.250
 122214298.326 6  95231923.56444  23256607.258    23256606.154    23256606.237
        41.000          26.250
 110319628.321 8  85963350.91649  20993127.651    20993127.191    20993128.843
        49.250          54.000
 133514774.632 6 104037508.08343  25407018.464    25407018.084    25407021.516
        38.750          19.750
 121833406.510 7                  23184125.356
        46.250
 121836970.169 7  94937922.10047  23184802.922    23184802.095    23184806.597
        42.750          43.250
 114947117.547 7                  21873709.242
        45.750
 124236773.341 8                  23641472.009
        49.000
 140478233.717 5                  26732121.119
        34.750
 194880855.525 7                  37084593.889
        47.000
  30455463.628 7                   5795565.088
        44.000
 119889598.493 7                  22814233.073
        44.750
 126629559.781 5                  23672060.808
        31.000
 122517541.439 7                  22911405.728
        45.000
 203699185.555 7                  38762662.040
        43.500
 179881916.171 7                  34230323.123
        46.750
 112201309.319 8                  21026478.170
        49.250
 106846569.830 8                  20015962.641
        51.500
 103238639.611 8                  19292609.157
        52.750
 107998670.233 8                  20175058.573
        52.000
 122106585.783 7                  22802543.563
        44.500
 21 11 12 10 17  0.0000000  0 26G17G02G04G19G06G07G20G09G13E09G30E11
                                E04E19S36S48E12R19R24S23S25R02R18R17
                                R03R04
 120872619.121 7  94186451.49145  23001298.234    23001297.921    23001299.524
        43.000          31.000
 121656640.664 7  94797374.27245  23150488.445    23150487.372    23150485.540
        44.250          33.500
 124558236.337 6  97058364.04544  23702645.945    23702645.726    23702647.775
        39.500          27.500
 115677351.837 7  90138183.97846  22012670.192    22012668.972    22012668.732
        46.250          37.250
 106167372.996 8  82727831.76149  20202979.404    20202979.270    20202981.220
        51.000          56.750
 115984439.299 7  90377490.59948  22071103.899    22071103.479    22071103.515
        47.250          48.250
 122148812.526 7  95180895.68244  23244145.622    23244144.514    23244144.303
        42.000          26.500
 110378813.425 8  86009469.15748  21004390.242    21004389.782    21004391.385
        49.250          53.750
 133407722.51716 103954089.08953  25386646.513    25386646.624    25386649.788
        37.000          20.250
 121789220.891 7                  23175717.284
        45.750
 121748594.731 7  94869058.19047  23167985.603    23167984.776    23167989.330
        43.250          43.500
 114920526.585 7                  21868649.321
        45.000
 124261039.919 8                  23646089.695
        48.750
 140551103.228 5                  26745988.238
        35.000
 194880856.286 7                  37084592.521
        46.750
  30455198.843 7                   5795522.075
        43.500
 119944276.013 7                  22824637.953
        44.000
 126503562.886 5                  23648511.108
        33.000
 122647847.305 7                  22935773.729
        45.500
 203699255.444 7                  38762677.395
        43.250
 179885091.156 7                  34230753.588
        47.000
 112273046.788 8                  21039922.138
        49.250
 106783371.090 8                  20004123.452
        51.250
 103297372.318 8                  19303584.838
        52.750
 107998535.287 8                  20175033.367
        52.250
 122041118.078 7                  22790317.263
        44.500
 21 11 12 10 17 30.0000000  0 27G17G02G04G19G06G07G20G09G13G05E09G30
                                E11E04E19S36S48E12R19R24S23S25R02R18
                                R17R03R04
 120967643.099 7  94260496.04145  23019380.682    23019380.374    23019381.764
        42.500          31.000
 121573340.779 7  94732465.28545  23134637.146    23134636.073    23134634.362
        44.000          33.500
 124654829.830 6  97133631.63244  23721027.336    23721027.117    23721029.104
        39.250          27.250
 115765202.763 7  90206639.19446  22029387.788    22029386.568    22029386.179
        45.500          37.000
 106146100.970 8  82711256.14949  20198931.619    20198931.485    20198933.538
        50.750          56.750
 115935477.681 7  90339338.70948  22061786.578    22061786.158    22061786.460
        46.750          48.250
 122083312.579 6  95129856.77744  23231681.787    23231680.674    23231680.635
        40.500          26.000
 110438316.551 8  86055835.21948  21015713.411    21015712.951    21015714.302
        48.750          53.500
 133300749.769 6 103870733.67242  25366291.100    25366291.153    25366293.213
        36.750          14.250
 134361874.69814                  25568214.448
        26.750
 121745273.867 7                  23167354.391
        46.250
 121660315.073 7  94800268.90747  23151186.488    23151185.666    23151190.119
        43.000          43.500
 114894268.406 7                  21863652.484
        45.500
 124285519.177 8                  23650747.989
        49.000
 140623943.951 5                  26759849.483
        35.750
 194880848.685 7                  37084592.306
        46.500
  30454934.573 7                   5795477.395
        43.500
 119999258.592 7                  22835100.784
        44.500
 126377718.939 5                  23624985.081
        31.750
 122778320.578 7                  22960173.189
        45.000
 203699318.413 7                  38762690.296
        43.000
 179886672.450 7                  34231183.905
        46.750
 112344824.427 8                  21053373.294
        49.500
 106720844.021 8                  19992409.981
        51.000
 103356838.709 8                  19314697.355
        52.750
 107998705.228 8                  20175064.963
        51.750
 121975927.931 7                  22778143.639
        44.750
 21 11 12 10 18  0.0000000  0 27G17G02G04G19G06G07G20G09G05G13E09G30
                                E11E04E19S36S48E12R19R24S23S25R02R18
                                R17R03R04
 121062755.496 7  94334609.47445  23037480.109    23037479.792    23037481.153
        42.750          30.500
 121490180.005 7  94667664.69145  23118812.013    23118810.945    23118809.236
        44.250          33.750
 124751492.479 6  97208953.11144  23739421.803    23739421.584    23739423.553
        38.750          26.750
 115853342.291 7  90275319.28646  22046160.347    22046159.136    22046158.561
        46.250          37.250
 106125290.737 8  82695040.37349  20194971.538    20194971.404    20194973.635
        51.250          57.000
 115886872.919 7  90301464.89348  22052537.609    22052537.189    22052537.298
        47.000          48.500
 122017805.931 6  95078812.64644  23219215.813    23219214.696    23219215.253
        41.000          26.500
 110498142.218 8  86102452.60748  21027097.807    21027097.347    21027098.803
        49.000          53.750
                                  25554802.929
        37.000
 133193866.045 5 103787447.92642  25345950.846    25345950.610    25345953.519
        32.750          13.750
 121701572.142 7                  23159038.253
        46.500
 121572140.801 7  94731561.74047  23134407.171    23134406.349    23134410.843
        43.250          43.750
 114868351.141 7                  21858720.670
        45.750
 124310216.611 8                  23655447.798
        49.250
 140696761.622 5                  26773706.031
        35.000
 194880845.325 7                  37084591.730
        46.750
  30454670.798 7                   5795435.540
        43.750
 120054552.394 7                  22845622.862
        44.500
 126252038.969 4                  23601488.733
        29.500
 122908963.942 7                  22984604.114
        44.750
 203699383.370 7                  38762701.099
        43.250
 179889864.003 7                  34231615.945
        47.000
 112416646.148 8                  21066831.964
        49.000
 106658998.840 8                  19980824.220
        51.000
 103417043.565 8                  19325948.132
        52.750
 107999185.116 8                  20175154.389
        51.500
 121911022.047 7                  22766023.077
        44.250
 21 11 12 10 18 30.0000000  0 27G17G02G04G19G06G07G20G09G05G13E09G30
                                E11E04E19S36S48E12R19R24S23S25R02R18
                                R17R03R04
 121157956.340 6  94408791.82144  23055596.027    23055595.710    23055597.042
        41.250          29.250
 121407163.722 7  94602976.70345  23103014.601    23103013.533    23103012.366
        44.500          34.750
 124848225.058 6  97284329.08444  23757830.134    23757829.915    23757830.813
        38.500          26.250
 115941770.513 7  90344224.33246  22062987.510    22062986.299    22062986.104
        46.000          37.250
 106104947.241 8  82679188.28749  20191100.230    20191100.101    20191102.292
        51.000          57.000
 115838630.023 7  90263873.04748  22043357.398    22043356.974    22043356.950
        47.000          48.500
 121952295.519 6  95027765.60144  23206749.585    23206748.463    23206748.732
        41.000          26.750
 110558291.059 8  86149321.81548  21038543.632    21038543.172    21038544.552
        49.000          53.500
 134220906.486 5 104587726.44053  25541389.493    25541389.087    25541390.221
        34.500          23.250
 133087076.060 5 103704235.00243  25325628.579    25325628.343    25325631.395
        35.500          18.500
 121658118.595 7                  23150769.360
        46.250
 121484077.762 7  94662941.24847  23117649.143    23117648.321    23117652.918
        43.000          43.500
 114842779.103 7                  21853854.311
        45.750
 124335133.969 8                  23660189.329
        49.000
 140769558.215 5                  26787558.770
        34.500
 194880842.348 7                  37084590.656
        46.500
  30454412.966 7                   5795391.759
        43.250
 120110159.783 7                  22856204.598
        44.250
 126126530.024 5                  23578026.017
        30.750
 123039777.448 7                  23009067.099
        45.000
 203699452.610 7                  38762715.484
        43.000
 179891460.193 7                  34232051.311
        46.750
 112488513.086 8                  21080300.444
        49.500
 106597842.244 8                  19969367.503
        51.500
 103477987.671 8                  19337337.243
        52.750
 107999975.700 8                  20175302.288
        51.500
 121846403.292 7                  22753955.814
        44.500
 21 11 12 10 19  0.0000000  0 27G17G02G04G19G06G07G20G09G05G13E09G30
                                E11E04E19S36S48E12R19R24S23S25R02R18
                                R17R03R04
 121253237.398 6  94483036.69544  23073727.585    23073727.268    23073728.429
        40.500          28.500
 121324288.519 7  94538398.64245  23087244.316    23087243.252    23087241.727
        44.000          34.500
 124945020.241 6  97359753.84044  23776249.012    23776248.780    23776250.347
        38.500          25.750
 116030478.728 7  90413347.55546  22079868.225    22079867.005    22079866.787
        45.750          36.750
 106085066.745 8  82663696.97849  20187317.251    20187317.122    20187319.125
        51.000          56.750
 115790746.188 7  90226560.99248  22034244.974    22034244.550    22034244.865
        46.750          48.250
 121886775.984 6  94976711.43744  23194281.701    23194280.579    23194280.100
        40.000          26.000
 110618755.416 8  86196436.88448  21050049.646    21050049.186    21050050.640
        48.750          53.000
 134150415.16316 104532779.98153  25527972.598    25527972.830    25527972.675
        36.500          18.750
 132980375.957 6 103621092.06343  25305323.892    25305323.723    25305326.682
        37.250          18.000
 121614907.786 7                  23142546.578
        46.250
 121396123.458 7  94594405.49347  23100911.978    23100911.160    23100915.684
        43.000          43.250
 114817548.191 7                  21849053.098
        45.500
 124360264.655 8                  23664971.657
        48.750
 140842327.370 5                  26801406.487
        34.000
 194880837.005 7                  37084589.606
        46.500
  30454153.193 7                   5795348.867
        43.500
 120166074.764 7                  22866844.677
        44.250
 126001190.446 5                  23554597.023
        32.250
 123170751.995 7                  23033559.957
        45.500
 203699523.030 7                  38762729.297
        42.750
 179893059.116 7                  34232487.281
        46.750
 112560417.787 8                  21093775.344
        49.500
 106537371.698 8                  19958039.282
        51.500
 103539663.121 8                  19348862.723
        52.750
 108001069.874 8                  20175506.335
        51.250
 121782065.490 7                  22741941.445
        45.750
 21 11 12 10 19 30.0000000  0 27G17G02G04G19G06G07G20G09G05G13E09G30
                                E11E04E19S36S48E12R19R24S23S25R02R18
                                R17R03R04
 121348593.189 6  94557339.76844  23091873.291    23091872.961    23091874.694
        41.750          28.750
 121241554.026 7  94473930.22145  23071500.232    23071499.173    23071497.529
        45.000          35.000
 125041873.162 6  97435223.57844  23794679.949    23794679.708    23794681.181
        39.500          26.500
 116119460.919 7  90482684.26546  22096801.228    22096800.003    22096799.592
        46.250          36.750
 106065648.141 8  82648565.58849  20183622.056    20183621.927    20183623.901
        51.000          56.500
 115743220.570 7  90189528.06448  22025201.550    22025201.126    22025201.214
        47.000          48.500
 121821244.896 6  94925648.27044  23181811.571    23181810.449    23181810.224
        41.250          26.500
 110679530.271 8  86243793.90148  21061614.893    21061614.433    21061615.709
        49.000          53.250
 134079883.223 4 104477820.02542  25514549.307    25514549.258    25514551.319
        28.500          15.500
 132873765.304 5 103538018.76341  25285036.312    25285036.169    25285040.129
        31.500           8.250
 121571936.898 7                  23134369.378
        46.250
 121308278.103 7  94525954.62847  23084195.804    23084195.000    23084199.163
        43.500          43.500
 114792657.105 7                  21844316.426
        45.500
 124385604.693 8                  23669793.655
        49.000
 140915065.458 5                  26815247.749
        34.250
 194880833.743 7                  37084588.644
        46.500
  30453891.633 7                   5795305.103
        43.750
 120222293.983 7                  22877542.969
        44.250
 125876021.761 5                  23531195.952
        32.250
 123301881.222 7                  23058082.205
        45.250
 203699588.780 7                  38762741.536
        43.000
 179896262.952 7                  34232923.653
        46.750
 112632356.811 8                  21107256.695
        49.250
 106477587.896 8                  19946839.816
        51.250
 103602064.985 8                  19360524.162
        52.750
 108002462.949 8                  20175766.844
        51.500
 121718005.805 7                  22729977.960
        45.750
 21 11 12 10 20  0.0000000  0 27G17G02G04G19G06G07G20G09G05G13E09G30
                                E11E04E19S36S48E12R19R24S23S25R02R18
                                R17R03R04
 121444027.199 6  94631703.80145  23110034.374    23110034.030    23110035.845
        41.750          30.000
 121158969.289 7  94409578.49045  23055784.929    23055783.879    23055782.302
        44.750          35.250
 125138788.564 6  97510742.00944  23813122.259    23813122.045    23813123.816
        39.250          26.500
 116208720.092 7  90552236.81046  22113786.596    22113785.371    22113784.984
        46.000          36.750
 106046699.986 8  82633800.78149  20180016.255    20180016.126    20180018.137
        51.000          57.000
 115696062.325 7  90152781.40748  22016227.469    22016227.045    22016227.535
        47.000          49.000
 121755709.248 6  94874581.55044  23169340.381    23169339.264    23169339.298
        41.000          27.000
 110740620.119 8  86291396.36448  21073239.860    21073239.400    21073240.985
        48.750          53.500
 134009317.48816 104422853.85051  25501125.595    25501125.198    25501126.453
        38.250           9.750
 132767252.916 5 103455022.36442  25264766.796    25264766.676    25264771.310
        31.250          16.000
 121529212.614 7                  23126239.167
        46.250
 121220551.326 7  94457596.16047  23067501.763    23067500.954    23067505.339
        43.250          44.000
 114768113.899 7                  21839646.070
        45.500
 124411159.592 8                  23674656.616
        48.750
 140987778.292 5                  26829084.900
        34.000
 194880827.787 7                  37084588.125
        46.500
  30453635.582 7                   5795261.393
        43.250
 120278823.584 7                  22888300.306
        44.250
 125751034.494 5                  23507832.582
        30.500
 123433168.259 7                  23082633.769
        45.000
 203699656.107 7                  38762755.599
        42.750
 179897887.485 7                  34233362.686
        46.500
 112704334.021 8                  21120745.466
        49.250
 106418501.026 8                  19935770.757
        51.500
 103665197.817 8                  19372321.855
        52.750
 108004159.674 8                  20176083.631
        51.500
 121654230.816 7                  22718068.161
        45.000
 21 11 12 10 20 30.0000000  0 27G17G02G04G19G06G07G20G09G05G13E09G30
                                E11E04E19S36S48E12R19R24S23S25R02R18
                                R17R03R04
 121539530.935 7  94706122.17745  23128208.065    23128207.717    23128209.444
        42.250          30.750
 121076531.014 7  94345340.88245  23040097.299    23040096.262    23040094.540
        45.000          35.000
 125235758.880 6  97586303.23144  23831574.950    23831574.754    23831576.825
        39.500          26.500
 116298247.949 7  90621998.71946  22130823.199    22130821.974    22130821.548
        46.000          36.750
 106028218.221 8  82619399.39149  20176499.266    20176499.132    20176501.242
        51.250          57.000
 115649268.144 7  90116318.43748  22007322.767    22007322.347    22007322.804
        46.750          49.000
 121690163.636 6  94823507.07644  23156867.326    23156866.200    23156866.959
        41.250          26.750
 110802017.082 8  86339238.13848  21084923.245    21084922.785    21084924.440
        49.000          53.250
 133938746.618 4 104367863.62442  25487693.080    25487692.741    25487697.088
        28.750          14.250
 132660834.757 5 103372099.15342  25244516.305    25244516.118    25244520.289
        34.500          17.500
 121486729.271 7                  23118154.855
        46.500
 121132940.418 7  94389327.98247  23050830.027    23050829.223    23050833.641
        43.750          44.000
 114743914.242 7                  21835040.987
        45.750
 124436922.546 8                  23679559.047
        49.000
 141060459.299 5                  26842915.829
        34.500
 194880818.695 7                  37084585.612
        46.500
  30453376.314 7                   5795218.653
        43.500
 120335657.313 7                  22899115.467
        44.250
 125626227.799 5                  23484500.977
        32.750
 123564603.790 7                  23107213.346
        45.000
 203699724.235 7                  38762768.035
        43.000
 179901114.325 7                  34233804.500
        46.750
 112776341.864 8                  21134239.742
        49.000
 106360108.614 8                  19924832.120
        51.500
 103729053.433 8                  19384254.778
        53.000
 108006152.558 8                  20176456.319
        51.500
 121590734.266 7                  22706211.558
        44.000
 21 11 12 10 21  0.0000000  0 27G17G02G04G19G06G07G20G09G05G13E09G30
                                E11E04E19S36S48E12R19R24S23S25R02R18
                                R17R03R04
 121635106.033 7  94780596.13245  23146395.437    23146395.071    23146397.228
        42.500          30.750
 120994245.725 7  94281222.48645  23024439.161    23024438.133    23024436.210
        44.500          34.750
 125332786.327 6  97661908.95444  23850038.856    23850038.678    23850040.428
        39.500          26.250
 116388045.172 7  90691970.52646  22147911.031    22147909.806    22147909.500
        45.750          36.500
 106010209.113 8  82605366.30449  20173072.236    20173072.102    20173074.512
        51.000          57.000
 115602844.143 7  90080143.92048  21998488.569    21998488.158    21998488.595
        46.750          48.750
 121624612.406 6  94772428.21044  23144393.884    23144392.753    23144392.139
        41.000          26.250
 110863723.172 8  86387320.79448  21096665.633    21096665.177    21096666.693
        48.750          53.250
 133868157.493 6 104312859.24043  25474263.948    25474263.466    25474264.276
        39.250          20.000
 132554516.794 6 103289254.99342  25224284.152    25224283.960    25224288.169
        36.000          15.000
 121444491.006 7                  23110117.253
        46.500
 121045452.560 7  94321155.67547  23034181.608    23034180.804    23034185.107
        43.250          44.000
 114720063.831 7                  21830502.421
        45.750
 124462896.551 8                  23684501.847
        49.000
 141133111.854 5                  26856740.783
        34.500
 194880816.427 7                  37084586.659
        46.500
  30453122.823 7                   5795175.153
        43.250
 120392798.806 7                  22909989.179
        44.250
 125501609.383 5                  23461205.820
        34.000
 123696188.237 7                  23131820.286
        44.750
 203699797.523 7                  38762781.937
        43.000
 179902748.632 7                  34234245.080
        46.750
 112848383.578 8                  21147740.076
        49.000
 106302418.297 8                  19914024.795
        51.000
 103793633.632 8                  19396323.038
        52.750
 108008444.240 8                  20176884.290
        51.750
 121527520.417 7                  22694406.509
        45.000
 21 11 12 10 21 30.0000000  0 27G17G02G04G19G06G07G20G09G05G13E09G30
                                E11E04E19S36S48E12R19R24S23S25R02R18
                                R17R03R04
 121730745.413 7  94855120.18945  23164594.703    23164594.355    23164596.879
        42.250          30.750
 120912111.821 7  94217222.05745  23008809.226    23008808.198    23008806.767
        45.000          34.000
 125429865.084 6  97737554.66444  23868512.084    23868511.915    23868514.046
        39.250          26.000
 116478104.738 7  90762146.75446  22165048.772    22165047.547    22165047.423
        46.000          36.250
 105992670.352 8  82591699.72049  20169734.777    20169734.648    20169736.978
        51.250          56.750
 115556789.199 7  90044256.97748  21989724.695    21989724.275    21989724.443
        47.000          48.500
 121559051.955 6  94721342.15444  23131917.983    23131916.839    23131916.034
        41.000          26.250
 110925732.272 8  86435639.55848  21108465.376    21108464.925    21108467.023
        48.750          53.000
 133797546.133 5 104257837.30742  25460826.622    25460826.211    25460826.862
        34.250          16.250
 132448296.770 6 103206486.41542  25204072.686    25204072.539    25204074.803
        36.750          14.500
 121402493.952 7                  23102125.464
        46.250
 120958086.907 7  94253078.60247  23017556.477    23017555.673    23017559.945
        43.500          44.000
 114696560.113 7                  21826029.825
        45.500
 124489076.603 8                  23689483.758
        48.750
 141205731.218 5                  26870560.061
        34.500
 194880814.603 7                  37084585.984
        46.750
  30452866.800 7                   5795132.633
        43.500
 120450243.606 7                  22920920.611
        44.000
 125377179.741 5                  23437945.201
        31.500
 123827914.639 7                  23156453.614
        44.250
 203699866.792 7                  38762792.101
        43.000
 179905991.505 7                  34234688.625
        46.500
 112920452.875 8                  21161245.763
        49.250
 106245429.102 8                  19903348.777
        51.250
 103858932.336 8                  19408525.935
        52.500
 108011028.448 8                  20177366.724
        51.500
 121464585.033 7                  22682653.393
        45.500
 21 11 12 10 22  0.0000000  0 27G17G02G04G19G06G07G20G09G05G13E09G30
                                E11E04E19S36S48E12R19R24S23S25R02R18
                                R17R03R04
 121826452.207 7  94929696.77945  23182807.608    23182807.278    23182809.248
        42.250          30.250
 120830137.175 7  94153345.70245  22993210.111    22993209.083    22993206.622
        44.750          33.750
 125526998.645 6  97813243.07644  23886996.412    23886996.238    23886997.606
        38.750          25.000
 116568428.378 7  90832528.75145  22182236.875    22182235.646    22182235.500
        45.750          35.750
 105975609.105 8  82578405.22949  20166488.175    20166488.046    20166490.120
        51.500          56.750
 115511110.879 7  90008663.50948  21981032.222    21981031.802    21981032.007
        47.250          48.500
 121493487.830 7  94670253.24544  23119441.282    23119440.133    23119440.176
        42.000          26.750
 110988047.589 8  86484196.94048  21120323.573    21120323.122    21120324.975
        49.250          52.750
 133726917.630 5 104202802.15343  25447386.946    25447386.544    25447386.806
        34.750          19.250
 132342161.37615 103123793.97253  25183880.230    25183879.985    25183883.316
        34.750          19.250
 121360743.433 7                  23094180.549
        46.500
 120870851.757 7  94185103.21647  23000956.182    23000955.373    23000959.753
        44.000          44.250
 114673409.835 7                  21821624.572
        45.750
 124515466.864 8                  23694505.649
        48.750
 141278321.926 5                  26884373.526
        34.000
 194880813.876 7                  37084584.848
        47.000
  30452616.692 7                   5795090.188
        44.000
 120507996.522 7                  22931910.503
        44.250
 125252948.237 5                  23414721.772
        33.250
 123959784.627 7                  23181114.830
        44.000
 203699937.366 7                  38762806.173
        43.500
 179907651.246 7                  34235134.262
        47.500
 112992554.163 8                  21174757.707
        49.500
 106189149.876 8                  19892805.807
        51.250
 103924952.347 8                  19420863.439
        52.500
 108013909.192 8                  20177905.060
        51.500
 121401933.014 7                  22670952.933
        44.500
 21 11 12 10 22 30.0000000  0 27G17G02G04G19G06G07G20G09G05G13E09G30
                                E11E04E19S36S48E12R19R24S23S25R02R18
                                R17R03R04
 121922217.704 7  95004319.09545  23201031.422    23201031.092    23201033.163
        42.250          30.750
 120748318.961 7  94089591.26245  22977640.694    22977639.662    22977638.149
        44.750          34.750
 125624179.691 6  97888968.48344  23905489.002    23905488.810    23905490.716
        38.750          25.750
 116659008.038 7  90903110.24545  22199473.599    22199472.383    22199472.259
        45.250          35.750
 105959021.653 8  82565479.92549  20163331.723    20163331.589    20163333.566
        51.000          57.000
 115465805.971 7  89973361.00548  21972410.849    21972410.420    21972410.750
        46.750          48.500
 121427915.090 6  94619157.62444  23106963.244    23106962.109    23106962.185
        40.750          27.000
 111050661.512 8  86532987.00048  21132238.696    21132238.254    21132239.899
        48.750          53.250
 133656265.812 5 104147748.73242  25433942.765    25433942.497    25433942.264
        34.750          17.750
 132236157.25816 103041188.09753  25163706.860    25163706.994    25163709.823
        37.750          20.500
 121319234.026 7                  23086281.466
        46.500
 120783744.729 7  94117227.67147  22984380.382    22984379.569    22984383.899
        44.000          45.000
 114650608.954 7                  21817285.791
        45.750
 124542060.825 8                  23699566.335
        48.750
 141350877.795 5                  26898180.161
        34.500
 194880815.078 7                  37084584.620
        46.750
  30452367.230 7                   5795047.359
        43.750
 120566051.513 7                  22942957.899
        44.250
 125128914.373 5                  23391533.926
        33.750
 124091789.448 7                  23205800.705
        44.500
 203700005.406 7                  38762818.891
        43.250
 179909309.577 7                  34235579.381
        47.250
 113064679.464 8                  21188274.317
        49.500
 106133578.716 8                  19882395.450
        51.750
 103991686.036 8                  19433334.248
        52.500
 108017078.969 8                  20178496.960
        51.250
 121339558.912 7                  22659304.960
        44.250
 21 11 12 10 23  0.0000000  0 27G17G02G04G19G06G07G20G09G05G13E09G30
                                E11E04E19S36S48E12R19R24S23S25R02R18
                                R17R03R04
 122018038.864 7  95078984.80045  23219265.585    23219265.264    23219267.259
        42.000          30.250
 120666658.963 7  94025960.10145  22962101.018    22962099.994    22962098.478
        45.000          34.750
 125721405.987 6  97964729.15744  23923990.270    23923990.087    23923992.256
        39.000          25.000
 116749840.018 7  90973888.34945  22216758.241    22216757.025    22216757.110
        45.250          35.750
 105942909.373 8  82552924.88649  20160265.742    20160265.608    20160267.468
        51.250          57.000
 115420876.339 7  89938350.92048  21963861.074    21963860.650    21963860.784
        47.000          48.500
 121362333.896 6  94568055.41744  23094483.461    23094482.326    23094482.687
        41.000          27.000
 111113571.482 8  86582007.74148  21144210.041    21144209.594    21144211.278
        48.500          53.000
 133585591.223 5 104092677.64743  25420492.052    25420491.802    25420493.381
        31.250          18.250
 132130248.609 6 102958661.93042  25143553.010    25143552.733    25143554.776
        36.500          15.250
 121277965.330 7                  23078428.391
        46.500
 120696768.483 7  94049454.02947  22967829.107    22967828.294    22967832.788
        43.500          45.000
 114628158.569 7                  21813013.469
        45.750
 124568856.957 8                  23704665.465
        48.750
 141423397.613 5                  26911980.532
        34.750
 194880807.911 7                  37084582.804
        46.750
  30452116.945 7                   5795005.710
        43.500
 120624407.672 7                  22954063.066
        44.000
 125005081.452 5                  23368383.883
        31.500
 124223924.973 7                  23230511.239
        44.500
 203700072.593 7                  38762833.661
        43.000
 179912571.284 7                  34236028.045
        47.250
 113136827.571 8                  21201795.000
        49.250
 106078718.227 8                  19872118.283
        52.000
 104059130.375 8                  19445937.695
        52.250
 108020535.711 8                  20179142.729
        51.750
 121277461.978 7                  22647710.605
        45.250
 21 11 12 10 23 30.0000000  0 27G17G02G04G19G06G07G20G09G05G13E09G30
                                E11E04E19S36S48E12R19R24S23S25R02R18
                                R17R03R04
 122113912.104 7  95153691.08244  23237509.451    23237509.116    23237511.206
        42.000          29.500
 120585158.664 7  93962453.38745  22946592.166    22946591.147    22946589.755
        45.500          35.000
 125818674.823 6  98040522.97144  23942500.275    23942500.074    23942502.010
        38.750          24.500
 116840920.104 7  91044859.78545  22234090.378    22234089.167    22234089.307
        45.500          35.750
 105927273.114 8  82540740.76949  20157290.208    20157290.083    20157292.136
        51.250          56.750
 115376323.453 7  89903634.40248  21955382.971    21955382.538    21955382.682
        47.000          48.500
 121296743.432 6  94516945.98844  23082001.732    23082000.615    23082001.449
        41.250          27.000
 111176774.461 8  86631256.79848  21156237.265    21156236.823    21156238.405
        48.500          52.500
 133514892.023 5 104037587.28943  25407039.781    25407039.531    25407039.123
        34.750          18.750
 132024431.86716 102876219.68752  25123417.990    25123417.624    25123421.966
        37.750          16.000
 121236936.499 7                  23070620.810
        46.250
 120609925.167 7  93981783.96847  22951303.378    22951302.560    22951306.932
        43.750          44.750
 114606059.176 7                  21808808.128
        45.750
 124595853.271 8                  23709802.703
        48.750
 141495879.754 5                  26925773.378
        33.500
 194880801.327 7                  37084581.490
        46.750
  30451867.423 7                   5794962.774
        43.750
 120683063.518 7                  22965224.872
        44.250
 124881452.884 5                  23345273.522
        31.000
 124356187.098 7                  23255244.208
        43.750
 203700138.881 7                  38762846.414
        43.250
 179914234.654 7                  34236476.294
        47.500
 113208995.633 8                  21215318.738
        49.250
 106024570.656 8                  19861974.332
        51.750
 104127281.938 8                  19458673.668
        52.500
 108024276.804 8                  20179841.767
        51.750
 121215640.796 7                  22636164.836
        45.000
 21 11 12 10 24  0.0000000  0 27G17G02G04G19G06G07G20G09G05G13E09G30
                                E11E04E19S36S48E12R19R24S23S25R02R18
                                R17R03R04
 122209844.118 6  95228443.15346  23255764.983    23255764.639    23255766.793
        41.500          36.750
 120503830.186 7  93899080.55145  22931115.880    22931114.865    22931112.933
        45.250          34.750
 125915993.733 6  98116355.80644  23961019.533    23961019.328    23961021.637
        38.250          24.750
 116932254.682 7  91116029.52446  22251470.736    22251469.520    22251469.869
        45.500          36.250
 105912123.978 8  82528936.22849  20154407.384    20154407.255    20154409.468
        51.000          57.000
 115332158.894 7  89869220.47348  21946978.698    21946978.265    21946978.446
        46.750          48.750
 121231153.827 6  94465837.23744  23069520.835    23069519.718    23069520.095
        41.250          28.250
 111240277.766 8  86680739.88048  21168321.486    21168321.044    21168322.410
        48.500          52.750
 133444177.220 5 103982484.97843  25393582.820    25393582.651    25393583.317
        35.500          21.000
 131918744.217 6 102793865.76343  25103306.809    25103306.456    25103309.771
        37.750          19.750
 121196156.877 7                  23062860.675
        46.500
 120523227.219 7  93914227.17847  22934805.385    22934804.572    22934808.652
        43.750          45.250
 114584321.525 7                  21804671.590
        45.750
 124623058.064 8                  23714979.625
        49.000
 141568332.833 5                  26939561.053
        34.250
 194880800.588 7                  37084582.250
        47.000
  30451625.838 7                   5794919.667
        44.000
 120742027.893 7                  22976445.389
        44.250
 124758042.405 5                  23322202.916
        33.500
 124488581.823 7                  23280003.119
        43.500
 203700211.810 7                  38762860.209
        43.250
 179917503.982 7                  34236927.785
        47.500
 113281191.675 8                  21228848.156
        48.500
 105971148.586 8                  19851966.618
        51.750
 104196148.044 8                  19471542.700
        52.750
 108028309.678 8                  20180595.229
        51.750
 121154104.759 7                  22624673.401
        45.250
 21 11 12 10 24 30.0000000  0 27G17G02G04G19G06G07G20G09G05G13E09G30
                                E11E04E19S36S48E12R19R24S23S25R02R18
                                R17R03R04
 122305822.086 6  95303231.03846  23274029.338    23274028.994    23274030.742
        41.250          40.000
 120422665.980 7  93835835.71045  22915671.153    22915670.125    22915667.873
        45.250          34.750
 126013350.956 6  98192218.48244  23979546.203    23979546.007    23979548.397
        38.500          24.750
 117023830.615 7  91187387.33045  22268897.220    22268896.000    22268896.113
        45.500          35.750
 105897453.692 8  82517504.82249  20151615.852    20151615.723    20151617.843
        51.000          57.000
 115288375.040 7  89835103.19348  21938646.813    21938646.380    21938646.646
        46.750          48.750
 121165555.128 6  94414721.38544  23057037.966    23057036.862    23057037.266
        41.750          28.500
 111304069.125 8  86730447.42048  21180460.578    21180460.136    21180461.712
        48.500          52.750
 133373437.216 5 103927362.78843  25380120.792    25380120.605    25380120.460
        33.250          18.500
 131813164.721 6 102711596.03743  25083216.531    25083215.977    25083218.270
        38.000          20.250
 121155616.402 7                  23055146.139
        46.750
 120436667.659 7  93846778.22247  22918333.574    22918332.756    22918336.961
        44.250          45.250
 114562936.942 7                  21800602.275
        46.000
 124650460.165 8                  23720194.055
        49.250
 141640746.074 5                  26953340.749
        33.250
 194880792.530 7                  37084581.561
        46.750
  30451382.393 7                   5794878.550
        43.750
 120801290.143 7                  22987722.682
        44.250
 124634844.361 5                  23299170.316
        33.750
 124621095.236 7                  23304784.061
        43.750
 203700282.586 7                  38762874.509
        43.000
 179919182.609 7                  34237380.510
        47.250
 113353403.718 8                  21242380.750
        48.500
 105918445.354 8                  19842093.582
        51.750
 104265715.786 8                  19484543.057
        52.500
 108032622.440 8                  20181400.855
        51.750
 121092843.253 7                  22613232.956
        45.250
 21 11 12 10 25  0.0000000  0 27G17G02G04G19G06G07G20G09G05G13E09G30
                                E11E04E19S36S48E12R19R24S23S25R02R18
                                R17R03R04
 122401842.924 6  95378052.32846  23292301.083    23292300.735    23292303.223
        41.250          40.750
 120341667.917 7  93772720.34045  22900256.994    22900255.979    22900254.749
        45.250          35.250
 126110744.140 6  98268109.19844  23998079.927    23998079.722    23998081.788
        38.250          24.750
 117115644.120 7  91258930.25845  22286368.840    22286367.624    22286367.668
        45.000          35.750
 105883263.469 8  82506447.48849  20148915.414    20148915.289    20148917.466
        51.000          56.750
 115244973.474 7  89801283.80548  21930387.693    21930387.269    21930387.635
        46.750          48.750
 121099947.464 7  94363598.55344  23044553.391    23044552.291    23044553.086
        42.000          29.000
 111368145.988 8  86780377.42948  21192653.914    21192653.472    21192655.201
        48.500          52.250
 133302671.739 5 103872220.93343  25366654.711    25366654.582    25366655.698
        35.500          21.500
 131707694.873 6 102629411.73142  25063146.365    25063145.775    25063147.955
        36.250          16.500
 121115314.643 7                  23047476.919
        46.750
 120350249.084 7  93779439.12447  22901888.555    22901887.737    22901892.024
        43.750          45.500
 114541906.444 7                  21796600.326
        46.000
 124678058.047 8                  23725445.783
        49.000
 141713118.312 5                  26967112.752
        33.250
 194880786.676 7                  37084580.238
        47.000
  30451138.301 7                   5794835.368
        44.000
 120860849.261 7                  22999056.448
        44.250
 124511862.328 5                  23276181.065
        34.750
 124753723.974 7                  23329586.663
        42.750
 203700352.508 7                  38762887.213
        43.500
 179922476.691 7                  34237834.523
        47.250
 113425629.841 8                  21255916.021
        49.000
 105866463.432 8                  19832355.722
        51.750
 104335982.113 8                  19497674.247
        52.500
 108037212.990 8                  20182258.680
        51.500
 121031855.561 7                  22601843.963
        45.250
 21 11 12 10 25 30.0000000  0 27G17G02G04G19G06G07G20G09G05G13E09G30
                                E11E04E19S36S48E12R19R24S23S25R02R18
                                R17R03R04
 122497909.353 6  95452909.13846  23310582.574    23310582.230    23310584.316
        41.250          40.500
 120260844.031 7  93709740.69845  22884877.355    22884876.345    22884874.679
        45.000          35.250
 126208177.032 6  98344030.85144  24016620.355    24016620.145    24016622.320
        38.000          24.250
 117207697.424 7  91330660.04246  22303886.088    22303884.877    22303884.811
        45.250          36.000
 105869560.503 8  82495769.83549  20146307.872    20146307.743    20146309.920
        51.250          57.000
 115201962.205 7  89767768.54448  21922202.998    21922202.574    21922202.956
        47.000          49.250
 121034336.503 7  94312473.15344  23032067.875    23032066.767    23032067.099
        42.000          28.500
 111432511.688 8  86830532.50348  21204902.523    21204902.081    21204903.704
        48.500          52.750
 133231885.876 5 103817063.09742  25353185.331    25353185.202    25353185.172
        35.250          16.750
 131602342.127 6 102547318.85142  25043098.425    25043097.835    25043100.558
        40.250          16.500
 121075257.010 7                  23039854.203
        46.750
 120263979.995 7  93712216.51147  22885471.898    22885471.085    22885475.624
        43.750          46.000
 114521236.851 7                  21792667.064
        45.750
 124705856.016 8                  23730735.662
        48.750
 141785454.244 5                  26980877.729
        34.000
 194880791.050 7                  37084580.282
        46.750
  30450893.778 7                   5794793.818
        43.500
 120920710.122 7                  23010447.674
        44.000
 124389106.394 5                  23253234.331
        33.000
 124886469.554 7                  23354411.503
        44.000
 203700426.337 7                  38762901.070
        43.000
 179924173.095 7                  34238289.287
        47.000
 113497874.245 8                  21269454.803
        48.750
 105815211.465 8                  19822754.795
        52.000
 104406950.052 8                  19510936.204
        52.500
 108042084.906 8                  20183168.509
        51.750
 120971146.933 7                  22590507.274
        45.250
 21 11 12 10 26  0.0000000  0 27G17G02G04G19G06G07G20G09G05G13E09G30
                                E11E04E19S36S48E12R19R24S23S25R02R18
                                R17R03R04
 122594014.916 6  95527796.42846  23328870.934    23328870.595    23328873.261
        41.250          40.000
 120180192.888 7  93646895.66245  22869529.629    22869528.605    22869527.650
        44.750          35.000
 126305644.139 6  98419979.16244  24035168.157    24035167.961    24035169.613
        39.250          24.250
 117299983.822 7  91402571.45945  22321447.449    22321446.233    22321446.353
        46.000          35.750
 105856342.772 8  82485470.28849  20143792.586    20143792.461    20143794.521
        51.500          56.750
 115159339.618 7  89734556.15248  21914092.237    21914091.817    21914092.229
        47.250          49.000
 120968718.991 6  94261342.64444  23019581.608    23019580.500    23019580.496
        41.500          28.000
 111497160.387 8  86880908.09248  21217204.593    21217204.151    21217206.228
        48.750          52.500
 133161075.865 6 103761886.48043  25339709.818    25339709.702    25339710.845
        36.000          20.500
 131497104.700 6 102465315.72043  25023073.527    25023072.960    25023073.913
        39.500          18.250
 121035439.781 7                  23032277.301
        46.500
 120177859.827 7  93645109.94347  22869083.881    22869083.072    22869087.396
        44.500          45.750
 114500925.823 7                  21788802.015
        45.250
 124733849.309 8                  23736062.573
        48.750
 141857749.488 5                  26994635.036
        32.250
 194880789.697 7                  37084579.003
        46.500
  30450653.614 7                   5794750.953
        43.500
 120980868.396 7                  23021895.418
        43.500
 124266576.951 5                  23230329.218
        32.250
 125019325.324 7                  23379256.062
        43.000
 203700498.045 7                  38762912.916
        43.000
 179925876.209 7                  34238745.240
        46.750
 113570132.237 8                  21282995.767
        48.750
 105764688.791 8                  19813289.769
        52.250
 104478613.244 8                  19524328.225
        52.250
 108047232.583 8                  20184129.908
        52.250
 120910713.261 7                  22579221.222
        45.250
 21 11 12 10 26 30.0000000  0 27G17G02G04G19G06G07G20G09G05G13E09G30
                                E11E04E19S36S48E12R19R24S23S25R02R18
                                R17R03R04
 122690156.494 6  95602711.79946  23347166.194    23347165.846    23347168.127
        40.750          39.750
 120099716.876 7  93584187.09545  22854215.512    22854214.493    22854213.371
        44.750          35.000
 126403143.408 6  98495952.52444  24053721.738    24053721.519    24053723.175
        38.750          24.250
 117392499.852 7  91474661.80746  22339053.191    22339051.975    22339051.458
        45.500          36.000
 105843611.637 8  82475549.91149  20141369.864    20141369.739    20141371.881
        51.250          57.000
 115117107.616 7  89701648.11548  21906055.801    21906055.377    21906055.878
        46.500          49.250
 120903095.233 6  94210207.26244  23007092.965    23007091.861    23007092.743
        41.250          27.000
 111562089.706 8  86931502.34848  21229560.439    21229560.001    21229561.487
        48.000          52.250
 133090240.627 6 103706690.17543  25326231.038    25326230.904    25326230.737
        37.000          21.500
 131391984.348 6 102383403.76043  25003067.937    25003067.338    25003070.441
        38.750          18.500
 120995862.664 7                  23024746.033
        47.250
 120091891.350 7  93578121.57047  22852724.715    22852723.906    22852728.032
        44.000          45.750
 114480974.450 7                  21785005.366
        46.250
 124762036.563 8                  23741426.431
        49.500
 141930003.053 5                  27008384.692
        34.750
 194880785.515 7                  37084578.055
        47.000
  30450413.671 7                   5794708.906
        43.750
 121041323.220 7                  23033399.538
        44.500
 124144278.098 5                  23207465.406
        32.250
 125152287.357 7                  23404121.216
        43.750
 203700567.113 7                  38762927.238
        43.250
 179929189.333 7                  34239204.337
        46.750
 113642400.675 8                  21296539.284
        49.250
 105714898.146 8                  19803962.488
        52.000
 104550968.795 8                  19537849.679
        52.750
 108052654.125 8                  20185143.069
        51.750
 120850554.102 7                  22567987.172
        46.000
 21 11 12 10 27  0.0000000  0 27G17G02G04G19G06G07G20G09G05G13E09G30
                                E11E04E19S36S48E12R19R24S23S25R02R18
                                R17R03R04
 122786334.554 6  95677655.58046  23365468.301    23365467.948    23365470.156
        40.000          38.750
 120019421.378 7  93521619.17445  22838936.298    22838935.274    22838933.372
        44.750          34.750
 126500675.948 6  98571951.82244  24072281.437    24072281.218    24072283.356
        39.000          25.000
 117485245.121 7  91546930.79045  22356702.022    22356700.815    22356700.295
        45.750          35.750
 105831371.635 8  82466012.23449  20139040.778    20139040.653    20139042.693
        51.250          57.000
 115075271.313 7  89669048.40848  21898094.561    21898094.141    21898094.651
        46.750          49.000
 120837468.423 6  94159069.49744  22994604.571    22994603.463    22994603.407
        40.500          25.500
 111627300.354 8  86982315.82348  21241969.636    21241969.198    21241970.821
        48.250          52.500
 133019383.319 5 103651476.74143  25312745.583    25312745.440    25312747.851
        32.500          18.500
 131286986.156 6 102301587.02342  24983087.997    24983087.416    24983089.765
        38.250          16.000
 120956528.493 7                  23017260.879
        46.500
 120006080.440 7  93511255.98047  22836395.247    22836394.438    22836398.601
        44.000          45.750
 114461386.907 7                  21781278.053
        45.500
 124790419.501 8                  23746827.428
        49.000
 142002217.094 5                  27022126.656
        33.250
 194880781.787 7                  37084578.775
        46.750
  30450177.812 7                   5794667.772
        43.500
 121102076.838 7                  23044960.752
        43.750
 124022217.158 5                  23184647.861
        32.750
 125285354.905 7                  23429005.914
        43.750
 203700639.190 7                  38762941.601
        43.000
 179930918.280 7                  34239664.114
        47.000
 113714681.602 8                  21310084.566
        49.000
 105665845.338 8                  19794773.027
        51.750
 104624016.687 8                  19551500.261
        52.000
 108058350.712 8                  20186207.011
        51.750
 120790671.881 7                  22556804.204
        45.500
 21 11 12 10 27 30.0000000  0 28G17G02G04G19G06G07G20G09G05G13E09G30
                                E11E04E19S36S48E12R19R24R12S23S25R02
                                R18R17R03R04
 122882539.924 6  95752620.64946  23383775.122    23383774.760    23383777.359
        40.000          38.500
 119939302.894 7  93459189.18545  22823690.271    22823689.243    22823686.740
        45.500          34.500
 126598233.865 6  98647970.90144  24090846.076    24090845.848    24090848.151
        39.500          25.000
 117578210.335 7  91619371.15245  22374392.963    22374391.752    22374390.977
        45.500          35.250
 105819618.223 8  82456853.71649  20136804.174    20136804.049    20136806.167
        51.250          56.750
 115033826.886 7  89636754.06848  21890208.002    21890207.582    21890207.782
        47.000          48.750
 120771832.765 6  94107924.84644  22982114.324    22982113.211    22982112.860
        41.000          25.750
 111692784.087 8  87033342.08248  21254430.854    21254430.416    21254432.178
        48.250          52.000
 132948498.181 5 103596241.51942  25299256.995    25299256.799    25299258.343
        33.750          17.250
 131182105.621 6 102219862.02542  24963129.362    24963128.812    24963131.929
        36.000          15.250
 120917431.087 7                  23009820.944
        46.750
 119920424.079 7  93444510.81547  22820095.293    22820094.484    22820098.615
        44.500          45.250
 114442158.511 7                  21777618.949
        45.750
 124818990.903 8                  23752264.369
        48.750
 142074384.809 5                  27035859.500
        33.250
 194880777.116 7                  37084578.342
        46.500
  30449939.285 7                   5794625.139
        43.500
 121163122.459 7                  23056577.231
        43.500
 123900392.449 5                  23161874.551
        34.000
 125418518.769 7                  23453908.533
        43.500
 123347139.96815                  23090845.989
        31.500
 203700708.621 7                  38762954.332
        43.000
 179934232.418 7                  34240124.633
        46.750
 113786967.569 8                  21323630.554
        48.750
 105617527.281 8                  19785721.584
        51.750
 104697748.235 8                  19565278.951
        52.250
 108064314.135 8                  20187321.142
        51.500
 120731059.901 7                  22545672.926
        46.250
 21 11 12 10 28  0.0000000  0 28G17G02G04G19G06G07G20G09G05G13E09G30
                                E11E04E19S36S48E12R19R24R12S23S25R02
                                R18R17R03R04
 122978780.766 6  95827613.37346  23402089.698    23402089.332    23402090.768
        40.250          37.750
 119859374.498 7  93396907.31145  22808480.237    22808479.205    22808476.968
        46.000          35.500
 126695826.295 6  98724016.86144  24109417.870    24109417.647    24109419.644
        40.000          26.750
 117671403.341 7  91691989.01345  22392126.756    22392125.540    22392125.414
        45.750          35.500
 105808363.854 8  82448084.06349  20134662.624    20134662.499    20134664.546
        51.250          57.000
 114992787.044 7  89604774.97748  21882398.319    21882397.904    21882398.004
        47.250          48.750
 120706199.517 7  94056782.07044  22969624.784    22969623.684    22969623.461
        42.000          27.250
 111758549.579 8  87084587.89848  21266945.409    21266944.967    21266946.573
        48.500          52.250
 132877595.566 6 103540992.74643  25285766.165    25285766.013    25285765.701
        36.000          19.250
 131077355.567 6 102138238.67142  24943196.417    24943195.890    24943198.854
        36.500          16.250
 120878581.190 7                  23002427.903
        46.500
 119834936.140 7  93377896.88947  22803827.317    22803826.508    22803830.794
        44.250          45.750
 114423301.355 7                  21774030.564
        45.500
 124847760.490 8                  23757739.050
        48.750
 142146516.331 5                  27049585.661
        34.000
 194880782.523 7                  37084578.350
        46.250
  30449709.386 7                   5794584.930
        43.250
 121224470.293 7                  23068251.468
        43.500
 123778818.851 5                  23139147.390
        34.000
 125551786.128 7                  23478830.393
        43.250
 123300463.005 4                  23082108.434
        29.000
 203700784.523 7                  38762971.919
        42.750
 179935960.240 7                  34240588.904
        46.750
 113859268.110 8                  21337179.872
        49.000
 105569957.800 8                  19776810.431
        52.000
 104772171.493 8                  19579186.738
        52.500
 108070553.660 8                  20188486.514
        52.000
 120671728.862 7                  22534593.081
        46.500
 21 11 12 10 28 30.0000000  0 28G17G02G04G19G06G07G20G09G05G13E09G30
                                E11E04E19S36S48E12R19R24R12S23S25R02
                                R18R17R03R04
 123075041.606 6  95902621.66146  23420407.493    23420407.113    23420409.499
        41.000          38.750
 119779625.654 7  93334765.36045  22793304.421    22793303.397    22793301.492
        46.250          35.500
 126793438.391 6  98800078.13444  24127992.866    24127992.647    24127994.653
        39.250          25.250
 117764807.787 7  91764771.62845  22409900.950    22409899.739    22409899.913
        45.250          35.000
 105797597.059 8  82439694.34249  20132613.715    20132613.586    20132615.697
        51.500          56.750
 114952141.064 7  89573102.80048  21874663.691    21874663.271    21874663.568
        47.250          48.750
 120640556.286 7  94005631.51444  22957133.821    22957132.739    22957132.194
        42.250          28.000
 111824581.609 8  87136041.40448  21279511.060    21279510.613    21279512.167
        48.500          52.000
 132806662.292 5 103485720.04642  25272268.306    25272268.132    25272267.558
        34.750          17.750
 130972724.964 6 102056708.38443  24923283.745    24923283.231    24923287.447
        37.500          19.750
 120839965.657 7                  22995079.616
        46.500
 119749606.580 7  93311406.37147  22787589.838    22787589.025    22787593.009
        44.250          45.250
 114404803.623 7                  21770510.563
        45.750
 124876714.054 8                  23763248.698
        48.750
 142218597.802 5                  27063302.659
        34.250
 194880782.934 7                  37084577.917
        46.500
  30449477.952 7                   5794542.808
        43.500
 121286106.560 7                  23079980.449
        43.750
 123657487.485 5                  23116466.215
        34.500
 125685140.687 7                  23503769.068
        43.500
 123254281.401 4                  23073461.020
        29.250
 203700858.138 7                  38762982.870
        42.750
 179939311.057 7                  34241054.279
        47.000
 113931568.615 8                  21350729.168
        48.750
 105523126.433 8                  19768037.215
        51.750
 104847270.482 8                  19593220.920
        52.750
 108077054.314 8                  20189700.997
        51.750
 120612665.039 7                  22523562.780
        46.250
 21 11 12 10 29  0.0000000  0 29G17G02G04G19G06G07G20G09G05G13E09G30
                                E11E04E19S36S48E12R19R24R12S23R13S25
                                R02R18R17R03R04
 123171327.517 6  95977649.52046  23438730.063    23438729.670    23438731.628
        40.250          37.250
 119700066.819 7  93272771.46945  22778164.852    22778163.828    22778162.193
        45.500          35.500
 126891076.274 6  98876159.51844  24146572.496    24146572.277    24146574.347
        40.000          26.750
 117858428.339 7  91837722.64145  22427716.305    22427715.098    22427715.353
        45.000          34.750
 105787327.266 8  82431691.89649  20130659.566    20130659.437    20130661.482
        51.000          57.000
 114911899.002 7  89541745.36448  21867005.754    21867005.330    21867005.923
        46.750          49.000
 120574911.437 7  93954479.69844  22944641.773    22944640.691    22944641.611
        42.250          29.250
 111890885.973 7  87187707.12048  21292128.388    21292127.941    21292129.445
        47.500          51.750
 132735706.287 5 103430429.65743  25258765.421    25258765.234    25258765.449
        34.000          18.250
 130868223.625 5 101975278.85542  24903398.911    24903398.464    24903401.882
        34.250          17.750
 120801592.302 7                  22987777.498
        46.750
 119664446.382 7  93245047.83347  22771384.278    22771383.465    22771387.442
        44.250          45.750
 114386674.573 7                  21767060.680
        45.500
 124905858.413 8                  23768794.754
        48.750
 142290636.534 5                  27077011.533
        34.000
 194880780.212 7                  37084578.225
        46.500
  30449247.343 7                   5794500.989
        43.500
 121348038.510 7                  23091765.825
        43.250
 123536411.120 5                  23093831.248
        33.500
 125818586.629 7                  23528724.754
        43.750
 123208606.515 5                  23064911.531
        32.500
 203700935.268 7                  38762996.978
        43.000
 125731144.95515                  23545400.596
        30.500
 179941062.012 7                  34241521.358
        47.250
 114003874.936 8                  21364279.564
        48.500
 105477044.205 8                  19759404.411
        51.750
 104923050.373 8                  19607382.348
        52.500
 108083822.192 8                  20190965.313
        51.500
 120553876.093 7                  22512584.109
        45.250
 21 11 12 10 29 30.0000000  0 29G17G02G04G19G06G07G20G09G05G13E09G30
                                E11E04E19S36S48E12R19R24R12S23R13S25
                                R02R18R17R03R04
 123267626.766 6  96052687.71446  23457055.799    23457055.415    23457058.162
        40.500          39.250
 119620691.866 7  93210920.84745  22763060.478    22763059.463    22763057.056
        45.250          35.250
 126988729.682 6  98952252.96244  24165155.380    24165155.166    24165157.570
        39.000          26.250
 117952253.283 7  91910832.92045  22445570.695    22445569.493    22445569.514
        44.750          34.500
 105777547.394 8  82424071.20149  20128798.432    20128798.303    20128800.585
        51.000          57.250
 114872054.267 7  89510697.54048  21859423.440    21859423.016    21859423.505
        46.750          49.250
 120509256.542 6  93903320.05844  22932148.446    22932147.355    22932147.902
        41.750          29.500
 111957451.833 8  87239576.59648  21304795.187    21304794.740    21304796.541
        48.000          52.000
 132664718.071 5 103375114.14143  25245255.780    25245255.566    25245257.196
        34.250          19.000
 130763844.819 6 101893944.82842  24883534.820    24883534.333    24883539.646
        36.250          17.750
 120763452.419 7                  22980519.588
        46.750
 119579449.965 7  93178816.90647  22755209.918    22755209.109    22755213.011
        44.500          46.000
 114368906.838 7                  21763679.664
        45.250
 124935183.789 8                  23774375.181
        48.500
 142362623.107 5                  27090710.236
        35.000
 194880774.013 7                  37084577.054
        46.750
  30449012.136 7                   5794459.595
        43.500
 121410256.808 7                  23103605.551
        43.500
 123415584.984 5                  23071244.440
        32.500
 125952111.997 7                  23553695.021
        43.250
 123163433.245 5                  23056453.638
        32.000
 203701004.498 7                  38763009.073
        43.000
 125636260.449 5                  23527630.682
        30.500
 179944425.953 7                  34241987.198
        47.250
 114076177.858 8                  21377828.931
        48.500
 105431704.999 8                  19750910.548
        51.500
 104999499.567 8                  19621668.752
        52.500
 108090846.762 8                  20192277.698
        51.000
 120495352.877 7                  22501656.361
        45.750
 21 11 12 10 30  0.0000000  0 29G17G02G04G19G06G07G20G09G05G13E09G30
                                E11E04E19S36S48E12R19R24R12S23R13S25
                                R02R18R17R03R04
 123363945.805 6  96127741.39646  23475385.030    23475384.641    23475385.773
        40.750          37.750
 119541511.966 7  93149222.23445  22747992.816    22747991.806    22747990.286
        45.750          35.750
 127086405.558 6  99028363.94144  24183742.830    24183742.643    24183744.540
        40.750          26.750
 118046288.145 7  91984106.76545  22463464.922    22463463.715    22463463.762
        44.750          34.250
 105768267.755 8  82416840.30249  20127032.647    20127032.518    20127034.782
        51.250          57.000
 114832617.833 7  89479967.87048  21851918.714    21851918.285    21851918.888
        47.000          49.000
 120443600.916 7  93852159.85044  22919654.448    22919653.353    22919653.746
        42.750          29.500
 112024285.894 8  87291655.06048  21317513.505    21317513.058    21317514.672
        48.000          51.750
 132593707.754 5 103319781.39342  25231743.808    25231743.639    25231743.581
        35.750          17.750
 130659599.309 6 101812714.62943  24863697.324    24863696.810    24863702.138
        37.500          19.750
 120725554.672 7                  22973307.920
        46.750
 119494629.109 7  93112722.78647  22739068.821    22739068.008    22739072.193
        44.250          45.750
 114351510.452 7                  21760369.325
        45.750
 124964697.844 8                  23779991.515
        49.000
 142434565.663 5                  27104400.652
        34.750
 194880764.260 7                  37084576.718
        46.750
  30448783.763 7                   5794417.423
        43.500
 121472769.542 7                  23115501.232
        43.500
 123295022.590 5                  23048706.121
        33.500
 126085721.940 7                  23578682.357
        43.750
 123118774.013 5                  23048093.313
        33.750
 203701073.869 7                  38763023.807
        43.250
 125541411.986 5                  23509869.111
        32.000
 179946197.203 7                  34242456.776
        47.000
 114148484.461 8                  21391379.150
        48.750
 105387120.744 8                  19742558.755
        52.000
 105076624.151 8                  19636081.174
        52.500
 108098134.926 8                  20193639.153
        51.250
 120437103.804 7                  22490778.384
        46.000
 21 11 12 10 30 30.0000000  0 29G17G02G04G19G06G07G20G09G05G13E09G30
                                E11E04E19S36S48E12R19R24R12S23R13S25
                                R02R18R17R03R04
 123460279.452 6  96202806.38046  23493716.645    23493716.256    23493718.562
        40.250          38.000
 119462526.953 7  93087675.47145  22732962.340    22732961.334    22732959.517
        45.000          35.250
 127184099.672 6  99104489.14344  24202333.334    24202333.165    24202334.895
        39.750          26.000
 118140527.169 7  92057539.70545  22481398.034    22481396.818    22481396.945
        44.250          34.250
 105759487.206 8  82409998.30749  20125361.696    20125361.567    20125363.804
        51.250          56.750
 114793589.230 7  89449555.99348  21844491.990    21844491.561    21844491.916
        47.250          49.000
 120377942.421 7  93800997.39844  22907159.788    22907158.702    22907159.509
        42.000          29.250
 112091383.445 8  87343938.83648  21330281.643    21330281.196    21330282.979
        48.000          52.000
 132522672.156 5 103264428.98343  25218225.110    25218224.909    25218226.935
        35.000          18.000
 130555486.362 6 101731587.72143  24843884.107    24843883.549    24843889.469
        37.250          18.750
 120687896.329 7                  22966141.856
        46.500
 119409984.295 7  93046765.84047  22722961.670    22722960.852    22722964.809
        44.500          45.750
 114334484.121 7                  21757129.271
        45.500
 124994396.846 8                  23785643.091
        48.500
 142506460.970 5                  27118081.855
        34.250
 194880762.666 7                  37084576.553
        46.500
  30448555.549 7                   5794376.544
        43.500
 121535573.399 7                  23127452.335
        43.250
 123174725.831 5                  23026219.312
        34.500
 126219410.613 7                  23603681.923
        43.000
 123074629.546 5                  23039827.039
        33.500
 203701146.354 7                  38763035.170
        43.000
 125446601.499 5                  23492115.652
        33.500
 179947971.339 7                  34242926.181
        47.000
 114220790.560 8                  21404928.770
        48.250
 105343291.372 8                  19734347.976
        52.000
 105154418.388 8                  19650618.714
        52.250
 108105682.422 8                  20195048.960
        51.250
 120379125.744 7                  22479950.860
        46.500
 21 11 12 10 31  0.0000000  0 29G17G02G04G19G06G07G20G09G05G13E09G30
                                E11E04E19S36S48E12R19R24R12S23R13S25
                                R02R18R17R03R04
 123556623.722 6  96277879.71746  23512050.178    23512049.794    23512052.031
        40.250          39.000
 119383738.478 7  93026281.85346  22717969.753    22717968.738    22717966.677
        45.250          36.000
 127281809.238 6  99180626.34944  24220927.232    24220927.076    24220928.322
        40.750          27.250
 118234965.955 7  92131128.29245  22499369.242    22499368.035    22499368.231
        44.500          34.750
 105751206.196 8  82403545.55949  20123785.870    20123785.741    20123787.901
        51.000          57.000
 114754969.213 7  89419462.49248  21837142.919    21837142.495    21837142.818
        47.250          49.500
 120312280.544 7  93749832.31244  22894664.687    22894663.601    22894664.450
        42.500          29.000
 112158741.196 7  87396425.36648  21343099.672    21343099.225    21343100.612
        47.500          51.750
 132451609.693 5 103209055.60343  25204702.484    25204702.288    25204704.037
        35.250          18.250
 130451506.764 6 101650564.73942  24824098.035    24824097.477    24824102.584
        36.750          17.750
 120650476.200 7                  22959020.982
        46.500
 119325517.474 7  92980947.59347  22706888.011    22706887.193    22706891.231
        44.250          46.000
 114317827.958 7                  21753959.741
        45.500
 125024278.578 8                  23791329.468
        48.500
 142578307.241 5                  27131753.527
        34.750
 194880769.266 7                  37084576.651
        46.750
  30448328.268 7                   5794334.841
        43.750
 121598666.559 7                  23139458.772
        43.250
 123054697.659 5                  23003781.675
        35.500
 126353173.674 7                  23628696.458
        43.250
 123031002.144 5                  23031661.059
        32.250
 203701221.538 7                  38763050.485
        43.250
 125351832.268 5                  23474369.394
        31.750
 179951351.908 7                  34243397.266
        47.250
 114293094.543 8                  21418478.505
        48.250
 105300218.554 8                  19726279.082
        51.500
 105232878.374 8                  19665281.103
        52.250
 108113486.612 8                  20196506.834
        51.500
 120321417.073 7                  22469174.393
        46.000
 21 11 12 10 31 30.0000000  0 29G17G02G04G19G06G07G20G09G05G13E09G30
                                E11E04E19S36S48E12R19R24R12S23R13S25
                                R02R18R17R03R04
 123652980.085 6  96352962.41946  23530386.858    23530386.496    23530388.760
        41.250          39.250
 119305152.541 7  92965046.05946  22703014.939    22703013.929    22703012.422
        45.750          36.250
 127379536.261 6  99256777.21344  24239523.921    24239523.774    24239525.541
        40.750          26.500
 118329605.352 7  92204873.20045  22517378.641    22517377.434    22517377.575
        44.750          34.750
 105743429.897 8  82397486.09549  20122305.991    20122305.862    20122308.197
        51.250          57.000
 114716763.616 7  89389691.91548  21829872.474    21829872.041    21829872.456
        47.250          49.250
 120246619.524 7  93698667.88644  22882170.009    22882168.923    22882168.545
        42.750          28.500
 112226360.733 8  87449115.88948  21355967.199    21355966.752    21355968.265
        48.000          52.000
 132380524.199 6 103153664.35043  25191176.163    25191175.913    25191176.918
        36.500          18.500
 130347666.156 6 101569650.10043  24804338.420    24804337.888    24804342.381
        36.000          18.000
 120613297.863 7                  22951946.198
        46.500
 119241235.412 7  92915273.31147  22690849.790    22690848.972    22690852.818
        44.750          46.000
 114301546.952 7                  21750861.543
        45.500
 125054345.640 8                  23797051.003
        48.500
 142650107.477 5                  27145417.126
        35.250
 194880771.023 7                  37084577.009
        46.750
  30448106.350 7                   5794295.916
        43.500
 121662052.028 7                  23151520.665
        43.250
 122934946.066 5                  22981394.618
        34.500
 126487011.269 7                  23653725.996
        42.750
 122987899.225 5                  23023591.616
        34.500
 203701300.833 7                  38763064.262
        43.000
 125257113.636 5                  23456628.308
        32.750
 179953120.824 7                  34243872.537
        46.750
 114365397.316 8                  21432028.756
        48.000
 105257908.771 8                  19718352.809
        51.750
 105312004.768 8                  19680068.027
        52.750
 108121549.030 8                  20198013.310
        51.500
 120263981.218 7                  22458448.311
        46.250
 21 11 12 10 32  0.0000000  0 29G17G02G04G19G06G07G20G09G05G13E09G30
                                E11E04E19S36S48E12R19R24R12S23R13S25
                                R02R18R17R03R04
 123749335.597 6  96428044.49446  23548722.383    23548722.026    23548724.886
        40.250          39.250
 119226762.029 7  92903962.55046  22688097.578    22688096.572    22688095.321
        45.500          36.250
 127477269.406 6  99332932.81744  24258121.644    24258121.497    24258123.717
        39.500          25.500
 118424432.366 7  92278764.30545  22535423.911    22535422.691    22535422.414
        44.750          34.500
 105736150.065 8  82391813.48549  20120920.842    20120920.713    20120922.964
        51.250          57.000
 114678964.828 7  89360238.33348  21822679.923    21822679.476    21822679.480
        46.750          49.000
 120180950.163 7  93647496.94044  22869673.895    22869672.822    22869672.117
        42.500          27.750
 112294230.190 7  87502001.15048  21368882.391    21368881.935    21368883.519
        47.000          51.500
 132309405.442 5 103098247.18443  25177642.639    25177642.416    25177643.584
        34.000          20.000
 130243956.861 6 101488837.76243  24784602.845    24784602.354    24784607.559
        39.500          20.500
 120576351.477 7                  22944915.544
        46.250
 119157131.433 7  92849737.79647  22674845.088    22674844.275    22674848.192
        44.250          46.000
 114285632.615 7                  21747833.160
        45.250
 125084587.204 8                  23802805.874
        48.250
 142721851.391 5                  27159069.029
        33.250
 194880760.833 7                  37084575.699
        46.750
  30447879.304 7                   5794253.731
        43.500
 121725719.321 7                  23163636.132
        43.250
 122815466.241 5                  22959059.415
        33.750
 126620910.347 7                  23678765.547
        42.000
 122945314.178 5                  23015620.387
        34.000
 203701373.636 7                  38763079.586
        43.000
 125162439.033 5                  23438899.223
        33.250
 179956493.959 7                  34244346.721
        46.750
 114437688.918 8                  21445576.022
        48.500
 105216354.728 8                  19710568.535
        52.250
 105391784.827 8                  19694976.648
        52.500
 108129858.085 8                  20199565.161
        51.250
 120206807.709 7                  22447772.112
        46.250
 21 11 12 10 32 30.0000000  0 30G17G02G04G19G06G07G20G09G05G13E09G30
                                E11E04E19S36S48E12R19R24R12S23R13S25
                                R02R18R17R03R04E05
 123845695.812 6  96503130.18946  23567059.246    23567058.898    23567062.156
        40.750          39.500
 119148577.658 7  92843039.66946  22673220.210    22673219.200    22673217.155
        45.750          36.000
 127575015.036 6  99409098.13244  24276722.221    24276722.065    24276724.495
        40.000          26.750
 118519451.823 7  92352805.36345  22553505.380    22553504.160    22553504.046
        44.500          34.000
 105729376.207 8  82386535.14249  20119631.828    20119631.699    20119633.858
        51.250          56.750
 114641582.962 7  89331109.62848  21815566.079    21815565.637    21815565.988
        47.000          48.750
 120115280.818 7  93596326.00344  22857176.849    22857175.763    22857176.088
        42.750          28.000
 112362355.581 7  87555085.83848  21381846.289    21381845.838    21381847.414
        47.750          51.250
 132238262.368 6 103042811.02743  25164104.237    25164104.045    25164106.310
        36.250          20.500
 130140389.106 6 101408135.69343  24764895.293    24764894.833    24764899.093
        38.000          19.000
 120539644.995 7                  22937930.625
        47.000
 119073216.650 7  92784349.70947  22658876.714    22658875.896    22658879.800
        44.500          46.000
 114270094.346 7                  21744876.280
        45.750
 125115010.219 8                  23808595.137
        48.750
 142793546.363 5                  27172712.543
        33.250
 194880760.221 7                  37084574.925
        46.500
  30447654.621 7                   5794211.747
        43.500
 121789675.814 7                  23175806.685
        43.250
 122696269.993 5                  22936776.993
        31.500
 126754875.872 7                  23703818.697
        43.250
 122903258.981 5                  23007746.105
        35.000
 203701446.894 7                  38763093.171
        43.000
 125067821.447 5                  23421180.596
        33.500
 179958282.793 7                  34244821.965
        47.000
 114509975.839 8                  21459122.530
        48.250
 105175567.136 8                  19702927.665
        52.250
 105472223.632 8                  19710008.613
        52.250
 108138420.544 8                  20201164.855
        51.000
 120149904.237 7                  22437145.812
        46.250


 21 11 12 10 33  0.0000000  0 30G17G02G04G19G06G07G20G09G05G13E09G30
                                E11E04E19S36S48E12R19R24R12S23R13S25
                                R02R18R17R03R04E05
 123942059.949 6  96578218.96646  23585397.105    23585396.748    23585399.296
        40.000          38.750
 119070603.610 7  92782280.67146  22658381.756    22658380.746    22658379.221
        45.500          36.500
 127672773.356 6  99485273.34244  24295324.721    24295324.565    24295327.361
        40.500          28.500
 118614662.441 7  92426995.38545  22571623.732    22571622.512    22571621.835
        45.000          34.750
 105723111.609 8  82381653.62649  20118439.599    20118439.470    20118441.612
        51.000          57.000
 114604621.969 7  89302308.87048  21808532.965    21808532.523    21808532.519
        46.500          49.000
 120049613.850 6  93545156.92844  22844680.971    22844679.894    22844680.125
        40.750          27.500
 112430736.604 7  87608369.72748  21394858.624    21394858.173    21394859.711
        47.250          51.500
 132167096.535 5 102987357.14543  25150561.741    25150561.594    25150563.241
        34.000          20.250
 130036966.145 6 101327546.47743  24745214.163    24745213.681    24745218.784
        38.000          20.000
 120503180.135 7                  22930991.525
        47.000
 118989496.019 7  92719112.90747  22642945.109    22642944.287    22642948.250
        44.250          46.250
 114254935.095 7                  21741991.662
        45.750
 125145615.476 8                  23814419.078
        49.000
 142865193.674 5                  27186346.538
        35.000
 194880771.990 7                  37084576.423
        46.500
  30447434.055 7                   5794171.252
        43.500
 121853922.616 7                  23188032.511
        43.500
 122577363.985 5                  22914545.770
        32.000
 126888905.786 7                  23728883.669
        42.750
 122861738.798 5                  22999975.635
        35.750
 203701524.881 7                  38763109.108
        43.000
 124973266.737 5                  23403471.791
        33.000
 179961686.969 7                  34245300.769
        47.000
 114582258.648 8                  21472668.134
        48.000
 105135550.414 8                  19695431.220
        52.250
 105553320.106 8                  19725163.555
        52.500
 108147236.046 8                  20202811.839
        51.500
 120093272.122 7                  22426569.617
        45.500
                                  28855956.297
        20.500
 21 11 12 10 33 30.0000000  0 30G17G02G04G19G06G07G20G09G05G13E09G30
                                E11E04E19S36S48E12R19R24R12S23R13S25
                                R02R18R17R03R04E05
 124038413.825 6  96653299.69546  23603732.322    23603731.965    23603735.569
        39.750          38.000
 118992831.040 7  92721678.68045  22643582.218    22643581.212    22643579.621
        45.500          35.500
 127770531.186 6  99561448.18544  24313928.009    24313927.857    24313929.843
        40.250          26.750
 118710049.570 7  92501322.94545  22589775.132    22589773.889    22589773.444
        45.250          34.500
 105717346.074 8  82377160.98849  20117342.616    20117342.487    20117344.450
        51.250          56.750
 114568072.074 7  89273828.44848  21801577.350    21801576.899    21801577.187
        46.750          48.500
 119983938.360 6  93493981.22144  22832183.154    22832182.050    22832182.101
        40.750          26.750
 112499359.618 7  87661842.17048  21407917.064    21407916.608    21407918.445
        47.500          51.500
 132095895.828 6 102931876.08443  25137012.851    25137012.655    25137014.359
        36.500          20.500
 129933678.551 6 101247062.75443  24725559.667    24725559.220    24725562.994
        36.500          18.250
 120466945.161 7                  22924096.252
        46.750
 118905960.959 7  92654020.69947  22627048.990    22627048.168    22627051.953
        44.000          46.000
 114240144.531 7                  21739177.074
        45.500
 125176390.208 8                  23820275.336
        48.750
 142936781.000 5                  27199969.349
        35.750
 194880767.515 7                  37084575.609
        46.750
  30447209.546 7                   5794131.320
        43.500
 121918447.362 7                  23200311.075
        43.000
 122458740.964 5                  22892373.083
        35.500
 127022985.413 7                  23753957.654
        42.750
 122820744.869 6                  22992301.118
        37.750
 203701596.635 7                  38763122.474
        43.000
 124878767.801 5                  23385777.087
        33.500
 179963486.411 7                  34245779.456
        47.000
 114654524.610 8                  21486211.187
        48.500
 105096295.718 8                  19688077.388
        52.000
 105635059.436 8                  19740438.518
        52.250
 108156291.297 8                  20204503.335
        51.750
 120036899.345 7                  22416042.887
        46.750
 151571474.01016                  28843092.816
        39.250
 21 11 12 10 34  0.0000000  0 30G17G02G04G19G06G07G20G09G05G13E09G30
                                E11E04E19S36S48E12R19R24R12S23R13S25
                                R02R18R17R03R04E05
 124134764.459 6  96728377.97746  23622067.648    23622067.291    23622069.472
        39.500          38.250
 118915271.820 7  92661242.91645  22628823.122    22628822.121    22628819.842
        45.750          35.750
 127868296.402 6  99637628.79844  24332532.099    24332531.934    24332534.025
        39.250          24.750
 118805619.541 7  92575792.97945  22607961.392    22607960.158    22607960.123
        44.750          34.750
 105712090.600 8  82373065.79949  20116342.464    20116342.335    20116344.555
        51.000          56.750
 114531945.068 7  89245677.55148  21794702.655    21794702.199    21794702.475
        46.750          48.750
 119918264.556 6  93442806.84644  22819685.845    22819684.745    22819684.859
        41.000          27.500
 112568232.049 7  87715508.96948  21421023.431    21421022.980    21421024.637
        47.500          51.500
 132024670.201 5 102876375.59643  25123459.132    25123458.989    25123459.364
        33.500          18.750
 129830537.654 5 101166693.30242  24705932.150    24705931.685    24705935.697
        35.750          17.750
 120430949.542 7                  22917246.430
        46.500
 118822624.156 7  92589082.98147  22611190.554    22611189.727    22611193.532
        44.500          46.250
 114225733.443 7                  21736434.793
        45.500
 125207342.935 8                  23826165.539
        48.750
 143008317.391 6                  27213582.070
        36.250
 194880760.517 7                  37084576.128
        46.750
  30446991.588 7                   5794091.549
        43.750
 121983258.869 7                  23212644.360
        43.000
 122340414.798 5                  22870252.941
        35.250
 127157121.061 7                  23779041.773
        42.000
 122780290.358 6                  22984728.309
        39.250
 203701672.705 7                  38763137.333
        43.000
 124784339.339 5                  23368091.523
        34.000
 179966912.820 7                  34246261.582
        47.000
 114726781.744 7                  21499751.870
        47.750
 105057814.834 8                  19680868.658
        52.250
 105717447.995 8                  19755834.772
        52.500
 108165594.189 8                  20206241.325
        51.500
 119980794.891 7                  22405565.542
        46.500
                                  28830254.640
        27.750
 21 11 12 10 34 30.0000000  0 30G17G02G04G19G06G07G20G09G05G13E09G30
                                E11E04E19S36S48E12R19R24R12S23R13S25
                                R02R18R17R03R04E05
 124231102.080 6  96803446.03346  23640400.236    23640399.874    23640402.959
        41.000          38.750
 118837921.524 7  92600969.96045  22614104.175    22614103.174    22614100.852
        45.750          35.750
 127966060.475 6  99713808.52343  24351135.891    24351135.695    24351138.085
        37.000          20.500
 118901361.968 7  92650397.39345  22626180.884    22626179.659    22626179.548
        44.500          34.250
 105707339.561 8  82369363.67349  20115438.435    20115438.306    20115440.411
        51.250          56.750
 114496235.918 7  89217852.25648  21787907.559    21787907.094    21787907.245
        46.500          48.500
 119852585.779 6  93391628.58844  22807188.057    22807186.957    22807187.068
        41.750          28.250
 112637344.780 7  87769363.02148  21434175.045    21434174.598    21434176.166
        47.750          51.250
 131953412.534 6 102820850.14343  25109899.319    25109899.172    25109900.273
        38.250          22.250
 129727538.660 6 101086434.46343  24686332.290    24686331.839    24686336.065
        36.250          19.500
 120395186.087 7                  22910440.907
        47.250
 118739481.614 7  92524296.62447  22595368.853    22595368.026    22595372.064
        44.250          46.250
 114211696.042 7                  21733763.549
        46.000
 125238465.527 8                  23832087.981
        49.000
 143079795.249 6                  27227184.067
        36.250
 194880760.782 7                  37084574.867
        47.000
  30446772.735 7                   5794048.519
        44.000
 122048349.380 7                  23225030.938
        43.500
 122222383.305 6                  22848188.381
        36.000
 127291302.018 7                  23804136.526
        43.750
 122740371.618 6                  22977255.144
        39.250
 203701746.883 7                  38763151.325
        43.250
 124689978.550 5                  23350420.449
        33.250
 179968738.680 7                  34246743.520
        47.250
 114799022.180 8                  21513289.729
        48.000
 105020103.336 8                  19673804.019
        52.000
 105800475.776 8                  19771350.383
        52.250
 108175135.698 8                  20208023.721
        51.750
 119924951.352 7                  22395136.860
        46.500
 151436668.84015                  28817440.123
        34.250
 21 11 12 10 35  0.0000000  0 30G17G02G04G19G06G07G20G09G05G13E09G30
                                E11E04E19S36S48E12R19R24R12S23R13S25
                                R02R18R17R03R04E05
 124327430.719 6  96878507.15646  23658730.607    23658730.245    23658733.692
        39.500          37.250
 118760789.394 7  92540867.01445  22599426.335    22599425.334    22599423.507
        46.000          35.750
 128063828.434 5  99789991.27242  24369740.826    24369740.572    24369742.557
        35.000          16.250
 118997280.838 7  92725139.28845  22644433.627    22644432.398    22644432.376
        44.500          33.750
 105703100.919 8  82366060.82049  20114631.858    20114631.729    20114633.753
        51.500          56.500
 114460953.008 7  89190359.09148  21781193.416    21781192.951    21781193.131
        47.250          48.750
 119786909.475 7  93340452.24844  22794690.050    22794688.955    22794689.218
        43.000          29.000
 112706702.420 7  87823407.90948  21447373.471    21447373.024    21447374.724
        47.500          50.750
 131882129.005 6 102765304.53943  25096335.084    25096334.928    25096335.526
        36.250          20.750
 129624689.877 5 101006292.62543  24666760.651    24666760.204    24666764.104
        35.500          18.000
 120359661.257 7                  22903680.825
        47.000
 118656543.008 7  92459669.18747  22579586.096    22579585.265    22579589.365
        44.000          46.000
 114198040.102 7                  21731164.827
        45.750
 125269763.523 8                  23838043.798
        49.000
 143151220.570 5                  27240776.278
        35.250
 194880758.980 7                  37084574.733
        46.750
  30446555.198 7                   5794007.644
        43.500
 122113724.721 7                  23237471.468
        43.250
 122104657.161 5                  22826179.103
        33.750
 127425531.638 7                  23829238.528
        43.250
 122700998.583 6                  22969883.958
        39.750
 203701824.756 7                  38763164.690
        43.000
 124595696.463 5                  23332765.910
        33.000
 179970562.773 7                  34247226.397
        47.000
 114871250.889 8                  21526825.560
        48.250
 104983170.394 8                  19666885.238
        52.250
 105884146.061 8                  19786986.317
        52.250
 108184921.173 8                  20209851.691
        51.250
 119869374.601 7                  22384758.653
        46.500
 151369443.320 6                  28804647.861
        36.250
 21 11 12 10 35 30.0000000  0 30G17G02G04G19G06G07G20G09G05G13E09G30
                                E11E04E19S36S48E12R19R24R12S23R13S25
                                R02R18R17R03R04E05
 124423745.592 6  96953557.48846  23677059.561    23677059.204    23677062.318
        40.000          37.750
 118683875.993 7  92480934.50445  22584790.024    22584789.023    22584787.095
        45.750          35.750
 128161596.380 5  99866173.98341  24388344.900    24388344.628    24388347.087
        31.750          11.250
 119093370.485 7  92800014.25245  22662719.081    22662717.838    22662717.784
        44.500          33.750
 105699373.760 8  82363156.52549  20113922.645    20113922.516    20113924.464
        51.250          56.750
 114426096.098 7  89163197.87748  21774560.413    21774559.953    21774560.234
        47.250          49.000
 119721233.703 7  93289276.31845  22782192.234    22782191.143    22782191.212
        44.000          30.000
 112776300.553 7  87877640.19348  21460616.988    21460616.546    21460618.740
        47.750          51.000
 131810817.637 6 102709737.26343  25082764.886    25082764.766    25082765.032
        36.250          20.000
 129521990.756 6 100926267.44443  24647217.676    24647217.261    24647220.690
        37.750          19.250
 120324372.645 7                  22896965.366
        47.750
 118573809.194 7  92395201.31747  22563842.435    22563841.599    22563845.564
        44.500          46.250
 114184764.491 7                  21728638.640
        46.250
 125301233.558 8                  23844032.341
        49.250
 143222590.559 5                  27254357.239
        34.250
 194880757.722 7                  37084574.496
        46.750
  30446343.104 7                   5793967.954
        43.500
 122179381.866 7                  23249965.526
        43.750
 121987238.774 5                  22804227.586
        33.000
 127559804.449 7                  23854347.866
        42.250
 122662172.299 6                  22962615.940
        41.000
 203701900.740 7                  38763179.670
        43.000
 124501496.524 5                  23315125.297
        33.250
 179974004.377 7                  34247712.002
        47.000
 114943465.049 8                  21540358.431
        48.750
 104947015.942 8                  19660112.589
        52.250
 105968453.553 8                  19802741.126
        52.500
 108194946.129 8                  20211724.390
        51.500
 119814061.748 7                  22374429.510
        46.250
 151302336.876 5                  28791877.186
        34.250
 21 11 12 10 36  0.0000000  0 30G17G02G04G19G06G07G20G09G05G13E09G30
                                E11E04E19S36S48E12R19R24R12S23R13S25
                                R02R18R17R03R04E05
 124520043.421 6  97028594.59146  23695384.226    23695383.869    23695386.714
        40.000          37.750
 118607182.422 7  92421173.28646  22570195.717    22570194.716    22570192.510
        46.250          36.000
 128259361.781 4  99942354.75241  24406948.817    24406948.576    24406951.487
        29.000           6.750
 119189626.734 7  92875019.03045  22681035.901    22681034.654    22681034.811
        44.000          33.500
 105696158.446 8  82360651.06349  20113310.766    20113310.637    20113312.648
        51.500          56.750
 114391666.103 7  89136369.32448  21768008.432    21768007.959    21768008.292
        47.250          49.000
 119655558.103 7  93238100.51544  22769694.952    22769693.875    22769693.510
        44.000          29.750
 112846136.135 7  87932057.50348  21473906.621    21473906.179    21473907.901
        47.250          50.500
 131739477.887 6 102654147.83843  25069188.407    25069188.287    25069189.678
        36.000          20.250
 129419442.689 6 100846359.98143  24627703.331    24627702.934    24627706.677
        38.750          20.000
 120289319.121 7                  22890294.947
        47.000
 118491282.212 7  92330894.61447  22548138.096    22548137.260    22548141.145
        44.500          46.500
 114171869.499 7                  21726184.840
        45.750
 125332873.598 8                  23850053.298
        48.750
 143293903.616 5                  27267927.341
        32.000
 194880767.616 7                  37084575.019
        46.750
  30446132.425 7                   5793928.138
        43.500
 122245319.054 7                  23262512.933
        43.250
 121870131.378 5                  22782337.701
        33.500
 127694116.225 7                  23879465.664
        42.750
 122623894.958 6                  22955450.381
        41.500
 203701976.448 7                  38763193.733
        43.000
 124407380.837 5                  23297499.033
        33.250
 179975857.765 7                  34248201.327
        46.750
 115015661.930 8                  21553887.889
        48.250
 104911641.509 8                  19653485.499
        52.250
 106053394.101 8                  19818614.190
        52.000
 108205208.072 8                  20213641.059
        51.250
 119759011.509 7                  22364149.181
        46.500
 151235350.04815                  28779130.374
        33.750
 21 11 12 10 36 30.0000000  0 30G17G02G04G19G06G07G20G09G05G13E09G30
                                E11E04E19S36S48E12R19R24R12S23R13S25
                                R02R18R17R03R04E05
 124616317.503 6  97103613.14246  23713704.280    23713703.932    23713707.247
        39.500          36.750
 118530707.794 7  92361582.67346  22555643.105    22555642.108    22555640.102
        46.000          36.500
 128357119.517 4 100018529.5194   24425551.864    24425551.659    24425554.166
        26.000           3.750
 119286042.901 7  92950148.41945  22699383.321    22699382.083    22699382.352
        43.500          33.500
 105693452.625 8  82358542.61349  20112795.954    20112795.825    20112797.807
        51.000          56.750
 114357661.507 7  89109872.24748  21761537.579    21761537.106    21761537.497
        47.000          49.250
 119589879.921 7  93186922.70544  22757196.362    22757195.289    22757195.571
        43.250          29.750
 112916203.439 7  87986655.37548  21487239.756    21487239.318    21487241.618
        47.750          51.000
 131668105.220 6 102598532.77043  25055606.333    25055606.173    25055608.287
        36.750          20.750
 129317043.757 6 100766568.69143  24608217.176    24608216.819    24608220.580
        38.250          21.000
 120254496.850 7                  22883668.535
        47.250
 118408961.478 7  92266748.62547  22532472.731    22532471.895    22532476.001
        44.250          46.500
 114159352.610 7                  21723803.001
        46.000
 125364678.855 8                  23856105.602
        49.000
 143365155.530 5                  27281486.335
        30.750
 194880757.738 7                  37084574.742
        46.750
  30445918.721 7                   5793886.780
        43.750
 122311531.811 7                  23275112.948
        43.250
 121753335.902 5                  22760504.007
        35.500
 127828459.727 7                  23904589.416
        42.250
 122586166.209 6                  22948387.249
        41.000
 203702049.283 7                  38763209.017
        43.000
 124313350.990 5                  23279889.548
        34.250
 179979318.622 7                  34248688.488
        46.250
 115087836.548 8                  21567413.592
        48.250
 104877045.546 8                  19647004.612
        52.000
 106138960.662 8                  19834604.496
        52.000
 108215701.405 8                  20215601.788
        51.250
 119704219.514 7                  22353917.230
        46.500
 151168477.972 5                  28766405.676
        31.500
 21 11 12 10 37  0.0000000  0 30G17G02G04G19G06G07G20G09G05G13E09G30
                                E11E04E19S36S48E12R19R24R12S23R13S25
                                R02R18R17R03R04E05
 124712572.661 6  97178616.97746  23732022.164    23732021.807    23732024.028
        40.000          37.250
 118454461.957 7  92302170.34246  22541133.996    22541132.990    22541131.077
        45.750          36.000
                                  24444155.951
        23.250
 119382623.000 7  93025405.56345  22717762.173    22717760.935    22717760.752
        43.750          33.000
 105691264.821 8  82356837.80949  20112379.508    20112379.379    20112381.549
        51.000          56.500
 114324091.238 7  89083713.60648  21755149.583    21755149.114    21755149.261
        46.500          48.750
 119524206.921 7  93135748.95244  22744699.276    22744698.194    22744698.168
        42.250          29.250
 112986507.635 7  88041437.83948  21500618.518    21500618.085    21500620.077
        47.250          51.000
 131596707.456 5 102542898.12643  25042020.906    25042020.732    25042020.765
        35.000          21.000
 129214802.903 6 100686900.57743  24588761.615    24588761.289    24588763.879
        38.500          20.500
 120219912.882 7                  22877087.539
        47.000
 118326857.310 7  92202771.39147  22516848.854    22516848.009    22516852.201
        44.750          46.250
 114147222.208 7                  21721494.659
        46.000
 125396655.492 8                  23862190.533
        48.750
 143436352.918 4                  27295035.140
        29.000
 194880760.763 7                  37084574.679
        46.750
  30445711.249 7                   5793848.096
        43.750
 122378026.572 7                  23287766.477
        43.000
 121636864.342 6                  22738731.541
        36.250
 127962839.177 7                  23929718.914
        42.000
 122548996.288 6                  22941428.726
        41.500
 203702129.326 7                  38763221.610
        43.000
 124219418.402 5                  23262301.172
        32.750
 179981184.007 7                  34249179.016
        47.500
 115159995.819 8                  21580935.904
        48.000
 104843237.758 8                  19640671.245
        52.250
 106225157.371 8                  19850712.590
        52.000
 108226431.777 8                  20217606.060
        51.750
 119649692.611 7                  22343734.514
        46.500
 151101728.40815                  28753703.197
        32.750
 21 11 12 10 37 30.0000000  0 30G17G02G04G19G06G07G20G09G05G13E09G30
                                E11E04E19S36S48E12R19R24R12S23R13S25
                                R02R18R17R03R04E05
 124808799.498 6  97253598.72546  23750332.963    23750332.588    23750335.953
        40.250          37.000
 118378440.628 7  92242932.95146  22526667.526    22526666.520    22526664.507
        46.250          36.000
                                  24462756.005
        19.250
 119479357.554 7  93100783.05045  22736169.632    22736168.385    22736168.357
        43.750          32.500
 105689589.693 8  82355532.49349  20112060.731    20112060.606    20112062.879
        51.750          56.750
 114290950.567 7  89057889.72248  21748843.175    21748842.706    21748842.632
        47.500          48.750
 119458532.759 7  93084574.30144  22732201.904    22732200.827    22732200.994
        42.500          29.000
 113057039.984 7  88096398.08948  21514040.463    21514040.030    21514041.845
        47.250          50.750
 131525277.889 6 102487238.70843  25028427.856    25028427.696    25028428.544
        36.750          19.750
 129112715.452 6 100607352.03743  24569334.271    24569333.932    24569337.322
        39.250          20.000
 120185560.430 7                  22870550.246
        47.000
 118244966.092 7  92138960.09147  22501264.987    22501264.133    22501268.735
        44.500          46.250
 114135472.715 7                  21719258.824
        45.500
 125428795.788 8                  23868306.652
        48.500
 143507488.764 4                  27308571.737
        27.750
 194880757.002 7                  37084575.077
        46.750
  30445502.331 7                   5793807.490
        43.750
 122444795.910 7                  23300472.192
        43.000
 121520713.726 6                  22717018.981
        36.250
 128097244.726 7                  23954854.553
        43.500
 122512382.056 6                  22934575.388
        41.250
 203702207.722 7                  38763237.596
        43.250
 124125580.856 5                  23244726.545
        35.000
 179984653.302 7                  34249670.300
        47.500
 115232131.018 8                  21594454.440
        48.250
 104810213.831 8                  19634484.794
        52.250
 106311974.208 8                  19866936.404
        52.500
 108237390.626 8                  20219653.212
        51.250
 119595423.452 7                  22333599.274
        46.000


 21 11 12 10 38  0.0000000  0 30G17G02G04G19G06G07G20G09G05G13E09G30
                                E11E04E19S36S48E12R19R24R12S23R13S25
                                R02R18R17R03R04E05
 124904999.841 6  97328559.83446  23768639.596    23768639.225    23768642.521
        40.000          37.750
 118302651.081 7  92183876.16946  22512245.302    22512244.296    22512242.267
        46.500          36.750
                                  24481351.229
        20.250
 119576247.527 7  93176281.64945  22754607.548    22754606.305    22754606.149
        43.750          32.500
 105688432.967 8  82354631.12749  20111840.697    20111840.572    20111842.812
        51.500          56.750
 114258245.950 7  89032405.61448  21742619.670    21742619.214    21742619.332
        47.500          49.000
 119392862.441 7  93033402.64244  22719705.085    22719704.012    22719704.472
        43.000          29.500
 113127802.922 7  88151538.01948  21527506.106    21527505.668    21527507.685
        47.500          51.000
 131453821.344 5 102431558.24443  25014830.029    25014829.833    25014830.456
        35.500          20.000
 129010787.677 6 100527927.90943  24549939.348    24549939.022    24549941.185
        38.250          21.750
 120151443.761 7                  22864058.221
        47.500
 118163295.387 7  92075320.62047  22485723.878    22485723.029    22485727.011
        44.500          46.250
 114124109.922 7                  21717096.533
        45.750
 125461103.117 8                  23874454.446
        49.000
 143578566.862 4                  27322097.767
        26.000
 194880762.531 7                  37084575.623
        46.750
  30445299.624 7                   5793767.893
        43.750
 122511843.448 7                  23313230.919
        43.000
 121404893.506 5                  22695367.289
        34.250
 128231677.465 7                  23979993.323
        42.250
 122476330.920 7                  22927825.990
        42.250
 203702287.164 7                  38763253.143
        43.000
 124031848.013 5                  23227172.741
        34.750
 179986530.700 7                  34250163.551
        47.250
 115304246.025 8                  21607969.019
        48.250
 104777980.112 8                  19628446.258
        52.000
 106399412.451 8                  19883276.354
        52.250
 108248580.671 8                  20221743.820
        51.500
 119541415.989 7                  22323514.614
        46.000
 150968591.27916                  28728367.076
        36.500
 21 11 12 10 38 30.0000000  0 30G17G02G04G19G06G07G20G09G05G13E09G30
                                E11E04E19S36S48E12R19R24R12S23R13S25
                                R02R18R17R03R04E05
 125001162.348 6  97403491.44146  23786939.379    23786939.022    23786942.086
        40.750          38.000
 118227086.683 7  92124994.82846  22497865.832    22497864.826    22497863.255
        46.000          36.750


 119673280.619 7  93251891.76845  22773072.574    22773071.331    22773071.160
        44.000          32.750
 105687786.710 8  82354127.52549  20111717.768    20111717.643    20111719.825
        51.250          57.000
 114225969.954 7  89007255.49648  21736477.392    21736476.923    21736477.174
        47.500          49.000
 119327187.765 7  92982227.59544  22707207.743    22707206.635    22707206.913
        42.250          29.500
 113198785.250 7  88206848.89348  21541013.845    21541013.403    21541015.397
        46.750          51.000
 131382328.296 6 102375849.35643  25001225.601    25001225.449    25001226.260
        37.000          21.000
 128909012.702 6 100448622.81243  24530571.730    24530571.400    24530573.470
        39.000          21.750
 120117553.514 7                  22857609.040
        47.250
 118081839.070 7  92011848.20647  22470223.314    22470222.451    22470226.208
        45.000          46.500
 114113125.627 7                  21715006.371
        45.500
 125493567.259 8                  23880632.341
        48.500
 143649577.378 3                  27335611.216
        23.750
 194880757.977 7                  37084574.505
        46.500
  30445090.563 7                   5793726.428
        43.750
 122579159.229 7                  23326040.893
        43.000
 121289399.220 5                  22673774.651
        31.000
 128366124.876 7                  24005136.538
        42.500
 122440836.978 7                  22921181.354
        42.750
 203702359.676 7                  38763266.844
        42.750
 123938214.470 5                  23209637.888
        35.000
 179988410.434 7                  34250655.724
        47.250
 115376330.061 7                  21621477.382
        47.750
 104746529.755 8                  19622554.444
        52.250
 106487459.453 8                  19899730.184
        52.250
 108259991.169 8                  20223875.472
        51.750
 119487660.243 7                  22313475.929
        46.000
                                  28715735.362
        29.000
 21 11 12 10 39  0.0000000  0 30G17G02G04G19G06G07G20G09G05G13E09G30
                                E11E04E19S36S48E12R19R24R12S23R13S25
                                R02R18R17R03R04E05
 125097299.282 6  97478403.13246  23805233.282    23805232.916    23805235.963
        39.750          36.750
 118151764.445 7  92066302.18146  22483532.512    22483531.515    22483529.831
        46.250          37.000


 119770468.782 7  93327622.72745  22791566.682    22791565.435    22791565.424
        43.750          32.500
 105687666.695 8  82354033.98649  20111695.017    20111694.892    20111697.042
        51.250          57.000
 114194139.192 7  88982452.31248  21730420.479    21730420.010    21730419.932
        47.000          49.000
 119261523.861 7  92931060.92444  22694712.375    22694711.284    22694711.138
        43.250          29.500
 113269999.447 7  88262340.44748  21554565.073    21554564.631    21554566.779
        47.500          51.000
 131310813.469 6 102320123.52043  24987616.648    24987616.474    24987617.758
        36.500          21.500
 128807406.628 6 100369449.34243  24511236.512    24511236.150    24511238.062
        38.250          21.750
 120083904.061 7                  22851205.805
        47.000
 118000614.779 7  91948556.58847  22454766.967    22454766.113    22454769.758
        44.750          47.000
 114102535.582 7                  21712991.267
        45.750
 125526201.672 8                  23886842.352
        48.500
                                  27349113.046
        22.500
 194880762.459 7                  37084574.702
        46.750
  30444890.278 7                   5793688.620
        43.750
 122646756.948 7                  23338904.291
        43.000
 121174249.359 5                  22652252.612
        33.750
 128500598.751 7                  24030284.637
        42.250
 122405917.753 6                  22914643.339
        41.750
 203702440.553 7                  38763282.392
        43.250
 123844699.816 5                  23192126.236
        35.500
 179991912.178 7                  34251151.386
        47.250
 115448397.854 7                  21634983.423
        47.500
 104715879.604 8                  19616812.896
        52.250
 106576126.554 8                  19916299.634
        52.250
 108271635.178 8                  20226050.537
        51.500
 119434170.545 7                  22303487.456
        45.750
 150835930.58615                  28703121.994
        34.250
 21 11 12 10 39 30.0000000  0 30G17G02G04G19G06G07G20G09G05G13E09G30
                                E11E04E19S36S48E12R19R24R12S23R13S25
                                R02R18R17R03R04E05
 125193391.673 6  97553280.09946  23823519.736    23823519.374    23823521.980
        40.750          38.000
 118076671.014 7  92007787.82346  22469242.486    22469241.498    22469240.323
        46.250          37.250


 119867793.143 7  93403459.80845  22810087.116    22810085.873    22810086.098
        44.000          32.250
 105688058.061 8  82354338.92249  20111769.349    20111769.224    20111771.562
        51.500          57.000
 114162739.389 7  88957984.94148  21724445.303    21724444.830    21724444.623
        47.250          49.000
 119195855.309 7  92879890.64744  22682215.610    22682214.515    22682214.755
        42.500          28.500
 113341427.410 7  88317998.58048  21568157.577    21568157.135    21568158.942
        46.750          50.500
 131239260.359 6 102264367.83843  24974000.763    24974000.620    24974000.661
        37.250          21.000
 128705955.303 6 100290396.43543  24491930.486    24491930.138    24491931.792
        38.000          20.500
 120050479.128 7                  22844845.293
        47.000
 117919609.467 7  91885435.60847  22439351.988    22439351.139    22439355.212
        45.250          47.000
 114092324.776 7                  21711048.130
        45.750
 125558989.177 8                  23893081.578
        48.750
                                  27362601.588
        20.250
 194880759.935 7                  37084575.185
        46.500
  30444684.564 7                   5793648.425
        43.500
 122714619.691 7                  23351818.047
        42.750
 121059432.749 5                  22630786.499
        34.750
 128635079.068 6                  24055432.331
        41.000
 122371560.091 7                  22908213.113
        42.750
 203702515.640 7                  38763296.710
        42.750
 123751292.166 6                  23174634.720
        36.000
 179993809.415 7                  34251647.410
        46.750
 115520431.127 7                  21648481.856
        46.750
 104686015.269 8                  19611218.311
        52.250
 106665394.028 8                  19932981.164
        52.000
 108283494.197 8                  20228265.746
        51.500
 119380929.686 7                  22293544.613
        46.000
                                  28690533.195
        33.250
 21 11 12 10 40  0.0000000  0 29G17G02G19G06G07G20G09G05G13E09G30E11
                                E04E19S36S48E12R19R24R12S23R13S25R02
                                R18R17R03R04E05
 125289452.213 6  97628132.24746  23841798.811    23841798.458    23841802.026
        39.250          36.250
 118001824.614 7  91949465.95646  22455000.062    22454999.074    22454997.249
        46.250          36.750
 119965264.996 7  93479411.81845  22828635.551    22828634.299    22828634.737
        44.000          32.750
 105688977.663 8  82355055.47149  20111944.423    20111944.298    20111946.662
        51.500          57.000
 114131787.875 7  88933866.88348  21718555.277    21718554.817    21718554.888
        47.500          49.250
 119130198.406 6  92828729.42444  22669722.102    22669721.007    22669720.845
        41.750          28.250
 113413082.775 7  88373833.90248  21581793.220    21581792.764    21581794.716
        47.000          50.500
 131167684.660 6 102208594.58443  24960379.448    24960379.256    24960380.979
        36.000          20.750
 128604676.187 6 100211477.75343  24472657.818    24472657.447    24472659.599
        38.250          19.750
 120017294.168 7                  22838530.339
        47.000
 117838841.853 7  91822499.84847  22423982.601    22423981.756    22423985.785
        45.250          47.000
 114082509.951 7                  21709180.346
        45.750
 125591944.408 8                  23899352.811
        48.500
                                  27376081.906
        20.000
 194880764.133 7                  37084574.885
        46.500
  30444492.155 7                   5793609.361
        43.750
 122782762.271 7                  23364785.369
        42.750
 120944969.733 6                  22609389.069
        36.750
 128769579.125 6                  24080585.466
        40.750
 122337783.022 7                  22901889.212
        44.000
 203702600.470 7                  38763313.233
        43.000
 123658012.357 5                  23157164.752
        35.250
 179997325.426 7                  34252146.559
        46.750
 115592444.254 7                  21661976.727
        47.000
 104656954.865 8                  19605774.170
        52.250
 106755274.498 8                  19949777.600
        52.000
 108295582.793 8                  20230524.179
        51.500
 119327953.041 7                  22283652.418
        46.250
                                  28677970.127
        22.500
 21 11 12 10 40 30.0000000  0 29G17G02G19G06G07G20G09G05G13E09G30E11
                                E04E19S36S48E12R19R24R12S23R13S25R02
                                R18R17R03R04E05
 125385460.142 6  97702943.40846  23860069.348    23860069.004    23860072.253
        40.250          38.000
 117927209.028 7  91891323.94246  22440801.042    22440800.050    22440798.309
        46.250          37.000
 120062863.454 7  93555462.48445  22847208.028    22847206.785    22847207.339
        44.000          33.000
 105690408.109 8  82356170.07949  20112216.543    20112216.414    20112218.778
        51.250          56.750
 114101267.995 7  88910085.16548  21712747.672    21712747.212    21712747.360
        47.500          49.500
 119064535.443 7  92777563.48444  22657226.952    22657225.857    22657225.790
        42.750          28.500
 113484944.902 7  88429830.33348  21595467.890    21595467.439    21595469.421
        47.000          50.250
 131096069.042 6 102152790.21943  24946752.572    24946752.389    24946752.829
        37.750          22.000
 128503552.473 6 100132680.13743  24453414.649    24453414.260    24453416.142
        38.500          20.500
 119984330.444 7                  22832257.578
        47.250
 117758296.464 7  91759737.25047  22408655.251    22408654.406    22408658.324
        45.000          46.750
 114073073.664 7                  21707384.730
        45.750
 125625047.774 8                  23905652.239
        48.500


 194880765.562 7                  37084575.162
        46.500
  30444286.927 7                   5793570.561
        43.500
 122851165.318 7                  23377801.868
        42.750
 120830845.719 6                  22588054.423
        36.750
 128904076.225 7                  24105737.157
        42.750
 122304570.811 7                  22895672.020
        43.500
 203702674.080 7                  38763327.198
        43.000
 123564846.755 5                  23139718.588
        34.750
 179999237.227 7                  34252646.017
        46.500
 115664418.703 7                  21675465.091
        47.250
 104628681.481 8                  19600477.568
        52.000
 106845745.690 8                  19966684.157
        52.000
 108307880.534 8                  20232821.787
        51.750
 119275221.218 7                  22273804.330
        46.250
 150637832.61015                  28665426.406
        34.500
 21 11 12 10 41  0.0000000  0 29G17G02G19G06G07G20G09G05G13E09G30E11
                                E04E19S36S48E12R19R24R12S23R13S25R02
                                R18R17R03R04E05
 125481428.442 6  97777723.63746  23878331.058    23878330.701    23878334.955
        39.000          36.500
 117852842.105 7  91833375.68746  22426649.316    22426648.333    22426646.714
        46.250          36.750
 120160600.514 7  93631621.13945  22865806.855    22865805.608    22865806.365
        44.000          33.250
 105692365.486 8  82357695.28749  20112589.218    20112589.089    20112591.139
        51.000          56.750
 114071196.461 7  88886652.81248  21707025.046    21707024.573    21707024.953
        46.750          49.250
 118998881.597 7  92726404.63744  22644733.028    22644731.933    22644731.969
        43.250          29.500
 113557026.702 7  88485997.94248  21609184.861    21609184.410    21609185.985
        46.250          50.000
 131024427.482 6 102096965.63143  24933118.976    24933118.766    24933119.258
        37.250          21.000
 128402601.436 6 100054017.11743  24434204.682    24434204.320    24434206.015
        36.500          19.500
 119951602.659 7                  22826029.569
        47.000
 117677991.269 7  91697161.81847  22393373.364    22393372.524    22393376.464
        44.750          46.500
 114064031.927 7                  21705664.167
        45.500
 125658313.110 8                  23911982.294
        48.500


 194880761.501 7                  37084575.511
        46.500
  30444091.315 7                   5793528.304
        43.250
 122919842.873 7                  23390870.911
        42.750
 120717080.527 5                  22566787.036
        35.250
 129038582.516 7                  24130890.026
        42.250
 122271941.636 7                  22889563.599
        42.500
 203702752.125 7                  38763342.549
        43.000
 123471813.998 5                  23122295.102
        34.750
 180002762.568 7                  34253147.751
        46.500
 115736368.335 7                  21688948.434
        47.250
 104601212.491 8                  19595331.852
        52.000
 106936819.468 8                  19983703.768
        52.500
 108320400.752 8                  20235160.656
        51.250
 119222748.725 7                  22264005.246
        46.500
                                  28652906.137
        26.250
 21 11 12 10 41 30.0000000  0 29G17G02G19G06G07G20G09G05G13E09G30E11
                                E04E19S36S48E12R19R24R12S23R13S25R02
                                R18R17R03R04E05
 125577351.036 6  97852468.28946  23896584.903    23896584.523    23896588.091
        39.500          37.250
 117778723.118 7  91775620.62646  22412545.090    22412544.111    22412542.126
        46.000          36.500
 120258469.858 7  93707882.87845  22884430.535    22884429.283    22884430.199
        43.250          33.000
 105694847.874 8  82359629.59549  20113061.456    20113061.331    20113063.602
        51.250          56.750
 114041571.866 7  88863568.72648  21701388.096    21701387.627    21701387.753
        47.250          49.500
 118933234.893 7  92675251.36545  22632241.217    22632240.122    22632240.232
        44.000          31.000
 113629323.178 7  88542332.82448  21622942.592    21622942.141    21622943.808
        46.750          50.500
 130952756.750 6 102041118.29543  24919481.144    24919480.952    24919481.480
        36.750          21.250
 128301821.521 6  99975487.39743  24415026.711    24415026.300    24415027.986
        37.500          19.250
 119919107.533 7                  22819845.925
        47.250
 117597926.265 7  91634773.54147  22378137.607    22378136.762    22378140.399
        44.750          46.250
 114055382.743 7                  21704018.324
        45.500
 125691736.296 8                  23918342.642
        48.500


 194880767.545 7                  37084576.745
        47.000
  30443898.818 7                   5793490.568
        44.000
 122988791.020 7                  23403991.392
        43.000
 120603675.200 5                  22545585.154
        33.250
 129173091.431 6                  24156042.303
        41.250
 122239895.130 7                  22883565.233
        43.250
 203702833.862 7                  38763358.151
        43.250
 123378916.205 5                  23104898.791
        35.250
 180004693.660 7                  34253652.642
        46.500
 115808288.628 7                  21702426.531
        47.250
 104574546.199 8                  19590336.331
        51.750
 107028489.036 8                  20000834.468
        52.000
 108333138.367 8                  20237539.630
        51.250
 119170531.905 7                  22254253.687
        47.000
 150506394.39316                  28640413.406
        36.000
 21 11 12 10 42  0.0000000  0 29G17G02G19G06G07G20G09G05G13E09G30E11
                                E04E19S36S48E12R19R24R12S23R13S25R02
                                R18R17R03R04E05
 125673217.384 6  97927169.06746  23914828.396    23914828.039    23914831.457
        38.250          37.250
 117704846.771 7  91718054.64346  22398486.809    22398485.830    22398483.841
        46.250          36.750
 120356460.327 7  93784238.99845  22903077.614    22903076.367    22903077.124
        43.000          32.250
 105697848.418 8  82361967.65949  20113632.527    20113632.398    20113634.793
        51.000          56.750
 114012388.156 7  88840828.18948  21695834.303    21695833.838    21695834.145
        47.000          49.750
 118867588.213 7  92624098.11745  22619749.046    22619747.951    22619748.567
        43.500          31.000
 113701824.270 7  88598827.14348  21636738.992    21636738.536    21636740.611
        46.500          50.500
 130881049.849 6 101985242.78743  24905835.477    24905835.258    24905835.649
        36.750          20.000
 128201206.415 6  99897086.11543  24395879.944    24395879.542    24395881.402
        37.500          18.000
 119886836.873 7                  22813705.052
        47.000
 117518096.555 7  91572568.61247  22362946.626    22362945.786    22362949.300
        45.000          46.500
 114047119.153 7                  21702445.697
        45.250
 125725308.312 8                  23924731.256
        48.250


 194880763.594 7                  37084574.751
        46.500
  30443702.235 7                   5793450.761
        43.500
 123058000.905 7                  23417161.614
        42.500
 120490626.455 5                  22524454.233
        34.000
 129307591.726 7                  24181196.002
        43.000
 122208426.494 7                  22877673.915
        43.250
 203702912.226 7                  38763372.670
        43.000
 123286150.061 5                  23087526.727
        35.000
 180008247.867 7                  34254157.220
        46.750
 115880170.340 7                  21715896.995
        46.750
 104548676.759 8                  19585490.017
        52.000
 107120742.775 8                  20018074.422
        51.500
 108346083.845 8                  20239958.367
        51.500
 119118561.775 7                  22244549.809
        46.500
 150440851.487 4                  28627939.984
        28.750
 21 11 12 10 42 30.0000000  0 29G17G02G19G06G07G20G09G05G13E09G30E11
                                E04E19S36S48E12R19R24R12S23R13S25R02
                                R18R17R03R04E05
 125769031.703 6  98001829.31646  23933061.286    23933060.951    23933064.198
        39.750          37.250
 117631222.451 7  91660685.04346  22384476.632    22384475.653    22384473.644
        46.500          37.000
 120454575.468 7  93860692.25745  22921748.499    22921747.261    22921748.112
        43.000          32.500
 105701374.940 8  82364715.57849  20114303.563    20114303.434    20114305.814
        51.500          56.750
 113983653.622 7  88818437.65948  21690366.389    21690365.960    21690366.080
        47.750          50.000
 118801948.904 7  92572950.60645  22607258.524    22607257.424    22607257.537
        43.500          30.750
 113774534.817 7  88655484.67148  21650575.383    21650574.927    21650576.862
        47.000          50.500
 130809313.267 6 101929344.13643  24892184.492    24892184.296    24892184.836
        37.750          21.000
 128100765.153 6  99818820.28943  24376766.548    24376766.142    24376768.292
        37.750          18.000
 119854797.203 7                  22807608.147
        47.250
 117438511.920 7  91510554.64647  22347801.936    22347801.096    22347804.871
        45.500          46.750
 114039248.974 7                  21700948.144
        45.250
 125759034.835 8                  23931149.188
        48.500


 194880759.950 7                  37084577.009
        46.750
  30443510.074 7                   5793409.913
        43.750
 123127478.422 7                  23430382.720
        42.500
 120377945.480 6                  22503389.201
        36.000
 129442086.942 6                  24206346.167
        39.250
 122177545.350 7                  22871892.415
        43.250
 203702990.491 7                  38763384.471
        43.000
 123193526.966 5                  23070181.716
        35.250
 180010191.681 7                  34254664.239
        47.250
 115952020.198 7                  21729361.341
        47.750
 104523612.898 8                  19580794.947
        51.750
 107213584.366 8                  20035424.069
        51.500
 108359242.216 8                  20242416.350
        51.500
 119066844.732 7                  22234891.245
        46.500
 150375433.409 5                  28615492.763
        35.500
 21 11 12 10 43  0.0000000  0 29G17G02G19G06G07G20G09G05G13E09G30E11
                                E04E19S36S48E12R19R24R12S23R13S25R02
                                R18R17R03R04E05
 125864790.918 6  98076446.62146  23951283.263    23951282.950    23951287.268
        39.250          38.250
 117557851.845 7  91603513.14646  22370514.693    22370513.714    22370511.673
        46.500          37.250
 120552811.647 7  93937239.82645  22940442.244    22940440.997    22940441.596
        42.750          32.250
 105705427.638 8  82367873.50949  20115074.804    20115074.675    20115076.883
        51.250          56.750
 113955369.123 7  88796397.80248  21684984.016    21684983.583    21684983.449
        47.500          49.750
 118736316.714 7  92521808.65845  22594768.845    22594767.745    22594768.129
        43.000          31.000
 113847451.829 7  88712303.09248  21664451.083    21664450.636    21664452.454
        47.000          50.500
 130737546.098 6 101873421.66443  24878527.469    24878527.273    24878529.333
        36.500          19.750
 128000497.986 6  99740690.10342  24357687.406    24357687.000    24357687.123
        36.000          17.500
 119822987.403 7                  22801554.928
        47.500
 117359174.500 7  91448733.31747  22332704.591    22332703.755    22332707.466
        45.500          46.750
 114031772.391 7                  21699525.458
        45.750
 125792913.941 8                  23937596.136
        48.750


 194880766.622 7                  37084576.405
        46.750
  30443322.366 7                   5793371.994
        43.500
 123197221.766 7                  23443654.723
        42.750
 120265636.044 6                  22482394.923
        36.750
 129576572.952 6                  24231494.607
        41.500
 122147253.760 7                  22866222.660
        44.000
 203703069.693 7                  38763402.715
        43.000
 123101050.501 5                  23052863.786
        34.750
 180013749.091 7                  34255172.032
        47.250
 116023835.390 7                  21742819.467
        47.250
 104499355.198 8                  19576250.586
        52.000
 107307009.153 8                  20052882.733
        52.000
 108372611.120 8                  20244913.725
        51.750
 119015378.852 7                  22225280.217
        46.500
 150310139.362 6                  28603068.766
        39.250
 21 11 12 10 43 30.0000000  0 28G17G02G19G06G07G20G09G05G13E09G30E11
                                E04S36S48E12R19R24R12S23R13S25R02R18
                                R17R03R04E05
 125960489.535 6  98151016.67546  23969495.131    23969494.832    23969498.241
        39.500          37.500
 117484734.573 7  91546538.65046  22356601.053    22356600.079    22356598.282
        46.500          37.250
 120651163.040 7  94013877.18345  22959157.694    22959156.460    22959157.111
        42.750          32.000
 105710004.606 8  82371439.96249  20115945.924    20115945.799    20115947.906
        51.250          56.750
 113927533.607 7  88774707.80948  21679687.094    21679686.670    21679686.540
        47.500          49.750
 118670689.398 7  92470670.49345  22582280.488    22582279.397    22582280.068
        43.000          30.750
 113920570.426 7  88769278.59548  21678365.066    21678364.624    21678366.574
        46.750          50.250
 130665745.128 6 101817472.82343  24864865.539    24864865.365    24864864.810
        36.250          20.250
 127900405.113 6  99662695.72243  24338638.748    24338638.346    24338639.898
        37.500          18.500
 119791404.273 7                  22795544.956
        47.750
 117280084.435 7  91387104.73147  22317654.247    22317653.411    22317657.187
        45.250          46.750
 114024687.445 7                  21698177.189
        46.000
 125826941.612 8                  23944071.412
        48.500
 194880767.747 7                  37084575.717
        46.750
  30443133.607 7                   5793333.672
        43.750
 123267227.123 7                  23456976.212
        42.750
 120153699.551 6                  22461468.845
        36.250
 129711043.890 7                  24256642.271
        42.250
 122117551.534 7                  22860661.949
        44.000
 203703147.594 7                  38763416.809
        43.250
 123008722.138 5                  23035573.084
        34.250
 180015712.338 7                  34255681.086
        47.250
 116095612.975 7                  21756271.105
        46.750
 104475902.821 8                  19571857.128
        52.000
 107401010.570 8                  20070449.270
        52.000
 108386185.683 8                  20247449.445
        51.500
 118964160.965 7                  22215715.976
        47.000
                                  28590663.498
        22.250
 21 11 12 10 44  0.0000000  0 28G17G02G19G06G07G20G09G05G13E09G30E11
                                E04S36S48E12R19R24R12S23R13S25R02R18
                                R17R03R04E05
 126056134.286 6  98225544.76446  23987695.317    23987695.013    23987699.310
        38.750          38.000
 117411882.448 7  91489770.76646  22342737.647    22342736.668    22342735.058
        46.750          37.500
 120749635.252 7  94090608.66445  22977896.391    22977895.144    22977896.326
        43.000          32.250
 105715116.051 8  82375422.89049  20116918.507    20116918.382    20116920.667
        51.250          57.000
 113900157.908 7  88753376.10848  21674477.740    21674477.320    21674477.073
        47.250          49.750
 118605076.984 7  92419543.94545  22569794.653    22569793.567    22569794.041
        43.500          31.000
 113993897.799 7  88826416.77748  21692318.769    21692318.327    21692320.290
        47.000          50.250
 130593920.269 6 101761505.37143  24851196.651    24851196.455    24851197.184
        37.500          20.500
 127800496.702 6  99584845.08943  24319627.579    24319627.217    24319627.967
        38.500          18.750
 119760056.756 7                  22789579.547
        47.250
 117201253.901 7  91325678.37847  22302653.133    22302652.293    22302656.249
        45.000          47.000
 114018004.309 7                  21696905.474
        45.500
 125861125.978 8                  23950576.461
        48.500
 194880774.673 7                  37084577.438
        46.750
  30442953.139 7                   5793296.200
        43.750
 123337502.707 7                  23470349.212
        42.250
 120042149.998 5                  22440614.721
        35.250
 129845505.782 6                  24281786.233
        40.500
 122088451.026 7                  22855212.959
        42.250
 203703235.120 7                  38763433.113
        43.000
 122916556.571 5                  23018313.029
        34.750
 180017681.594 7                  34256192.443
        47.250
 116167360.598 7                  21769716.473
        46.750
 104453266.503 8                  19567616.784
        52.500
 107495594.480 8                  20088124.719
        51.750
 108399973.604 8                  20250025.391
        51.750
 118913199.402 7                  22206199.587
        47.250
 150179921.17115                  28578289.109
        34.750
 21 11 12 10 44 30.0000000  0 28G17G02G19G06G07G20G09G05G13E09G30E11
                                E04S36S48E12R19R24R12S23R13S25R02R18
                                R17R03R04E05
 126151703.732 6  98300014.15246  24005881.872    24005881.595    24005885.645
        39.500          37.750
 117339278.919 7  91433196.58246  22328922.068    22328921.080    22328918.836
        46.000          37.000
 120848206.478 7  94167417.31745  22996654.091    22996652.831    22996653.920
        43.250          32.250
 105720744.031 8  82379808.31549  20117989.428    20117989.303    20117991.594
        51.250          56.750
 113873224.563 7  88732389.10048  21669352.370    21669351.955    21669351.739
        47.250          49.500
 118539461.456 7  92368414.97745  22557308.266    22557307.184    22557307.415
        43.250          31.250
 114067412.967 7  88883701.30248  21706308.314    21706307.876    21706309.958
        46.750          50.250
 130522052.407 6 101705504.42743  24837521.331    24837521.117    24837520.990
        36.750          20.250
 127700755.396 6  99507124.67243  24300646.790    24300646.406    24300648.384
        39.250          21.000
 119728925.654 7                  22783655.514
        47.250
 117122667.019 7  91264441.88847  22287698.437    22287697.597    22287701.631
        45.000          47.000
 114011705.007 7                  21695706.779
        45.250
 125895447.076 8                  23957107.619
        48.500
 194880770.929 7                  37084577.326
        46.750
  30442764.861 7                   5793255.951
        43.750
 123408028.728 7                  23483770.005
        42.000
 119930972.047 6                  22419833.085
        36.500
 129979936.112 6                  24306925.031
        36.750
 122059935.555 7                  22849875.798
        43.750
 203703311.309 7                  38763448.357
        43.250
 122824538.842 5                  23001081.144
        33.750
 180021255.692 7                  34256702.615
        47.000
 116239059.036 7                  21783152.699
        47.250
 104431428.704 8                  19563525.797
        52.250
 107590738.076 8                  20105904.578
        51.750
 108413953.965 8                  20252637.152
        52.000
 118862474.251 7                  22196726.513
        46.750
 150114994.346 4                  28565931.514
        28.000
 21 11 12 10 45  0.0000000  0 28G17G02G19G06G07G20G09G05G13E09G30E11
                                E04S36S48E12R19R24R12S23R13S25R02R18
                                R17R03R04E05
 126247208.222 6  98374432.92546  24024056.312    24024056.044    24024059.754
        39.000          36.500
 117266939.736 7  91376828.38346  22315156.265    22315155.282    22315153.004
        46.750          37.250
 120946886.802 7  94244310.97645  23015432.397    23015431.128    23015431.998
        44.000          32.500
 105726902.563 8  82384607.15549  20119161.428    20119161.303    20119163.504
        51.500          56.750
 113846748.195 7  88711758.17448  21664313.924    21664313.509    21664313.486
        47.500          49.250
 118473856.264 7  92317294.07145  22544824.195    22544823.127    22544823.647
        43.000          31.000
 114141127.018 7  88941140.78948  21720335.662    21720335.224    21720337.545
        46.750          49.750
 130450154.042 6 101649479.69343  24823839.163    24823838.949    24823838.960
        37.500          20.500
 127601196.021 6  99429545.99643  24281701.538    24281701.118    24281701.646
        39.750          19.000
 119698023.696 7                  22777775.146
        47.000
 117044339.787 7  91203407.71747  22272793.246    22272792.406    22272796.457
        45.500          46.750
 114005803.545 7                  21694583.720
        45.750
 125929916.832 8                  23963667.038
        48.500
 194880771.011 7                  37084576.522
        47.000
  30442580.031 7                   5793216.006
        43.750
 123478817.225 7                  23497240.661
        42.000
 119820184.196 5                  22399122.286
        35.500
 130114345.259 6                  24332059.884
        41.250
 122032021.190 7                  22844649.982
        44.000
 203703388.749 7                  38763462.362
        43.000
 122732686.574 5                  22983879.715
        33.250
 180023241.622 7                  34257217.021
        47.000
 116310719.625 7                  21796581.983
        46.750
 104410404.405 8                  19559586.966
        52.250
 107686451.006 8                  20123790.816
        51.750
 108428138.466 8                  20255286.998
        51.000
 118811998.130 7                  22187300.559
        46.750
 150050194.269 6                  28553603.260
        36.250
 21 11 12 10 45 30.0000000  0 28G17G02G19G06G07G20G09G05G13E09G30E11
                                E04S36S48E12R19R24R12S23R13S25R02R18
                                R17R03R04E05
 126342647.486 6  98448800.84846  24042218.163    24042217.882    24042222.336
        39.750          37.750
 117194869.430 7  91320669.70246  22301441.546    22301440.572    22301438.658
        47.000          37.500
 121045675.010 7  94321288.70545  23034231.478    23034230.213    23034231.348
        44.250          33.000
 105733594.392 8  82389821.55449  20120434.918    20120434.789    20120437.008
        51.500          56.750
 113820732.512 7  88691486.22548  21659363.737    21659363.322    21659363.051
        47.500          49.750
 118408264.002 7  92266183.23545  22532342.283    22532341.206    22532342.181
        43.500          31.250
 114215039.775 7  88998735.11548  21734400.660    21734400.213    21734402.708
        47.000          50.250
 130378227.646 6 101593433.09743  24810151.404    24810151.203    24810152.840
        37.500          20.250
 127501822.737 6  99352112.34443  24262791.589    24262791.187    24262792.531
        39.500          21.000
 119667352.457 7                  22771938.402
        47.250
 116966277.075 7  91142579.66347  22257938.562    22257937.726    22257941.432
        45.500          46.750
 114000302.695 7                  21693537.036
        45.750
 125964536.042 8                  23970254.891
        48.500
 194880778.384 7                  37084577.541
        46.500
  30442402.488 7                   5793178.605
        43.750
 123549869.097 7                  23510761.397
        42.250
 119709792.135 5                  22378483.674
        35.750
 130248731.820 6                  24357191.059
        41.250
 122004712.521 7                  22839537.857
        43.250
 203703471.319 7                  38763476.537
        43.000
 122641006.909 5                  22966710.817
        32.500
 180026833.860 7                  34257731.016
        46.750
 116382343.055 7                  21810003.963
        47.500
 104390196.813 8                  19555801.699
        52.250
 107782731.339 8                  20141782.977
        51.250
 108442527.119 8                  20257974.336
        51.500
 118761772.005 7                  22177921.384
        47.250
 149985523.524 5                  28541296.834
        32.750
 21 11 12 10 46  0.0000000  0 28G17G02G19G06G07G20G09G05G13E09G30E11
                                E04S36S48E12R19R24R12S23R13S25R02R18
                                R17R03R04E05
 126438010.402 6  98523109.27646  24060365.581    24060365.300    24060369.522
        38.750          36.500
 117123062.038 7  91264715.89046  22287777.171    22287776.188    22287774.449
        46.500          37.750
 121144559.528 7  94398341.47645  23053048.869    23053047.622    23053048.414
        44.250          33.250
 105740811.932 8  82395445.59449  20121808.324    20121808.199    20121810.570
        51.250          57.000
 113795170.396 7  88671567.70948  21654499.237    21654498.817    21654498.892
        47.250          50.000
 118342676.973 7  92215076.47045  22519861.710    22519860.628    22519861.091
        43.500          31.250
 114289140.695 7  89056476.06648  21748501.770    21748501.323    21748503.272
        46.750          50.250
 130306265.555 6 101537358.74143  24796457.854    24796457.694    24796458.594
        37.750          21.250
 127402628.606 6  99274818.26443  24243915.541    24243915.144    24243916.542
        39.750          22.000
 119636903.087 7                  22766144.121
        47.250
 116888473.321 7  91081953.39447  22243132.926    22243132.090    22243135.675
        45.250          47.250
 113995194.847 7                  21692565.017
        45.750
 125999295.103 8                  23976869.250
        48.500
 194880775.385 7                  37084577.215
        46.750
  30442219.997 7                   5793140.780
        43.750
 123621174.828 7                  23524330.402
        42.250
 119599791.906 5                  22357919.796
        34.750
 130383084.810 6                  24382314.378
        41.000
 121978003.698 7                  22834537.508
        42.500
 203703551.408 7                  38763492.505
        43.000
 122549495.332 5                  22949573.576
        32.750
 180028833.940 7                  34258248.137
        46.750
 116453920.824 7                  21823417.588
        47.250
 104370798.926 8                  19552167.841
        52.250
 107879566.715 8                  20159879.286
        51.750
 108457109.476 8                  20260698.474
        51.500
 118711786.602 7                  22168586.911
        47.250
 149920974.105 6                  28529013.423
        37.000
 21 11 12 10 46 30.0000000  0 28G17G02G19G06G07G20G09G05G13E09G30E11
                                E04S36S48E12R19R24R12S23R13S25R02R18
                                R17R03R04E05
 126533302.251 6  98597362.31546  24078498.798    24078498.517    24078502.998
        38.750          36.000
 117051527.586 7  91208974.76146  22274164.386    22274163.394    22274161.984
        46.500          37.500
 121243544.602 7  94475472.61345  23071885.216    23071883.964    23071884.275
        44.250          32.250
 105748563.719 8  82401485.93349  20123283.406    20123283.281    20123285.602
        51.250          56.750
 113770071.041 7  88652009.77848  21649722.855    21649722.440    21649722.609
        47.500          50.000
 118277103.644 7  92163980.38745  22507383.358    22507382.281    22507382.460
        44.000          30.500
 114363435.418 7  89114368.03248  21762639.547    21762639.105    21762641.009
        46.250          49.750
 130234273.922 6 101481261.34843  24782758.852    24782758.665    24782758.714
        37.500          20.500
 127303622.872 6  99197671.01443  24225074.733    24225074.327    24225076.242
        39.750          22.000
 119606682.935 7                  22760393.443
        47.000
 116810939.175 7  91021537.20347  22228378.637    22228377.801    22228381.333
        45.750          47.000
 113990488.561 7                  21691669.304
        45.250
 126034200.563 8                  23983511.492
        48.250
 194880778.301 7                  37084579.835
        46.500
  30442047.302 7                   5793100.852
        43.500
 123692741.078 6                  23537949.064
        41.750
 119490196.077 6                  22337433.301
        36.500
 130517407.952 6                  24407434.897
        41.000
 121951904.835 7                  22829651.888
        43.000
 203703635.288 7                  38763508.576
        42.750
 122458164.384 5                  22932467.900
        30.750
 180032440.538 7                  34258767.020
        46.000
 116525459.727 7                  21836824.507
        47.250
 104352219.676 8                  19548687.083
        52.500
 107976961.418 8                  20178079.736
        51.500
 108471892.078 8                  20263460.172
        51.500
 118662048.824 7                  22159298.602
        47.250
 149856553.854 5                  28516754.284
        33.750
 21 11 12 10 47  0.0000000  0 28G17G02G19G06G07G20G09G05G13E09G30E11
                                E04S36S48E12R19R24R12S23R13S25R02R18
                                R17R03R04E05
 126628514.338 6  98671553.18446  24096617.744    24096617.454    24096621.351
        39.500          36.500
 116980262.906 7  91153443.84246  22260603.245    22260602.253    22260600.407
        46.750          38.000
 121342621.441 7  94552675.24545  23090738.856    23090737.609    23090737.865
        43.750          31.750
 105756844.524 8  82407938.49349  20124859.193    20124859.068    20124861.433
        51.250          57.000
 113745430.231 7  88632809.15848  21645033.910    21645033.495    21645033.495
        47.500          50.250
 118211538.558 7  92112890.71345  22494906.875    22494905.807    22494905.869
        44.000          30.750
 114437915.875 7  89172404.72148  21776812.853    21776812.406    21776814.241
        46.750          50.000
 130162248.016 6 101425137.26943  24769052.143    24769051.978    24769053.566
        38.000          22.250
 127204801.396 6  99120667.35843  24206269.792    24206269.372    24206271.812
        40.000          23.750
 119576685.626 7                  22754685.114
        46.750
 116733671.550 7  90961328.68947  22213675.100    22213674.269    22213677.775
        45.750          47.500
 113986178.684 7                  21690849.403
        45.500
 126069245.307 8                  23990180.209
        48.250
 194880773.069 7                  37084579.102
        46.500
  30441875.326 7                   5793064.449
        43.500
 123764560.802 6                  23551616.075
        41.750
 119381002.383 6                  22317021.935
        37.250
 130651692.656 6                  24432545.163
        38.250
 121926412.637 7                  22824879.240
        44.250
 203703716.521 7                  38763524.879
        43.000
 122367012.427 5                  22915400.891
        31.750
 180034450.148 7                  34259286.698
        46.500
 116596952.685 7                  21850221.836
        46.750
 104334454.909 8                  19545359.173
        52.250
 108074905.363 8                  20196382.905
        51.500
 108486866.758 8                  20266257.868
        51.500
 118612551.743 7                  22150055.366
        46.500
 149792257.411 5                  28504518.216
        31.000
 21 11 12 10 47 30.0000000  0 28G17G02G19G06G07G20G09G05G13E09G30E11
                                E04S36S48E12R19R24R12S23R13S25R02R18
                                R17R03R04E05
 126723646.230 6  98745681.56345  24114720.378    24114720.074    24114724.469
        38.500          35.500
 116909271.851 7  91098126.14046  22247093.901    22247092.904    22247091.327
        46.750          38.000
 121441788.946 7  94629948.53945  23109609.645    23109608.393    23109608.863
        43.500          31.250
 105765657.069 8  82414805.39549  20126536.276    20126536.151    20126538.399
        51.250          56.750
 113721250.886 7  88613968.11748  21640432.679    21640432.259    21640432.151
        47.250          49.750
 118145984.429 7  92061809.56445  22482432.123    22482431.046    22482431.169
        44.000          30.500
 114512581.959 7  89230586.05348  21791021.324    21791020.877    21791022.974
        47.000          50.000
 130090189.444 6 101368987.74043  24755339.730    24755339.578    24755339.838
        37.500          21.000
 127106167.636 6  99043809.96543  24187501.137    24187500.655    24187502.476
        40.750          23.500
 119546912.650 7                  22749019.567
        46.500
 116656675.231 7  90901331.58747  22199023.283    22199022.456    22199026.092
        45.750          47.500
 113982267.979 7                  21690105.214
        45.000
 126104430.133 8                  23996875.743
        48.000
 194880785.980 7                  37084579.437
        46.500
  30441704.916 7                   5793028.023
        43.500
 123836634.858 6                  23565331.388
        41.750
 119272217.587 6                  22296685.612
        36.250
 130785937.362 6                  24457649.992
        39.750
 121901531.563 7                  22820222.129
        44.750
 203703796.879 7                  38763539.041
        42.750
 122276046.249 5                  22898362.290
        32.000
 180038075.200 7                  34259807.374
        46.750
 116668400.443 7                  21863612.131
        46.750
 104317507.426 8                  19542184.545
        52.500
 108173396.869 8                  20214788.313
        51.250
 108502033.591 8                  20269090.950
        51.250
 118563296.594 8                  22140857.159
        48.000
 149728087.073 6                  28492308.588
        36.250
 21 11 12 10 48  0.0000000  0 28G17G02G19G06G07G20G09G05G13E09G30E11
                                E04S36S48E12R19R24R12S23R13S25R02R18
                                R17R03R04E05
 126818692.681 6  98819743.32745  24132808.082    24132807.801    24132811.663
        39.000          35.750
 116838554.674 7  91043021.85346  22233637.028    22233636.031    22233634.448
        46.750          37.750
 121541041.181 7  94707287.84245  23128496.902    23128495.650    23128495.794
        43.000          30.250
 105774999.524 8  82422085.21549  20128314.048    20128313.923    20128316.044
        51.500          56.750
 113697532.011 7  88595485.88148  21635919.245    21635918.825    21635918.808
        47.750          49.750
 118080439.322 7  92010735.46045  22469959.271    22469958.194    22469958.271
        44.000          30.750
 114587429.089 7  89288908.46648  21805264.160    21805263.718    21805265.673
        46.500          49.500
 130018095.277 6 101312810.47443  24741621.332    24741621.176    24741621.365
        37.000          21.250
 127007720.535 6  98967098.02443  24168766.616    24168766.138    24168768.180
        39.500          23.000
 119517361.078 7                  22743396.104
        46.750
 116579950.590 7  90841546.18947  22184422.980    22184422.149    22184426.057
        45.750          47.750
 113978754.650 7                  21689436.603
        45.500
 126139751.255 8                  24003597.093
        48.500
 194880790.200 7                  37084579.442
        46.750
  30441532.017 7                   5792988.244
        43.750
 123908959.591 7                  23579094.179
        42.000
 119163843.449 6                  22276425.877
        36.000
 130920136.627 5                  24482745.493
        35.500
 121877261.552 7                  22815678.257
        43.500
 203703877.841 7                  38763556.802
        43.000
 122185268.004 5                  22881364.679
        33.500
 180040095.802 7                  34260328.832
        47.250
 116739799.684 7                  21876991.341
        46.000
 104301375.892 8                  19539162.377
        52.500
 108272429.280 8                  20233295.017
        51.750
 108517388.604 8                  20271959.530
        51.250
 118514279.567 7                  22131703.610
        47.000
 149664040.680 5                  28480119.536
        35.500
 21 11 12 10 48 30.0000000  0 28G17G02G19G06G07G20G09G05G13E09G30E11
                                E04S36S48E12R19R24R12S23R13S25R02R18
                                R17R03R04E05
 126913654.054 6  98893738.80045  24150878.169    24150877.888    24150882.854
        38.500          35.000
 116768116.692 7  90988135.11346  22220233.265    22220232.268    22220230.402
        46.750          37.750
 121640377.745 7  94784692.85545  23147400.139    23147398.905    23147399.391
        43.000          30.250
 105784875.492 8  82429780.76049  20130193.366    20130193.241    20130195.337
        51.250          56.500
 113674277.852 7  88577365.75748  21631493.873    21631493.449    21631493.516
        47.500          49.250
 118014907.045 7  91959671.35145  22457489.178    22457488.101    22457487.837
        44.000          31.250
 114662458.030 7  89347372.54448  21819541.711    21819541.269    21819542.983
        46.250          49.000
 129945968.835 6 101256608.03943  24727895.357    24727895.237    24727896.368
        37.250          21.000
 126909464.825 6  98890535.22743  24150069.157    24150068.679    24150070.121
        38.000          22.250
 119488033.335 7                  22737815.138
        47.250
 116503503.357 7  90781976.95347  22169875.521    22169874.694    22169878.397
        46.000          47.750
 113975642.277 7                  21688844.382
        45.750
 126175210.487 8                  24010344.897
        48.500
 194880783.786 7                  37084579.692
        46.500
  30441359.337 7                   5792952.256
        43.500
 123981536.755 7                  23592905.250
        42.250
 119055886.900 5                  22256243.472
        35.000
 131054290.682 4                  24507834.831
        28.500
 121853607.909 7                  22811249.872
        43.500
 203703960.573 7                  38763571.371
        43.000
 122094685.426 5                  22864399.890
        32.500
 180042129.252 7                  34260851.950
        46.750
 116811151.835 7                  21890362.786
        45.250
 104286064.301 8                  19536294.072
        52.250
 108372002.010 8                  20251902.582
        51.500
 108532932.593 8                  20274863.367
        51.500
 118465502.787 7                  22122594.260
        47.000
 149600121.610 5                  28467957.034
        33.500
 21 11 12 10 49  0.0000000  0 28G17G02G19G06G07G20G09G05G13E09G30E11
                                E04S36S48E12R19R24R12S23R13S25R02R18
                                R17R03R04E05
 127008529.039 6  98967666.88745  24168932.863    24168932.573    24168937.504
        38.250          35.000
 116697961.457 7  90933468.70246  22206882.906    22206881.909    22206880.302
        47.250          38.250
 121739796.988 7  94862162.29245  23166318.836    23166317.598    23166318.826
        42.750          30.500
 105795286.845 8  82437893.48749  20132174.630    20132174.505    20132176.722
        51.250          56.750
 113651490.868 7  88559609.66648  21627157.871    21627157.447    21627157.245
        47.500          49.500
 117949389.434 7  91908618.67945  22445021.175    22445020.102    22445020.032
        44.250          31.000
 114737667.876 7  89405977.59548  21833853.555    21833853.113    21833854.979
        46.500          49.000
 129873811.205 6 101200381.35343  24714164.518    24714164.366    24714165.464
        36.750          22.000
 126811403.610 6  98814123.98943  24131408.125    24131407.656    24131410.139
        38.250          21.750
 119458930.179 7                  22732276.938
        46.750
 116427337.578 7  90722627.02447  22155381.623    22155380.796    22155384.295
        46.000          47.750
 113972932.893 7                  21688328.719
        45.000
 126210807.806 7                  24017118.861
        47.750
 194880783.377 7                  37084580.434
        46.750
  30441191.741 7                   5792911.488
        43.750
 124054366.444 6                  23606764.309
        41.500
 118948354.020 5                  22236142.664
        35.500
 131188504.90115                  24532910.320
        35.500
 121830574.239 7                  22806938.581
        43.250
 203704042.818 7                  38763587.563
        43.000
 122004303.467 5                  22847475.920
        33.250
 180045775.380 7                  34261375.854
        47.000
 116882458.838 7                  21903725.728
        46.250
 104271575.080 8                  19533579.620
        52.250
 108472112.038 8                  20270610.734
        51.250
 108548665.244 8                  20277802.126
        51.000
 118416966.700 7                  22113531.019
        47.000
 149536331.242 6                  28455818.246
        36.500
 21 11 12 10 49 30.0000000  0 27G17G02G19G06G07G20G09G05G13E09G30E11
                                E04S36S48E12R19R12S23R13S25R02R18R17
                                R03R04E05
 127103316.221 6  99041526.59445  24186970.335    24186970.058    24186974.249
        38.250          33.500
 116628092.395 7  90879025.28346  22193587.347    22193586.350    22193584.701
        46.750          38.000
 121839296.899 7  94939694.57645  23185253.321    23185252.074    23185253.272
        42.000          30.500
 105806235.295 8  82446424.72949  20134258.073    20134257.948    20134260.212
        51.250          57.000
 113629173.765 7  88542219.71248  21622911.068    21622910.644    21622910.675
        47.500          49.750
 117883887.983 7  91857578.59845  22432556.909    22432555.827    22432555.442
        43.750          31.000
 114813057.650 7  89464722.84148  21848199.728    21848199.286    21848201.531
        46.250          49.250
 129801622.915 6 101144130.75943  24700427.643    24700427.478    24700428.711
        37.250          22.250
 126713539.207 6  98737866.12943  24112784.543    24112784.105    24112786.748
        37.500          21.750
 119430052.210 7                  22726781.548
        47.000
 116351457.173 7  90663499.46448  22140942.040    22140941.218    22140944.661
        45.750          48.000
 113970628.192 7                  21687890.292
        45.250
 126246543.111 8                  24023919.105
        48.250
 194880794.246 7                  37084580.738
        46.750
  30441028.075 7                   5792874.486
        43.250
 124127448.578 6                  23620671.416
        41.750
 118841249.528 6                  22216119.638
        36.500
 121808163.888 7                  22802742.987
        43.250
 203704128.185 7                  38763603.280
        42.750
 121914127.802 5                  22830589.763
        33.500
 180047826.622 7                  34261903.832
        46.750
 116953718.997 7                  21917080.337
        47.000
 104257910.631 8                  19531019.802
        52.500
 108572756.629 8                  20289418.575
        51.250
 108564585.829 8                  20280776.269
        51.250
 118368671.420 7                  22104511.322
        47.250
 149472671.355 5                  28443703.071
        32.500
 21 11 12 10 50  0.0000000  0 27G17G02G19G06G07G20G09G05G13E09G30E11
                                E04S36S48E12R19R12S23R13S25R02R18R17
                                R03R04E05
 127198003.830 6  99115308.66845  24204989.344    24204989.081    24204993.905
        38.500          34.750
 116558502.800 7  90824799.62346  22180344.882    22180343.885    22180342.053
        47.250          38.000
 121938864.910 7  95017279.93245  23204200.588    23204199.345    23204200.409
        42.250          30.250
 105817712.188 8  82455367.74449  20136442.055    20136441.930    20136444.184
        51.500          56.750
 113607318.467 7  88525189.61148  21618752.101    21618751.672    21618751.583
        47.750          49.500
 117818394.339 7  91806544.59045  22420093.851    22420092.787    22420091.970
        44.000          30.500
 114888616.016 7  89523599.45548  21862578.060    21862577.613    21862580.083
        46.750          49.250
 129729395.707 6 101087849.82943  24686683.283    24686683.145    24686683.337
        36.500          21.000
 126615863.904 6  98661755.62743  24094198.353    24094197.906    24094200.287
        38.000          21.750
 119401389.675 7                  22721327.444
        47.000
 116275855.681 7  90604589.24247  22126555.605    22126554.783    22126558.177
        46.500          47.750
 113968719.664 7                  21687526.997
        45.500
 126282405.965 8                  24030743.544
        48.500
 194880796.958 7                  37084581.016
        46.750
  30440861.461 7                   5792836.803
        43.500
 124200772.738 7                  23634624.772
        42.000
 118734568.932 6                  22196176.855
        37.250
 121786369.909 7                  22798662.874
        43.750
 203704209.696 7                  38763617.540
        42.750
 121824153.683 5                  22813739.242
        35.500
 180051495.284 7                  34262432.118
        46.750
 117024923.823 7                  21930423.995
        47.500
 104245062.189 8                  19528612.860
        52.250
 108673922.458 8                  20308323.747
        51.500
 108580683.097 8                  20283783.333
        51.250
 118320606.659 7                  22095536.223
        46.750
 149409132.600 6                  28431613.352
        37.500
 21 11 12 10 50 30.0000000  0 27G17G02G19G06G07G20G09G05G13E09G30E11
                                E04S36S48E12R19R12S23R13S25R02R18R17
                                R03R04E05
 127292599.450 6  99189019.04945  24222990.838    24222990.575    24222995.342
        37.500          33.500
 116489205.347 7  90770801.60846  22167158.024    22167157.032    22167155.408
        47.000          37.750
 122038507.858 7  95094923.66845  23223162.224    23223160.972    23223161.761
        42.250          30.500
 105829728.264 8  82464730.89949  20138728.685    20138728.560    20138730.744
        51.250          56.750
 113585936.182 7  88508528.09148  21614683.086    21614682.657    21614682.698
        47.750          49.750
 117752919.330 7  91755525.10545  22407634.196    22407633.132    22407632.778
        43.750          31.250
 114964351.049 7  89582613.72848  21876990.022    21876989.580    21876992.105
        46.750          49.500
 129657139.097 6 101031546.00343  24672932.974    24672932.800    24672933.428
        37.000          21.500
 126518389.496 6  98585801.67743  24075649.218    24075648.762    24075651.478
        39.000          22.250
 119372952.240 7                  22715915.948
        47.000
 116200546.095 7  90545906.47948  22112224.786    22112223.964    22112227.297
        46.000          48.000
 113967218.138 7                  21687241.380
        45.250
 126318405.307 8                  24037593.949
        48.250
 194880798.082 7                  37084582.451
        46.750
  30440699.519 7                   5792800.941
        43.500
 124274347.898 6                  23648625.687
        41.750
 118628326.504 6                  22176318.379
        37.250
 121765204.975 7                  22794701.349
        44.500
 203704295.423 7                  38763635.208
        42.750
 121734396.378 5                  22796930.898
        35.750
 180053574.954 7                  34262961.782
        46.500
 117096081.077 7                  21943758.796
        47.000
 104233041.193 8                  19526361.035
        52.250
 108775615.967 8                  20327327.752
        51.500
 108596965.947 8                  20286825.490
        50.750
 118272781.695 7                  22086604.306
        46.750
 149345725.763 5                  28419545.271
        32.000
 21 11 12 10 51  0.0000000  0 27G17G02G19G06G07G20G09G05G13E09G30E11
                                E04S36S48E12R19R12S23R13S25R02R18R17
                                R03R04E05
 127387095.482 6  99262651.79745  24240973.835    24240973.599    24240978.420
        38.000          34.500
 116420196.798 7  90717028.71346  22154026.275    22154025.278    22154023.326
        46.500          38.000
 122138217.513 7  95172619.36545  23242136.286    23242135.030    23242136.121
        42.000          30.750
 105842278.698 8  82474510.43649  20141116.845    20141116.720    20141119.078
        51.500          56.750
 113565022.919 8  88492232.04448  21610703.632    21610703.203    21610703.043
        48.000          50.000
 117687458.384 7  91704516.58145  22395177.682    22395176.623    22395177.015
        43.250          31.750
 115040255.301 7  89641759.86348  21891434.083    21891433.641    21891436.062
        46.000          49.000
 129584846.909 6 100975214.45643  24659176.627    24659176.440    24659177.349
        38.000          22.750
 126421112.285 6  98510001.35943  24057137.365    24057136.914    24057139.448
        40.250          22.500
 119344734.029 7                  22710546.234
        47.500
 116125525.809 7  90487449.14748  22097948.873    22097948.055    22097951.410
        46.250          48.000
 113966118.868 7                  21687032.117
        45.750
 126354534.594 8                  24044469.155
        48.500
 194880800.736 7                  37084583.712
        46.500
  30440536.311 7                   5792763.285
        43.500
 124348167.468 6                  23662672.921
        41.750
 118522521.199 6                  22156536.137
        36.250
 121744665.798 7                  22790855.767
        44.250
 203704379.319 7                  38763650.809
        42.750
 121644855.353 6                  22780162.834
        36.000
 180057252.496 7                  34263491.222
        46.500
 117167186.069 7                  21957083.544
        46.750
 104221843.032 8                  19524263.495
        52.500
 108877827.542 8                  20346428.289
        51.500
 108613426.844 8                  20289900.125
        51.250
 118225189.985 7                  22077717.644
        46.750
 149282445.639 6                  28407505.726
        37.250
 21 11 12 10 51 30.0000000  0 27G17G02G19G06G07G20G09G05G13E09G30E11
                                E04S36S48E12R19R12S23R13S25R02R18R17
                                R03R04E05
 127481487.850 6  99336203.75845  24258935.788    24258935.543    24258941.070
        37.000          33.750
 116351478.791 7  90663482.21746  22140949.601    22140948.609    22140946.710
        47.250          38.500
 122237989.369 7  95250363.55145  23261122.330    23261121.092    23261121.812
        42.500          31.250
 105855362.945 8  82484705.93449  20143606.822    20143606.697    20143608.846
        51.250          57.000
 113544578.954 8  88476301.68748  21606813.240    21606812.807    21606812.995
        48.000          50.250
 117622011.020 7  91653518.64745  22382723.198    22382722.134    22382722.916
        43.750          32.250
 115116325.568 7  89701035.35648  21905909.793    21905909.351    21905911.680
        46.750          49.750
 129512519.852 6 100918855.74443  24645412.918    24645412.708    24645413.475
        37.750          22.750
 126324032.564 6  98434354.95443  24038664.471    24038664.056    24038666.147
        40.500          22.500
 119316733.438 7                  22705217.731
        47.500
 116050796.525 7  90429218.56548  22083728.188    22083727.375    22083730.778
        46.000          48.250
 113965421.435 7                  21686899.450
        45.500
 126390791.549 8                  24051368.570
        48.250
 194880806.701 7                  37084584.320
        46.500
  30440378.109 7                   5792724.923
        43.250
 124422229.157 6                  23676766.598
        41.500
 118417156.127 5                  22136838.859
        34.750
 121724753.283 7                  22787128.508
        44.750
 203704460.803 7                  38763667.578
        42.500
 121555533.143 6                  22763434.702
        36.250
 180059330.915 7                  34264023.658
        45.750
 117238235.807 7                  21970398.492
        47.000
 104211467.551 8                  19522319.544
        52.250
 108980552.006 8                  20365625.217
        51.250
 108630063.183 8                  20293008.199
        51.000
 118177829.573 7                  22068874.000
        47.250
 149219291.494 5                  28395486.647
        35.500
